title,extension,content,address,address_comment,postal,district,city,region,rating,rating_cnt,lat,lon,type
[KU:],​рамен-изакая-бар​,Суши-бары; Рестораны; Бары; Доставка еды,"Лесная улица, 20 ст3",13 отдел; 1 этаж,125196.0,Тверской,Москва,Москва,4.5,219.0,55.780116,37.592338,branch
[KU:],​рамен-изакая-бар​,Суши-бары; Рестораны; Бары; Доставка еды,"Пресненская набережная, 10 ст2",1 этаж,123112.0,Пресненский,Москва,Москва,4.7,562.0,55.747437,37.535234,branch
[KU:],​рамен-изакая-бар​,Суши-бары; Рестораны; Бары; Доставка еды,"Большая Грузинская улица, 69",1 этаж,123056.0,Тверской,Москва,Москва,4.7,536.0,55.773902,37.586437,branch
[KU:],​рамен-изакая-бар​,Суши-бары; Рестораны; Бары; Доставка еды,"Смоленская улица, 8",1 этаж,121099.0,Арбат,Москва,Москва,4.7,651.0,55.746154,37.580429,branch
#NeMsk,кафе-столовая,Кафе; Столовые,"Октябрьская улица, 72",1 этаж,127521.0,Марьина Роща,Москва,Москва,3.1,2.0,55.799043,37.612952,branch
#СибирьСибирь,ресторан,Рестораны; Доставка еды; Банкетные залы,"Смоленская улица, 8",1 этаж,121099.0,Арбат,Москва,Москва,4.9,374.0,55.746154,37.580429,branch
+39,траттория,Рестораны; Пиццерии,"Новая Басманная улица, 23а ст4",,107078.0,Красносельский,Москва,Москва,4.6,20.0,55.770037,37.661796,branch
+39,траттория-пиццерия,Кафе; Пиццерии; Доставка еды,"Столярный переулок, 3 к12",1 этаж,123022.0,Пресненский,Москва,Москва,4.5,30.0,55.764168,37.568814,branch
0.33,бельгийская брассери,Кафе; Бары; Доставка еды; Банкетные залы,"Садовая-Спасская улица, 17/2",,107078.0,Красносельский,Москва,Москва,4.7,82.0,55.769959,37.64684,branch
0.75 please,ресторан,Рестораны,"Смоленская улица, 8",20 этаж,121099.0,Арбат,Москва,Москва,4.8,35.0,55.746154,37.580429,branch
1-я Креветочная,кафе быстрого обслуживания,Бары; Быстрое питание; Доставка еды,"Лесная улица, 20 ст3",40 отдел; 1 этаж,125196.0,Тверской,Москва,Москва,4.8,48.0,55.780386,37.593288,branch
10 by Ten,паназиатский ресторан с авторскими коктейлями,Рестораны; Бары,"улица Маросейка, 15",1 этаж,101000.0,Басманный,Москва,Москва,4.8,42.0,55.757929,37.636973,branch
100 хинкали,кафе грузинской кухни,Кафе,"Новослободская улица, 18",1 этаж,127055.0,Тверской,Москва,Москва,4.2,52.0,55.782287,37.599473,branch
1147 Беговая,ресторан,Рестораны,"Беговая улица, 3 ст1",1 этаж,125284.0,Хорошёвский,Москва,Москва,,,55.776189,37.553754,branch
13 rules,бар-магазин,Бары; Разливное пиво,"улица Сущёвский Вал, 41",цокольный этаж,127018.0,Марьина Роща,Москва,Москва,4.8,16.0,55.793267,37.608355,branch
13°,миниатюрный винный бар,Рестораны; Бары,"4-я Тверская-Ямская улица, 13",1 этаж,125047.0,Тверской,Москва,Москва,4.7,32.0,55.772366,37.597104,branch
16 Тонн,ресторан-клуб с аутентичным дизайном,Рестораны; Бары; Доставка еды,"улица Арбат, 28/1 ст1",1 этаж,119002.0,Арбат,Москва,Москва,4.3,86.0,55.749583,37.591051,branch
16 Тонн,ресторан-клуб с аутентичным дизайном,Рестораны; Бары; Ночные клубы,"улица Пресненский Вал, 6 ст1",,123022.0,Пресненский,Москва,Москва,4.5,325.0,55.764328,37.564349,branch
17-я пристань,бар-тусовочная,Кафе; Бары,"Новослободская улица, 14/19 ст4",1 этаж,127030.0,Тверской,Москва,Москва,4.6,23.0,55.781783,37.60062,branch
1870 Abrau-Durso wine&food,ресторан черноморской кухни,Рестораны,"Плотников переулок, 24",1 этаж,119002.0,Арбат,Москва,Москва,4.6,18.0,55.748193,37.588097,branch
1929,бар,Бары; Ночные клубы,"Славянская площадь, 2/5/4 ст3",цокольный этаж,109012.0,Таганский,Москва,Москва,4.2,209.0,55.753223,37.634861,branch
2 типа,бар,Рестораны; Бары,"улица Бутырский Вал, 24/13 ст1",1 этаж,125047.0,Тверской,Москва,Москва,4.8,19.0,55.781108,37.586619,branch
2:2,паб,Кафе; Бары,"улица Сретенка, 16/2",цокольный этаж,107045.0,Красносельский,Москва,Москва,4.8,37.0,55.768386,37.632583,branch
2/15,кафе-бар,Кафе,"улица Маросейка, 2/15 ст1",3 этаж,101000.0,Басманный,Москва,Москва,4.7,7.0,55.75709,37.632266,branch
2007,бар,Бары; Кейтеринг,"Бакунинская улица, 4-6 ст1",цокольный этаж,105005.0,Басманный,Москва,Москва,5.0,11.0,55.77253,37.681337,branch
22 сантиметра,пиццерия,Пиццерии; Кафе; Доставка еды,"улица Покровка, 27 ст1",цокольный-1 этаж,101000.0,Басманный,Москва,Москва,4.5,16.0,55.759807,37.647885,branch
22 сантиметра,пиццерия,Пиццерии; Кафе,"улица Солянка, 1",1 этаж,109028.0,Басманный,Москва,Москва,4.5,330.0,55.754495,37.638122,branch
23.11,рестобар,Рестораны,"Бауманская улица, 54 ст1",1 этаж,105005.0,Басманный,Москва,Москва,2.5,3.0,55.769261,37.679239,branch
288,кафе,Рестораны,"Береговой проезд, 5а к1",1 этаж,121087.0,Филёвский парк,Москва,Москва,4.9,30.0,55.755104,37.509052,branch
288 Сити,ресторан,Рестораны; Банкетные залы,"1-й Красногвардейский проезд, 22 ст1",2 этаж,123317.0,Пресненский,Москва,Москва,4.9,41.0,55.751514,37.534817,branch
2G,бар,Бары,"Кожевническая улица, 4",1 этаж,115114.0,Замоскворечье,Москва,Москва,,,55.730107,37.642572,branch
317,городское кафе,Кафе; Бары; Доставка еды,"Глубокий переулок, 1/2",1 этаж,123100.0,Пресненский,Москва,Москва,4.5,81.0,55.754677,37.569883,branch
351,бар,Кафе; Бары,"улица Фридриха Энгельса, 3-5 ст1",1 этаж,105005.0,Басманный,Москва,Москва,3.9,27.0,55.771522,37.679859,branch
4`33,бар,Рестораны; Бары,"2-я Тверская-Ямская улица, 2",1 этаж,125047.0,Тверской,Москва,Москва,,,55.77072,37.596467,branch
46,бар,Кафе; Бары; Караоке-залы; Доставка еды,"Фрунзенская набережная, 46",-1 этаж,119270.0,Хамовники,Москва,Москва,4.8,15.0,55.718777,37.582061,branch
495,ресторан,Рестораны,"Олимпийский проспект, 18/1",1 этаж,129110.0,Мещанский,Москва,Москва,2.3,7.0,55.785007,37.62412,branch
6 am Bread Kitchen,кафе,Кафе,"Садовническая улица, 80",1 этаж,115035.0,Замоскворечье,Москва,Москва,4.3,56.0,55.737603,37.641381,branch
6 pm Bread Kitchen,ресторан,Рестораны,"улица Усачёва, 15а",1 этаж,119048.0,Хамовники,Москва,Москва,3.8,9.0,55.726271,37.570918,branch
69 pints,крафтовый паб,Бары,"Тверская улица, 5/6",1 этаж,125009.0,Тверской,Москва,Москва,4.5,36.0,55.758028,37.612056,branch
777,хинкальная,Кафе; Доставка еды,"Большая Пироговская улица, 53/55",1 этаж,119435.0,Хамовники,Москва,Москва,3.9,31.0,55.726701,37.561661,branch
8 Oz,ресторан,Кафе; Бары; Доставка еды,"улица Крымский Вал, 9 ст21",,119049.0,Якиманка,Москва,Москва,4.0,83.0,55.724212,37.595848,branch
8 градусов,пивной бар,Кафе; Бары; Доставка еды,"Страстной бульвар, 4 ст3",1 этаж,125375.0,Тверской,Москва,Москва,4.8,25.0,55.765145,37.608436,branch
8 шаров,бильярдный клуб,Бары; Бильярдные залы,"Большой Трёхсвятительский переулок, 2/1 ст8",,109028.0,Басманный,Москва,Москва,4.3,14.0,55.754715,37.643082,branch
800 contemporary steak,мясной ресторан,Рестораны; Доставка еды; Банкетные залы,"Большой Патриарший переулок, 6 ст1",1 этаж,123001.0,Пресненский,Москва,Москва,4.3,45.0,55.762619,37.592346,branch
8956,ресторан,Рестораны,"Пресненская набережная, 12",-2 этаж,123112.0,Пресненский,Москва,Москва,4.3,125.0,55.749601,37.537613,branch
8bitpizza,кафе с современной итальянской кухней,Кафе; Доставка еды,"улица Правды, 24 ст3",1 этаж,125124.0,Беговой,Москва,Москва,4.0,9.0,55.788214,37.58285,branch
aaark,кафе-пекарня,Кафе; Пекарни,"улица Чаплыгина, 20/7",1 этаж,101000.0,Басманный,Москва,Москва,4.6,136.0,55.761668,37.649629,branch
Abc,,Кафе,"Лесная улица, 7",1 этаж,125196.0,Тверской,Москва,Москва,,,55.778635,37.588487,branch
Abrau Club Cafe&Shop,,Рестораны; Доставка еды,"улица Петровка, 15 ст1",1 этаж,107031.0,Тверской,Москва,Москва,5.0,1.0,55.76403,37.616927,branch
Acapella Restaurant&Lounge,ресторан русской и европейской кухни,Рестораны,"Космодамианская набережная, 52 ст6",2 этаж,115035.0,Замоскворечье,Москва,Москва,2.1,4.0,55.733514,37.643753,branch
Accenti,ресторан итальянской кухни,Рестораны; Доставка еды,"Кропоткинский переулок, 7 ст2-4",,119034.0,Хамовники,Москва,Москва,4.9,21.0,55.737611,37.593165,branch
Adam,ресторан,Рестораны; Доставка еды,"Большая Грузинская улица, 76",1 этаж,125047.0,Тверской,Москва,Москва,4.9,57.0,55.773567,37.586859,branch
Adam,ресторан ливанской кухни,Рестораны,"Мясницкая улица, 18",1 этаж,101000.0,Басманный,Москва,Москва,3.8,13.0,55.7611,37.632509,branch
adoro la pizza,,Пиццерии; Быстрое питание; Доставка еды,"Пресненская набережная, 6 ст2",-1 этаж,123112.0,Пресненский,Москва,Москва,,,55.748334,37.540995,branch
Akbar,кафе дагестанской кухни,Кафе,"1-я Квесисская улица, 18",,127220.0,Савёловский,Москва,Москва,,,55.794808,37.578336,branch
Akvarel Stoleshnikov,кафе,Кафе,"переулок Столешников, 12 ст3",1 этаж,107031.0,Тверской,Москва,Москва,5.0,1.0,55.76257,37.614684,branch
Alaska,гастробар,Рестораны; Бары; Доставка еды,"Бобров переулок, 4 ст1",цокольный этаж,101000.0,Красносельский,Москва,Москва,4.6,42.0,55.765421,37.634427,branch
Alberto food,итальянская траттория,Пиццерии; Быстрое питание,"улица Рогожский Вал, 5 ст1",1 этаж,109544.0,Таганский,Москва,Москва,4.4,7.0,55.744417,37.678956,branch
All Day,городской проект от Лаки групп,Рестораны; Доставка еды,"Пресненская набережная, 12",1 этаж,123112.0,Пресненский,Москва,Москва,4.5,17.0,55.750005,37.537306,branch
Alma,гастробар,Рестораны; Бары,"Столярный переулок, 3 к13",1 этаж,123022.0,Пресненский,Москва,Москва,4.8,10.0,55.76433,37.568335,branch
Aloha,коктейльный бар,Бары,"Никольская улица, 10",1 этаж,109012.0,Тверской,Москва,Москва,4.9,67.0,55.757837,37.623979,branch
Alpaca,камерный бар с перуанской кухней,Рестораны; Бары,"Потаповский переулок, 14",цокольный этаж,101000.0,Басманный,Москва,Москва,4.7,35.0,55.759408,37.641531,branch
Am pm,бар,Бары,"Пожарский переулок, вл3",1 этаж,119034.0,Хамовники,Москва,Москва,5.0,1.0,55.740367,37.604588,branch
Am pm,ресторан,Рестораны,"Пожарский переулок, вл3",,119034.0,Хамовники,Москва,Москва,3.8,4.0,55.740426,37.604253,branch
Ambassadoria,ресторан,Рестораны; Банкетные залы,"Комсомольский проспект, 13",цокольный этаж,119146.0,Хамовники,Москва,Москва,3.8,12.0,55.730196,37.589174,branch
Amber,японский ресторан,Рестораны; Доставка еды,"Цветной бульвар, 2",1 этаж,127051.0,Мещанский,Москва,Москва,5.0,46.0,55.767401,37.623098,branch
Ami Chaise,кафе,Кафе,"Нижняя Красносельская улица, 35 ст49",1 этаж,105066.0,Басманный,Москва,Москва,4.6,75.0,55.775445,37.672226,branch
Ampelmann Bar,восточно-берлинский руин-бар,Бары,"Сущёвская улица, 21",1 этаж,127030.0,Тверской,Москва,Москва,,,55.782332,37.600307,branch
Analog,музыкальный бар,Бары,"Товарищеский переулок, 4 ст5",2 этаж,109004.0,Таганский,Москва,Москва,5.0,1.0,55.741527,37.660016,branch
Anchovy`s Club,ресторан,Рестораны,"Колокольников переулок, 3 ст2",,107045.0,Мещанский,Москва,Москва,4.6,59.0,55.76804,37.624839,branch
Andy`s Friends,итальянское кафе,Кафе,"Чистопрудный бульвар, 5",цокольный этаж,101000.0,Басманный,Москва,Москва,4.2,63.0,55.76358,37.642452,branch
Anima,ночной клуб,Бары; Ночные клубы; Аренда концертных площадок,"Сущёвская улица, 21",1 этаж,127030.0,Тверской,Москва,Москва,4.6,136.0,55.782154,37.601476,branch
Antalya,кафе турецкой кухни,Кафе,"улица Сущёвский Вал, 5 ст5",1 этаж,127018.0,Марьина Роща,Москва,Москва,4.3,13.0,55.793785,37.590257,branch
Anvil,ресторан,Рестораны,"Воробьёвское шоссе, 4",1 этаж; фитнес-клуб Anvil,119285.0,Раменки,Москва,Москва,,,55.727687,37.535073,branch
Aoduvan,ресторан,Рестораны,"Гоголевский бульвар, 31 ст1",1 этаж,119019.0,Арбат,Москва,Москва,5.0,4.0,55.750634,37.599984,branch
Aojin Sushi,,Рестораны,"Большая Дорогомиловская улица, 10",,121059.0,Дорогомилово,Москва,Москва,5.0,3.0,55.746449,37.562669,branch
Aperetivo,бар,Бары,"площадь Киевского вокзала, 2",4 этаж,121059.0,Дорогомилово,Москва,Москва,3.0,2.0,55.744913,37.567713,branch
Apres,кафе,Кафе; Доставка еды,"улица Сергея Макеева, 9 ст5",1 этаж,123100.0,Пресненский,Москва,Москва,4.5,2.0,55.760813,37.548949,branch
Aqua cafe,кофейня,Кофейни; Кафе; Доставка еды,"улица Лужники, 24 ст4",1 этаж; Вход 2,119048.0,Хамовники,Москва,Москва,4.9,203.0,55.712523,37.559273,branch
Aquamarine,ресторан,Рестораны; Доставка еды; Банкетные залы,"улица Лужники, 24 ст4",1 этаж,119048.0,Хамовники,Москва,Москва,4.9,220.0,55.71237,37.558615,branch
Arabist,ресторан гастрономических традиций Востока и Запада,Рестораны; Доставка еды; Караоке-залы; Бары; Банкетные залы,"Большая Андроньевская улица, 23",цокольный этаж,109147.0,Таганский,Москва,Москва,4.4,59.0,55.740517,37.671854,branch
Arch 1908,бар и кафе,Кафе; Бары,"Ермолаевский переулок, 4",1 этаж,123001.0,Пресненский,Москва,Москва,4.7,55.0,55.763316,37.589808,branch
Archie,современный ресторан,Рестораны; Доставка еды,"Комсомольский проспект, 42 ст2",1 этаж,119048.0,Хамовники,Москва,Москва,4.5,38.0,55.721913,37.572592,branch
Arild,лаундж-бар,Бары,"Самарская улица, 1",1 этаж,129110.0,Мещанский,Москва,Москва,4.6,11.0,55.784563,37.626432,branch
Arma craft,крафтовый паб,Бары,"Нижний Сусальный переулок, 5 ст9",1 этаж,105064.0,Басманный,Москва,Москва,4.4,42.0,55.760725,37.664012,branch
Aroma,ресторан,Рестораны; Доставка еды,"Большая Никитская улица, 46/17 к1",,121069.0,Пресненский,Москва,Москва,4.7,6.0,55.7582,37.590954,branch
Aroma,ресторан,Рестораны,"улица Большая Дмитровка, 8/1",цокольный этаж,107031.0,Тверской,Москва,Москва,4.4,22.0,55.760777,37.615701,branch
Aroma,ресторан,Кафе; Рестораны; Доставка еды,"улица Красина, 3 ст1",1 этаж,123056.0,Пресненский,Москва,Москва,4.7,208.0,55.766416,37.589145,branch
Arrurru,мексиканский андеграунд ресторан,Рестораны,"улица Остоженка, 3/14",1 этаж,119034.0,Хамовники,Москва,Москва,4.1,13.0,55.743983,37.602043,branch
ArtBar Continental,гастробар европейской и русской кухни,Бары,"Тверская улица, 22",1 этаж; гостиница Continental Hotel,125009.0,Тверской,Москва,Москва,,,55.767311,37.601222,branch
Artelli,,Рестораны; Пиццерии; Бары,"Береговой проезд, 1а",8Н помещение,121087.0,Филёвский парк,Москва,Москва,4.9,96.0,55.757804,37.512045,branch
Arts Palace,ресторан,Рестораны; Доставка еды,"Успенский переулок, 3 ст4",цокольный этаж,127006.0,Тверской,Москва,Москва,5.0,1.0,55.769247,37.607358,branch
Aruba,бар-ресторан,Рестораны; Бары,"Народная улица, 4 ст1",1 этаж,115172.0,Таганский,Москва,Москва,4.7,91.0,55.739656,37.651971,branch
Askaneli,грузинское бистро,Рестораны; Доставка еды,"Мясницкая улица, 13 ст3",1 этаж,101000.0,Красносельский,Москва,Москва,5.0,956.0,55.762351,37.634247,branch
Assunta Madre,итальянский рыбный ресторан,Рестораны; Доставка еды; Интересные здания,"Поварская улица, 52/55 ст2",,121069.0,Пресненский,Москва,Москва,4.8,140.0,55.757551,37.586812,branch
Atelier de tartelettes,французская кондитерская,Кофейни; Кафе-кондитерские; Доставка еды; Кондитерские изделия,"Спиридоньевский переулок, 10а",1 этаж,123104.0,Пресненский,Москва,Москва,4.6,53.0,55.762706,37.595805,branch
Atlantica,ресторан,Рестораны; Доставка еды; Банкетные залы,"Кутузовский проспект, 36а",2 этаж,121170.0,Дорогомилово,Москва,Москва,4.8,624.0,55.738894,37.526508,branch
Atlantica Bistro,,Рестораны,"Мясницкая улица, 24/7 ст2",,101000.0,Басманный,Москва,Москва,3.4,5.0,55.763534,37.635987,branch
Atlantica Bistro,,Рестораны,"Цветной бульвар, 11 ст2",,127051.0,Тверской,Москва,Москва,4.7,275.0,55.769885,37.620794,branch
Atlas Moscow,ночной клуб,Рестораны; Ночные клубы; Бары,"Столярный переулок, 3 к17",1 этаж,123022.0,Пресненский,Москва,Москва,4.2,19.0,55.764584,37.568981,branch
Atlas Terrace,,Рестораны; Бары,"Столярный переулок, 3 к17",,123022.0,Пресненский,Москва,Москва,5.0,1.0,55.764584,37.568981,branch
Atrani,ресторан,Рестораны,"Большая Почтовая улица, 28 к7",,105082.0,Басманный,Москва,Москва,,,55.779107,37.699626,branch
Aurora,ресторан,Рестораны,"улица Петровка, 11",2 этаж,107031.0,Тверской,Москва,Москва,5.0,2.0,55.762974,37.617252,branch
Authentic Lovers,ресторан,Рестораны,"2-я Звенигородская улица, 12 ст1",,123100.0,Пресненский,Москва,Москва,3.2,2.0,55.761735,37.557681,branch
Ava,ресторан,Рестораны; Доставка еды,"Малая Бронная улица, 21/13 ст2",1 этаж,123104.0,Пресненский,Москва,Москва,4.5,150.0,55.762791,37.594817,branch
Ava Bistro,,Рестораны,"улица Усачёва, 26",2 этаж,119048.0,Хамовники,Москва,Москва,,,55.727483,37.568108,branch
Ava Bistro,ресторан,Рестораны,"Лесная улица, 20 ст6",1 этаж,125196.0,Тверской,Москва,Москва,4.1,6.0,55.779759,37.59086,branch
Ava Bistro,ресторан,Рестораны; Кондитерские изделия,"Большая Никитская улица, 23/14/9",1 этаж,125009.0,Пресненский,Москва,Москва,4.4,14.0,55.757383,37.599435,branch
Ava Bistro,ресторан,Рестораны; Доставка еды,"Цветной бульвар, 2",1 этаж,127051.0,Мещанский,Москва,Москва,4.6,86.0,55.767274,37.623124,branch
Avenue,ресторан,Рестораны,"Смоленская улица, 8",4 этаж,121099.0,Арбат,Москва,Москва,4.1,10.0,55.746154,37.580429,branch
Avero mio на Петровке,итальянский ресторан-бистро,Рестораны; Банкетные залы,"улица Петровка, 34 ст1",1 этаж,127006.0,Тверской,Москва,Москва,5.0,8.0,55.768601,37.613353,branch
Avgust,рыбный ресторан,Рестораны; Доставка еды; Рыба и морепродукты,"Бауманская улица, 9",1 этаж,105005.0,Басманный,Москва,Москва,4.8,28.0,55.776563,37.676763,branch
Avo Toast,ресторан,Рестораны,"Нижняя Красносельская улица, 35 ст49",1 этаж,105066.0,Басманный,Москва,Москва,4.5,9.0,55.775823,37.67168,branch
Avrora,ресторан,Рестораны; Доставка еды,"Цветной бульвар, 2",1-3 этаж,127051.0,Мещанский,Москва,Москва,3.9,79.0,55.767195,37.62321,branch
Axiom,пивной бар,Бары,"Спартаковская площадь, 16/15 ст2","1, 2 этаж",105082.0,Басманный,Москва,Москва,4.2,25.0,55.776285,37.679394,branch
Ayu,японский суши омакасе ресторан,Рестораны; Суши-бары,"Романов переулок, 2 ст1",1 этаж,125009.0,Арбат,Москва,Москва,4.4,10.0,55.754198,37.608496,branch
Azur by Erdal,стейк-хаус,Рестораны,"1-й Красногвардейский проезд, 22 ст1",1 этаж,123317.0,Пресненский,Москва,Москва,3.7,20.0,55.751468,37.534816,branch
Aфina,,Рестораны,"Большая Бронная улица, 2/6",1 этаж,123104.0,Пресненский,Москва,Москва,4.6,48.0,55.76013,37.597541,branch
B.60,ресторан,Рестораны,"1-я Брестская улица, 60",1 этаж,125047.0,Тверской,Москва,Москва,5.0,3.0,55.774982,37.585723,branch
B&F,бар,Бары; Быстрое питание,"Таганская улица, 1 ст1",,109147.0,Таганский,Москва,Москва,,,55.741654,37.656214,branch
B&F,бар,Бары; Быстрое питание,"Ладожская улица, 5",,105005.0,Басманный,Москва,Москва,,,55.771562,37.682152,branch
B&F,бар,Бары; Быстрое питание,"Ладожская улица, 5",,105005.0,Басманный,Москва,Москва,5.0,2.0,55.771624,37.682311,branch
B&F,бар,Бары; Быстрое питание,"Большая Семёновская улица, 28",1 этаж,107023.0,Соколиная Гора,Москва,Москва,4.9,15.0,55.78188,37.706934,branch
B&F,бар,Бары; Быстрое питание,"Страстной бульвар, 4 ст3",1 этаж,125375.0,Тверской,Москва,Москва,4.4,60.0,55.765148,37.608231,branch
babacha,ресторан грузинской кухни,Рестораны,"Большая Сухаревская площадь, 16/18 ст2",1 этаж,107045.0,Красносельский,Москва,Москва,5.0,3.0,55.771648,37.638044,branch
babacha,ресторан грузинской кухни,Рестораны,"Комсомольский проспект, 7 ст2",1 этаж,119146.0,Хамовники,Москва,Москва,4.5,24.0,55.731407,37.591881,branch
babacha,ресторан грузинской кухни,Рестораны; Доставка еды,"Нижняя Радищевская улица, 10 ст4",,109240.0,Таганский,Москва,Москва,4.5,79.0,55.742472,37.651733,branch
Babes,арт-бистро,Кафе; Бары; Рестораны,"Большой Путинковский переулок, 5",,127006.0,Тверской,Москва,Москва,,,55.76738,37.607471,branch
Babes never die,коктейль-бар,Бары,"1-я Тверская-Ямская улица, 2 ст1",1 этаж,127006.0,Тверской,Москва,Москва,4.9,34.0,55.770039,37.597396,branch
Babo`s,ресторан грузинской кухни,Рестораны; Доставка еды,"Гончарная набережная, 9/16 ст1",1 этаж,115172.0,Таганский,Москва,Москва,4.2,26.0,55.737373,37.64911,branch
Baci&Abbracci,итальянский ресторан,Рестораны; Банкетные залы,"Старомонетный переулок, 18",1 этаж,119180.0,Якиманка,Москва,Москва,4.3,20.0,55.739939,37.618671,branch
Backroom,бар-клуб,Бары; Ночные клубы,"Грузинский Вал улица, 11 ст3",2 этаж,123056.0,Тверской,Москва,Москва,5.0,1.0,55.774022,37.578501,branch
Backstage,,Бары,"улица Маросейка, 9/2 ст1",цокольный этаж; бар Модники,101000.0,Басманный,Москва,Москва,,,55.757849,37.634769,branch
Bad Bro,пивной крафт-драфт бар,Бары,"Грузинский Вал улица, 26 ст1",1 этаж,123056.0,Пресненский,Москва,Москва,4.6,63.0,55.774564,37.581754,branch
Bad Crown Bar,арт-бар,Бары,"Большой Спасоглинищевский переулок, 9/1 ст14",цокольный этаж,101000.0,Басманный,Москва,Москва,4.4,13.0,55.754416,37.637326,branch
Bagebi,ресторан грузинской кухни,Рестораны,"улица Пречистенка, 19/11 ст1",1 этаж,119034.0,Хамовники,Москва,Москва,4.9,1385.0,55.741222,37.593127,branch
Balagan,ресторан,Рестораны,"Столярный переулок, 3 к16",1 этаж,123022.0,Пресненский,Москва,Москва,3.6,18.0,55.764978,37.568688,branch
Balance Bar,кафе,Кафе,"Самокатная улица, 2 ст1",1 этаж,111033.0,Лефортово,Москва,Москва,,,55.758041,37.676897,branch
Balzi Rossi,итальянский ресторан,Рестораны; Доставка еды,"Кудринская площадь, 1",1 этаж,123242.0,Пресненский,Москва,Москва,4.5,73.0,55.759564,37.581212,branch
Bamboo.bar,ресторан,Рестораны; Караоке-залы; Доставка еды; Банкетные залы,"Пресненская набережная, 8 ст1",1 этаж,123112.0,Пресненский,Москва,Москва,4.9,176.0,55.746757,37.539245,branch
Bambule,невинный бар,Рестораны; Бары,"улица Солянка, 1/2",1 этаж,109028.0,Басманный,Москва,Москва,4.4,121.0,55.754358,37.637774,branch
Banksy,бар,Кафе; Бары,"улица Крымский Вал, 6",,119049.0,Якиманка,Москва,Москва,4.5,12.0,55.730835,37.610249,branch
Bar24,бар,Кафе; Бары,"Краснопресненская набережная, 12",1 этаж; 1 подъезд,123610.0,Пресненский,Москва,Москва,5.0,1.0,55.754352,37.55773,branch
Barbaresco,ресторан,Рестораны,"Мясницкая улица, 14",1 этаж,101000.0,Басманный,Москва,Москва,,,55.760867,37.632129,branch
Bardot,французское бистро,Рестораны,"улица Остоженка, 5",1 этаж,119034.0,Хамовники,Москва,Москва,4.8,17.0,55.743186,37.601177,branch
Barmalini,ресторан,Рестораны,"Садовническая улица, 82 ст2",,115035.0,Замоскворечье,Москва,Москва,4.6,27.0,55.734918,37.642857,branch
Barokko,поп-ап-бар,Бары,"Новослободская улица, 16а",1 этаж,127030.0,Тверской,Москва,Москва,5.0,1.0,55.782332,37.600307,branch
Barrel,винный бар,Бары,"4-й Сыромятнический переулок, 1/8 ст6",цокольный этаж,105120.0,Басманный,Москва,Москва,5.0,11.0,55.755957,37.664802,branch
Barrr,магазин-бар,Бары,"Рождественский бульвар, 1",-1 этаж,107045.0,Мещанский,Москва,Москва,5.0,4.0,55.7668,37.624233,branch
BBQ Kitchen,городское кафе,Кафе,"Сокольническая площадь, 4а",2 этаж,107113.0,Сокольники,Москва,Москва,4.8,18.0,55.789698,37.678705,branch
BBQ Kitchen,городское кафе,Кафе,"Суворовская улица, 5",,107023.0,Преображенское,Москва,Москва,4.9,88.0,55.787102,37.70929,branch
Beauty Pub,кафе,Кафе,"Докучаев переулок, 3 ст1",1 этаж,107078.0,Красносельский,Москва,Москва,4.5,4.0,55.774601,37.642236,branch
Bebi,ресторан,Рестораны; Доставка еды,,,123022.0,Пресненский,Москва,Москва,,,55.76441,37.56918,branch
Beef time,стейк-хаус,Рестораны; Банкетные залы,"проспект Мира, 102 ст1а",1 этаж; вход 1А.3,129626.0,Алексеевский,Москва,Москва,4.9,163.0,55.801013,37.636751,branch
Beer box,крафт-бар,Бары,"Никольская улица, 10",1 этаж,109012.0,Тверской,Москва,Москва,4.2,10.0,55.757806,37.624023,branch
Beer Happens,бар,Кафе; Бары,"улица Сретенка, 26/1",1 этаж,107045.0,Красносельский,Москва,Москва,4.7,38.0,55.770512,37.63334,branch
Beer Harbor,крафтовый бар,Кафе; Бары,"улица Покровка, 21-23/25 ст1",1 этаж,101000.0,Басманный,Москва,Москва,4.5,60.0,55.759945,37.646972,branch
Beer Market,,Бары,"улица Остоженка, 30 ст1",1 этаж,119034.0,Хамовники,Москва,Москва,5.0,9.0,55.740009,37.596399,branch
Beer&Balls,паб,Кафе; Бары,"улица Воздвиженка, 4/7 ст1",1 этаж,125009.0,Арбат,Москва,Москва,5.0,190.0,55.753007,37.611113,branch
Beer&Brut,гастропаб от ресторатора Владимира Перельмана,Рестораны; Бары; Доставка еды,"улица Покровка, 26/1 ст2",,101000.0,Басманный,Москва,Москва,4.6,60.0,55.760106,37.6493,branch
Beer&food,пивной бар,Кафе; Бары,"улица Рождественка, 6/9/20 ст1",цокольный этаж,107031.0,Мещанский,Москва,Москва,4.8,29.0,55.761086,37.624031,branch
Beer`n`Blues,бар-магазин разливных напитков,Бары; Разливное пиво,"Мукомольный проезд, 2",,123290.0,Пресненский,Москва,Москва,5.0,9.0,55.751124,37.525867,branch
Beermood,бар,Бары,"Чистопрудный бульвар, 21",1 этаж,101000.0,Басманный,Москва,Москва,4.3,34.0,55.760482,37.64656,branch
Beersach,бар,Кафе; Бары; Доставка еды,"Кожевническая улица, 14 ст1",цокольный этаж,115114.0,Даниловский,Москва,Москва,4.9,35.0,55.728855,37.646977,branch
Beerside,гастропаб,Рестораны; Бары; Доставка еды; Банкетные залы,"Большая Сухаревская площадь, 9",1 этаж,129090.0,Красносельский,Москва,Москва,4.9,157.0,55.772435,37.638141,branch
Beerжевик,бар,Бары,"Пятницкая улица, 29",,115184.0,Замоскворечье,Москва,Москва,5.0,9.0,55.740897,37.629024,branch
Bella ciao,ресторан,Рестораны; Доставка еды,"Мантулинская улица, 9 к3",1 этаж,123100.0,Пресненский,Москва,Москва,5.0,15.0,55.754132,37.544616,branch
Beluga Caviar Bar,кафе-бар,Кафе; Бары,"Красная площадь, 3",3 линия; 1 этаж,109012.0,Тверской,Москва,Москва,4.2,7.0,55.755001,37.621522,branch
Best bar,,Бары,"Лесная улица, 20 ст3",104 павильон; 1 этаж,125196.0,Тверской,Москва,Москва,,,55.78042,37.593724,branch
Beverly hills diner,семейный ресторан,Кафе; Доставка еды,"Никольская улица, 10",-1 этаж,109012.0,Тверской,Москва,Москва,2.7,13.0,55.758219,37.624573,branch
Beyoglu,кафе,Кафе; Доставка еды,"улица Арбат, 11",1 этаж,119019.0,Арбат,Москва,Москва,4.3,53.0,55.751475,37.597617,branch
Beyond,ресторан,Рестораны,"Большой Овчинниковский переулок, 16",1 этаж,115184.0,Замоскворечье,Москва,Москва,4.7,3.0,55.74423,37.630461,branch
Bez Tarelok,кафе,Кафе,"Мясницкая улица, 11",1 этаж,101000.0,Красносельский,Москва,Москва,4.8,23.0,55.761527,37.632688,branch
Bez Tarelok,кафе,Кафе,"1-й Красногвардейский проезд, 22 ст1",1 этаж; ресторан Кофемания,123317.0,Пресненский,Москва,Москва,5.0,8.0,55.751526,37.534283,branch
Big Easy,бар,Бары,"Пятницкая улица, 16 ст1",,115035.0,Замоскворечье,Москва,Москва,5.0,4.0,55.742519,37.628297,branch
Big Wine Freaks,винный бар,Рестораны; Бары,"Большая Никитская улица, 62 ст3",1 этаж,121069.0,Пресненский,Москва,Москва,4.5,45.0,55.75886,37.585292,branch
Bigati Bar,винный бар,Кафе; Бары,"улица Земляной Вал, 1/4 ст1",1 этаж,105064.0,Басманный,Москва,Москва,5.0,181.0,55.763775,37.657523,branch
Bijou,бар,Кафе; Бары,"2-я Брестская улица, 39 ст3",цокольный этаж,123056.0,Пресненский,Москва,Москва,4.9,29.0,55.773971,37.584743,branch
Billie,бильярдный клуб,Бары; Бильярдные залы,"Неглинная улица, 29",1 этаж,127051.0,Тверской,Москва,Москва,4.5,9.0,55.766342,37.620717,branch
Bistrot,ресторан,Рестораны; Доставка еды,"Большой Саввинский переулок, 12 ст2",1 этаж,119435.0,Хамовники,Москва,Москва,4.1,9.0,55.733104,37.565339,branch
Biwon,ресторан,Рестораны,"Погодинская улица, 2",,119121.0,Хамовники,Москва,Москва,3.1,3.0,55.735529,37.573086,branch
Bizi Moscow,бар,Бары; Ночные клубы; Банкетные залы; Аренда концертных площадок,"3-я улица Ямского Поля, 2 к12",цокольный этаж,125124.0,Беговой,Москва,Москва,4.4,279.0,55.781098,37.583256,branch
Bla bla bar,бар-ресторан,Бары; Рестораны; Ночные клубы; Банкетные залы,"Лесная улица, 20 ст5",1-2 этаж,125196.0,Тверской,Москва,Москва,4.6,296.0,55.779288,37.590622,branch
Black Angus,стейк-хаус с мужским характером,Бары; Рестораны; Банкетные залы,"Пятницкая улица, 29",1 этаж,115184.0,Замоскворечье,Москва,Москва,4.8,66.0,55.741078,37.62872,branch
Black Angus,стейк-хаус с мужским характером,Бары; Рестораны; Банкетные залы; Доставка еды,"1-я Тверская-Ямская улица, 16/23",1 этаж,125047.0,Тверской,Москва,Москва,4.8,350.0,55.772843,37.591737,branch
Black hat bar,карибский паб,Кафе; Бары; Доставка еды,"Садовая-Каретная улица, 20 ст1",1 этаж,127051.0,Тверской,Москва,Москва,4.9,467.0,55.772977,37.610634,branch
Black Market,современная гастрономия,Кафе; Доставка еды,"улица Усачёва, 2 ст1",1 этаж,119048.0,Хамовники,Москва,Москва,4.4,27.0,55.730984,37.576977,branch
Black sheep by taboo,бар,Бары,"Рождественский бульвар, 1",1 этаж,107045.0,Мещанский,Москва,Москва,,,55.766654,37.624303,branch
Black Thai,ресторан тайской кухни,Рестораны; Доставка еды,"Кутузовский проспект, 2/1 ст1",1 этаж,121248.0,Дорогомилово,Москва,Москва,4.4,78.0,55.75092,37.565777,branch
Blanc,ресторан европейской кухни,Кафе; Бары,"Хохловский переулок, 7-9 ст2",1 этаж,101000.0,Басманный,Москва,Москва,4.2,152.0,55.755936,37.643184,branch
Blanc de blancs cafe,французское кафе,Рестораны; Доставка еды; Кафе; Организация праздников; Кейтеринг,"Люсиновская улица, 36/50",1 этаж,115093.0,Замоскворечье,Москва,Москва,4.7,76.0,55.721777,37.621716,branch
Blar,кафе,Кафе,"улица Усачёва, к2/1",,119048.0,Хамовники,Москва,Москва,,,55.725898,37.572709,branch
Blau,кафе уличной еды Стамбула,Кафе; Доставка еды,"Садовническая набережная, 7",1 этаж,115035.0,Замоскворечье,Москва,Москва,4.3,42.0,55.747084,37.627896,branch
Blisski,коктейльный бар,Рестораны; Бары,"проспект Мира, 21 ст1",4 этаж,129090.0,Мещанский,Москва,Москва,4.7,79.0,55.778913,37.631731,branch
Blizko,пиццерия,Пиццерии; Быстрое питание; Доставка еды,"улица Маросейка, 4/2 ст1",2 этаж,101000.0,Басманный,Москва,Москва,1.6,4.0,55.757422,37.633438,branch
Bluefin,ресторан японской кухни,Рестораны; Доставка еды; Суши-бары,,,123317.0,Пресненский,Москва,Москва,4.7,86.0,55.751088,37.535236,branch
Blush,винный бар,Кафе; Бары,"Даев переулок, 2",1 этаж,107045.0,Красносельский,Москва,Москва,4.4,24.0,55.770423,37.63425,branch
Board&вилка,гастро-бар,Кафе,"улица Косыгина, 28 к2",2 этаж,119334.0,Раменки,Москва,Москва,3.2,4.0,55.708218,37.544968,branch
Bocconcino,ресторан итальянской кухни,Рестораны; Доставка еды,"Лесная улица, 20 ст4",1 этаж,125196.0,Тверской,Москва,Москва,4.3,17.0,55.779561,37.59247,branch
Bodega,ресторан-бар,Рестораны; Бары,"улица Малая Дмитровка, 20",,127006.0,Тверской,Москва,Москва,5.0,1.0,55.771363,37.605146,branch
Bodrero,кондитерская,Кофейни; Кондитерские изделия; Кафе-кондитерские,"улица Сретенка, 9",1 этаж,107045.0,Мещанский,Москва,Москва,4.6,151.0,55.767625,37.631539,branch
Bodrum,ресторан турецкой и европейской кухни,Рестораны; Банкетные залы,"Кожевническая улица, 14 ст1",,115114.0,Даниловский,Москва,Москва,4.7,48.0,55.728993,37.647008,branch
Bolognetta,ресторан-пиццерия,Рестораны; Пиццерии; Доставка еды,"площадь Киевского вокзала, 2",3 этаж,121059.0,Дорогомилово,Москва,Москва,4.9,120.0,55.744017,37.564707,branch
Bon app cafe,кафе авторской кухни,Кафе,"Никольская улица, 25",1 этаж,109012.0,Тверской,Москва,Москва,4.8,92.0,55.759153,37.624797,branch
Borrachitos,ресторан,Рестораны,"Тверская улица, 22а ст3",1 этаж,125009.0,Тверской,Москва,Москва,4.7,46.0,55.767643,37.602443,branch
Bosco Cafe,ресторан,Рестораны,"Красная площадь, 3",1 этаж,109012.0,Тверской,Москва,Москва,2.3,45.0,55.75484,37.620226,branch
Bosco Cafe,ресторан,Рестораны,"Неглинная улица, 13",1 этаж,107031.0,Тверской,Москва,Москва,3.8,15.0,55.762565,37.619761,branch
Bosco Cafe,ресторан,Рестораны,"Красная площадь, 3",2 этаж,109012.0,Тверской,Москва,Москва,3.7,49.0,55.754812,37.620255,branch
Boscorubar,ресторан с коктейльным баром,Рестораны,"Красная площадь, 3",1 линия; 1 этаж,109012.0,Тверской,Москва,Москва,4.4,54.0,55.753954,37.621975,branch
Boston,ирландский паб,Кафе; Бары,"улица Сергия Радонежского, 29",цокольный этаж,105120.0,Таганский,Москва,Москва,4.4,28.0,55.746908,37.679502,branch
Boston Seafood & Bar,первый креветочный ресторан,Рестораны; Доставка еды,"Летниковская улица, 2 ст1",1 этаж,115114.0,Замоскворечье,Москва,Москва,4.6,73.0,55.729036,37.644492,branch
Boston Seafood & Bar,первый креветочный ресторан,Бары; Рестораны; Доставка еды,"Лесная улица, 7",1 этаж,125196.0,Тверской,Москва,Москва,4.7,222.0,55.778598,37.587453,branch
Botafogo,бразильский бар,Бары,"улица Солянка, 1/2",цокольный этаж; через бар Black swan,109028.0,Басманный,Москва,Москва,4.9,10.0,55.754456,37.638015,branch
Bourbon street,бар-кафе,Бары,"Большой Златоустинский переулок, 7 ст1",1 этаж,101000.0,Басманный,Москва,Москва,4.0,36.0,55.758709,37.632634,branch
Brasserie 2. 0 Select,ресторан,Рестораны,"улица Красная Пресня, 22",,123376.0,Пресненский,Москва,Москва,4.6,11.0,55.762038,37.570558,branch
Brasserie Lambic,,Рестораны,"2-я Звенигородская улица, 12 ст1",,123100.0,Пресненский,Москва,Москва,,,55.761245,37.557751,branch
Brasserie Lambic,пивной ресторан,Рестораны; Доставка еды; Бары,"улица Красина, 7 ст1",1 этаж,123056.0,Пресненский,Москва,Москва,4.6,65.0,55.766933,37.5885,branch
Brasserie Lambic,пивной ресторан,Рестораны; Бары; Доставка еды,"улица Шаболовка, 19",1 этаж,119049.0,Якиманка,Москва,Москва,4.9,43.0,55.723472,37.611168,branch
Brasserie Lambic,пивной ресторан,Рестораны; Бары; Доставка еды,"Краснопролетарская улица, 16",1 этаж,127473.0,Тверской,Москва,Москва,4.8,47.0,55.777972,37.606678,branch
Brasserie Lambic,пивной ресторан,Рестораны; Доставка еды,"Верхняя Радищевская улица, 15 ст1",1 этаж,109240.0,Таганский,Москва,Москва,4.6,52.0,55.74341,37.652263,branch
Brasserie Lambic,пивной ресторан,Рестораны; Доставка еды,"Гоголевский бульвар, 33/1",1 этаж,119019.0,Арбат,Москва,Москва,4.7,83.0,55.750857,37.599596,branch
Brasserie Lambic,пивной ресторан,Рестораны; Бары; Доставка еды,"Турчанинов переулок, 3 ст5",1-2 этаж,119034.0,Хамовники,Москва,Москва,4.7,116.0,55.736948,37.595888,branch
Brasserie Lambic,пивной ресторан,Рестораны; Бары; Доставка еды,"Страстной бульвар, 7 ст1",1 этаж,127006.0,Тверской,Москва,Москва,4.8,98.0,55.767115,37.608268,branch
Brasserie Lambic,пивной ресторан,Рестораны; Бары; Доставка еды,"проспект Мира, 26 ст7",,129090.0,Мещанский,Москва,Москва,4.7,46.0,55.777273,37.635818,branch
Brasserie Lambic,пивной ресторан,Рестораны; Бары; Доставка еды,"Долгоруковская улица, 19 ст7",1-2 этаж,127006.0,Тверской,Москва,Москва,4.6,51.0,55.775265,37.603126,branch
Brasserie Lambic,пивной ресторан,Рестораны; Бары; Доставка еды,"Мясницкая улица, 40а",1 этаж,101000.0,Басманный,Москва,Москва,4.8,122.0,55.766605,37.640853,branch
Brasserie Lambic,пивной ресторан,Рестораны; Бары; Доставка еды,"улица Воронцово Поле, 11",1 этаж,101000.0,Басманный,Москва,Москва,4.5,72.0,55.754593,37.654094,branch
Brasserie Lambic,ресторан,Рестораны; Бары; Доставка еды,"Пресненская набережная, 10",-1 этаж,123112.0,Пресненский,Москва,Москва,4.3,47.0,55.746355,37.536792,branch
Brasserie Lambic,ресторан,Рестораны; Доставка еды,"улица Большая Ордынка, 65",,115184.0,Замоскворечье,Москва,Москва,4.3,39.0,55.73156,37.624448,branch
Brasserie Кузнецкий мост,ресторан,Рестораны,"улица Кузнецкий Мост, 6/3 ст3",1 этаж,125009.0,Тверской,Москва,Москва,4.7,21.0,55.761334,37.617863,branch
Breaddy,кафе,Кофейни; Кафе; Кондитерские изделия,"Поварская улица, 8/1 к1",1 этаж,121069.0,Арбат,Москва,Москва,,,55.753911,37.599056,branch
Breakfast,кафе,Кофейни; Кафе-кондитерские,"Малая Никитская улица, 2/1 ст1",1 этаж,121069.0,Пресненский,Москва,Москва,4.2,70.0,55.757911,37.597318,branch
Brera,ресторан,Рестораны; Доставка еды,"Большая Никитская улица, 24/1 ст1",1 этаж,125009.0,Пресненский,Москва,Москва,4.4,32.0,55.757283,37.601253,branch
Brick Star,кафе,Кафе,"Трубная площадь, 2",-1 этаж,107031.0,Мещанский,Москва,Москва,,,55.766055,37.621346,branch
bro cafe,кафе,Кафе; Доставка еды,"Дербеневская набережная, 7 ст6",,115114.0,Даниловский,Москва,Москва,5.0,2.0,55.722146,37.653897,branch
Bro&N,итальянская кафе-пиццерия,Кафе; Пиццерии; Доставка еды,"Камергерский переулок, 6/5 ст3",1 этаж,125009.0,Тверской,Москва,Москва,4.6,195.0,55.760122,37.614341,branch
Bro&N,итальянская кафе-пиццерия,Рестораны; Пиццерии; Доставка еды,"Малая Бронная улица, 27/14",1 этаж,123001.0,Пресненский,Москва,Москва,4.5,145.0,55.763534,37.593927,branch
Brodo bar&kitchen,гастрономический бар,Рестораны; Бары; Доставка еды,"Петровский бульвар, 2",1 этаж,127051.0,Тверской,Москва,Москва,4.7,27.0,55.76785,37.614565,branch
Brooklyn,раклет-бар,Бары; Быстрое питание,"Сущёвская улица, 21",1 этаж,127030.0,Тверской,Москва,Москва,,,55.782332,37.600307,branch
Brooms,хоспер-бар,Кафе; Доставка еды; Бары,"площадь Тверская Застава, 2 ст2",1 этаж,125047.0,Тверской,Москва,Москва,4.4,104.0,55.775433,37.584197,branch
Brooms,хоспер-бар,Рестораны; Бары; Доставка еды,"улица Александра Солженицына, 3",2 этаж,109004.0,Таганский,Москва,Москва,4.5,81.0,55.742202,37.655659,branch
Bruce Lee,бар авторских коктейлей,Бары,"Столярный переулок, 3 к13",цокольный этаж,123022.0,Пресненский,Москва,Москва,4.4,8.0,55.764386,37.568606,branch
Bruni Prosecco Bar,ресторан,Рестораны; Бары,"Садовая-Кудринская улица, 21 ст5",1 этаж; отель Hartwell hotel,123001.0,Пресненский,Москва,Москва,4.7,14.0,55.765402,37.589443,branch
Brunnen Brauhaus Paulaner,пивоваренный ресторан,Рестораны; Бары,"улица Земляной Вал, 9а",,105064.0,Басманный,Москва,Москва,4.2,15.0,55.761743,37.65961,branch
Bruno,ресторан,Рестораны,"Неглинная улица, 14 ст1а",1 этаж,107031.0,Мещанский,Москва,Москва,4.5,17.0,55.763892,37.620288,branch
Bruxelles,гастрономический паб,Бары; Рестораны,"Смоленская улица, 8",1 этаж,121099.0,Арбат,Москва,Москва,4.9,240.0,55.746357,37.580844,branch
Bshushu Restaurant,ресторан средиземноморской кухни,Рестораны,"3-я улица Ямского Поля, 2 к3",1 этаж,125124.0,Беговой,Москва,Москва,4.8,93.0,55.781846,37.581611,branch
Buba by Sumosan,суши-бар,Кафе; Суши-бары; Доставка еды,"улица Льва Толстого, 20",1 этаж,119021.0,Хамовники,Москва,Москва,3.7,9.0,55.735618,37.584643,branch
Buba by Sumosan,суши-бар,Суши-бары; Быстрое питание; Доставка еды,"Пресненская набережная, 8 ст1",1 этаж,123112.0,Пресненский,Москва,Москва,4.5,4.0,55.747299,37.539133,branch
Buba mara,сербский ресторан,Рестораны,"Шелепихинская набережная, 34 к2",1 этаж,123290.0,Хорошёво-Мнёвники,Москва,Москва,4.7,14.0,55.762202,37.510242,branch
Buddy McDaniel,ирландский паб,Бары,"улица Малая Дмитровка, 20",1 этаж,127006.0,Тверской,Москва,Москва,4.9,46.0,55.771835,37.604949,branch
Buddy McDaniel,ирландский паб,Рестораны; Бары; Банкетные залы; Доставка еды,"улица Покровка, 50/2 ст2","цокольный, 1, 2 этаж",101000.0,Басманный,Москва,Москва,4.8,124.0,55.763826,37.655969,branch
Buffet,душевный бар-рюмочная,Кафе; Рюмочные; Доставка еды,"улица Александра Солженицына, 3",1 этаж,109004.0,Таганский,Москва,Москва,4.6,38.0,55.742178,37.655564,branch
Bullseye,бар,Бары,"Большая Дорогомиловская улица, 11",1 этаж,121151.0,Дорогомилово,Москва,Москва,,,55.746003,37.553426,branch
Buongiorno,пиццерия,Кафе; Пиццерии; Доставка еды,"Русаковская улица, 23",1 этаж,107113.0,Сокольники,Москва,Москва,3.7,3.0,55.785813,37.675919,branch
Buono,ресторан,Рестораны; Кейтеринг; Банкетные залы; Доставка еды,"Кутузовский проспект, 2/1 ст1",29 этаж,121248.0,Дорогомилово,Москва,Москва,4.3,46.0,55.75166,37.566246,branch
Burger Heroes,бургер-бар,Кафе; Быстрое питание; Доставка еды,"улица Маросейка, 4/2 ст1",2 этаж,101000.0,Басманный,Москва,Москва,4.6,151.0,55.757345,37.63409,branch
Burger Play,кафе,Кафе,"Нижняя Сыромятническая улица, 10 ст11",1 этаж,105120.0,Басманный,Москва,Москва,5.0,1.0,55.75318,37.666692,branch
Burgers and crabs,ресторан,Рестораны; Доставка еды,"2-я Звенигородская улица, 13 ст42",1 этаж,123022.0,Пресненский,Москва,Москва,4.8,11.0,55.761254,37.551613,branch
Buro Tsum,панорамный ресторан,Рестораны; Доставка еды,"улица Петровка, 2",5 этаж,125009.0,Тверской,Москва,Москва,4.2,47.0,55.761069,37.619274,branch
Busby Bar&Beer,паб,Кафе; Бары,"Никитский бульвар, 12",1 этаж,119019.0,Пресненский,Москва,Москва,4.6,5.0,55.755455,37.600521,branch
Butler,итальянский ресторан,Рестораны; Доставка еды; Банкетные залы,"Трёхпрудный переулок, 15",1-2 этаж,123001.0,Пресненский,Москва,Москва,4.5,72.0,55.766078,37.59579,branch
Butler The Japanese Bar,,Бары,"Селивёрстов переулок, 2/24",цокольный этаж,107045.0,Красносельский,Москва,Москва,4.8,15.0,55.769928,37.632658,branch
by Kizin,итальянская траттория,Кафе,"улица Рогожский Вал, 5 ст1",,109544.0,Таганский,Москва,Москва,3.0,1.0,55.7443,37.67893,branch
Bystro,,Рестораны,"Охотный Ряд улица, 2",2 этаж,103265.0,Тверской,Москва,Москва,,,55.756537,37.616621,branch
Bеbе de la mer,ресторан-бутик с рыбой и морепродуктами,Рестораны,"улица Петровка, 30/7",1 этаж,127006.0,Тверской,Москва,Москва,5.0,10.0,55.768031,37.614857,branch
CACTUS J.,лаундж-бар,Рестораны; Центры паровых коктейлей; Бары,"Комсомольский проспект, 24 ст1",,119021.0,Хамовники,Москва,Москва,4.9,106.0,55.728843,37.580072,branch
CACTUS J.,лаундж-бар,Рестораны; Бары; Центры паровых коктейлей,"улица Шаболовка, 59 к1а",2 этаж,115162.0,Даниловский,Москва,Москва,4.9,76.0,55.715365,37.608174,branch
Cafe 2. 3. А,,Кафе,"набережная Тараса Шевченко, 23а",А сектор; 1 этаж,121151.0,Пресненский,Москва,Москва,4.4,33.0,55.746407,37.546474,branch
Cafe1892,ресторан,Рестораны,"Моховая улица, 10 ст1",1 этаж; Миррос Отель Москва Кремль,119019.0,Тверской,Москва,Москва,4.7,67.0,55.751118,37.610388,branch
Caffe Mandy`s,,Кафе; Доставка еды; Бары,"улица Покровка, 19",1 этаж,101000.0,Басманный,Москва,Москва,3.7,52.0,55.759894,37.646723,branch
Caffetteria Siciliana,кафе,Кафе,"Сущёвская улица, 9",,127030.0,Тверской,Москва,Москва,,,55.780463,37.601877,branch
California diner,,Кафе; Бары,"улица Арбат, 23 ст1",1 этаж,119002.0,Арбат,Москва,Москва,4.3,264.0,55.750529,37.59538,branch
Californiа,бар,Бары,"улица Арбат, 23 к1",-1 этаж,119002.0,Арбат,Москва,Москва,4.4,8.0,55.750529,37.59538,branch
Campo,итальянский ресторан,Рестораны; Доставка еды,"3-я улица Ямского Поля, 2 к16",1 этаж,125124.0,Беговой,Москва,Москва,4.6,18.0,55.782062,37.5812,branch
Canteen,городское кафе,Рестораны,"Рочдельская улица, 15 ст13",1 этаж,123376.0,Пресненский,Москва,Москва,5.0,39.0,55.75617,37.565216,branch
Cantinetta Antinori,ресторан,Рестораны,"Денежный переулок, 20",,119002.0,Хамовники,Москва,Москва,4.8,31.0,55.745428,37.586787,branch
Capito,ресторан,Кафе; Доставка еды,"3-я улица Ямского Поля, 2 к13",1 этаж,125124.0,Беговой,Москва,Москва,4.7,126.0,55.781199,37.582993,branch
Capo,итальянский ресторан,Кафе; Рестораны; Банкетные залы; Доставка еды,"улица Большая Дмитровка, 5/6 ст1",,125009.0,Тверской,Москва,Москва,4.8,156.0,55.759762,37.615859,branch
Carniceria Vino,аргентинский мясной ресторан,Рестораны,"улица Солянка, 1/2 ст1",цокольный этаж,109028.0,Басманный,Москва,Москва,4.6,7.0,55.754093,37.638663,branch
Casa Agave,ресторан латиноамериканской кухни,Рестораны; Доставка еды; Бары,"Большой Черкасский переулок, 15/17 ст1","-1, 1 этаж",109012.0,Тверской,Москва,Москва,4.6,160.0,55.756004,37.627604,branch
Casa Leone,итальянское кафе-джелатерия,Кафе; Мороженое; Пиццерии,"Лубянский проезд, 15 ст2",1 этаж,101000.0,Басманный,Москва,Москва,4.9,150.0,55.756563,37.632467,branch
Caspian,ресторан,Рестораны; Доставка еды; Банкетные залы,"улица Арбат, 42 ст1",1 этаж,119002.0,Арбат,Москва,Москва,4.6,40.0,55.748284,37.587242,branch
Catcher,пиццерия,Пиццерии; Доставка еды; Быстрое питание,"1-й Красногвардейский проезд, 21 ст2",1 этаж,123112.0,Пресненский,Москва,Москва,3.8,3.0,55.749694,37.53412,branch
Cazaban bistro&bakery,,Кафе,"Театральный проезд, 1",,109012.0,Тверской,Москва,Москва,,,55.759814,37.620234,branch
Cazaban bistro&bakery,,Кафе,"Серпуховская площадь, 36/71",1 этаж,115184.0,Замоскворечье,Москва,Москва,,,55.730098,37.624082,branch
Centrale Bistro by Evgeny Vikentev,,Кафе,"Брюсов переулок, 11",1 этаж,125009.0,Пресненский,Москва,Москва,5.0,9.0,55.759031,37.605773,branch
Ceretto мясо,мясной ресторан,Рестораны; Доставка еды,"проспект Мира, 58",1 этаж,129110.0,Мещанский,Москва,Москва,4.3,15.0,55.7852,37.635944,branch
Cevicheria,ресторан,Рестораны; Доставка еды,"Пречистенская набережная, 15 ст1",1 этаж,119034.0,Хамовники,Москва,Москва,4.9,101.0,55.738689,37.605303,branch
Chago,бар,Кафе; Бары; Бильярдные залы,"Новая Басманная улица, 19 ст1",1 этаж; вход через большие ворота,107078.0,Красносельский,Москва,Москва,4.9,6.0,55.769964,37.659975,branch
Chainaya. Tea & Cocktails,бар-чайная,Бары,"1-я Тверская-Ямская улица, 29",вход со двора,125047.0,Тверской,Москва,Москва,4.6,4.0,55.775939,37.585253,branch
Chakrulo,грузинский ресторан,Рестораны; Доставка еды,"улица Новый Арбат, 15 ст1",1 этаж,119019.0,Арбат,Москва,Москва,3.0,121.0,55.752261,37.593115,branch
Chang,кафе,Кафе,"Мясницкая улица, 22 ст1",1 этаж,101000.0,Басманный,Москва,Москва,4.9,320.0,55.762081,37.635223,branch
Chang,кафе,Кафе; Доставка еды,"улица Солянка, 1/2 ст1",1 этаж,109028.0,Басманный,Москва,Москва,4.9,392.0,55.754193,37.637363,branch
Cheese&macaroni,,Кафе,"Большой Овчинниковский переулок, 16",2 этаж,115184.0,Замоскворечье,Москва,Москва,,,55.744556,37.629853,branch
Chef,стейк-хаус,Рестораны; Доставка еды,"Кутузовский проспект, 2/1 ст6",,121248.0,Дорогомилово,Москва,Москва,4.6,75.0,55.752257,37.567829,branch
Chef Burger&Doner,кафе быстрого обслуживания,Бары; Быстрое питание; Доставка еды,"Лесная улица, 20 ст3",39 отдел; 1 этаж,125196.0,Тверской,Москва,Москва,4.6,59.0,55.780321,37.593189,branch
Chef kebab house,ресторан,Рестораны; Доставка еды,"Гончарная набережная, 9/16 ст2",1-2 этаж,115172.0,Таганский,Москва,Москва,4.2,47.0,55.737345,37.649223,branch
Chef Амазония,бар-ресторан по европейским технологиям,Рестораны; Бары; Банкетные залы,"Лесная улица, 20 ст5","1, 2 этаж",125196.0,Тверской,Москва,Москва,4.7,68.0,55.779385,37.590802,branch
Chef Арбат,стейк-хаус,Рестораны; Доставка еды,"улица Новый Арбат, 17",1 этаж,119019.0,Арбат,Москва,Москва,4.6,64.0,55.752218,37.590511,branch
Chef`s Table,ресторан-театр уникального интерактивного формата,Рестораны,"Смоленская площадь, 3",1 этаж,121099.0,Арбат,Москва,Москва,5.0,9.0,55.747837,37.58101,branch
Chekhoff Cafe&Bar,ресторан русской авторской кухни,Рестораны,"улица Малая Дмитровка, 11",1 этаж,127006.0,Тверской,Москва,Москва,4.9,23.0,55.768874,37.605618,branch
Chere Maman,французское бистро,Кафе; Доставка еды,"Трубная улица, 26 к1",1 этаж,127051.0,Мещанский,Москва,Москва,4.7,10.0,55.770816,37.62551,branch
Chess Club Moscow,шахматный клуб-бар,Бары; Спортивно-интеллектуальные клубы,"Кудринская площадь, 1",цокольный этаж,123242.0,Пресненский,Москва,Москва,4.4,32.0,55.758471,37.58099,branch
Chesterfield,ресторан-бар,Рестораны; Бары; Ночные клубы,"улица Новый Арбат, 19","1, 2 этаж",119019.0,Арбат,Москва,Москва,3.4,321.0,55.752206,37.589091,branch
Chiho,китайская закусочная,Рестораны; Доставка еды,"Мясницкая улица, 13 ст20",1 этаж,101000.0,Красносельский,Москва,Москва,4.3,35.0,55.763534,37.633691,branch
Chiho,китайская закусочная,Кафе,"Нижняя Сыромятническая улица, 10 ст8",1 этаж,105120.0,Басманный,Москва,Москва,4.4,49.0,55.752893,37.669423,branch
Chiho,китайская закусочная,Кафе; Доставка еды,"Пятницкая улица, 11/23 ст1",1 этаж,115184.0,Замоскворечье,Москва,Москва,4.6,157.0,55.743874,37.628142,branch
Chiho,китайская закусочная,Кафе; Доставка еды,"Большой Сухаревский переулок, 25 ст1",1 этаж,127051.0,Мещанский,Москва,Москва,4.6,50.0,55.770884,37.632297,branch
Chin-Chin,ресторан,Рестораны; Доставка еды,"Лесная улица, 20 ст5",1 этаж,125196.0,Тверской,Москва,Москва,4.4,5.0,55.779464,37.591226,branch
China club,ресторан,Рестораны; Доставка еды,"улица Красина, 21",1 этаж,123056.0,Пресненский,Москва,Москва,4.7,20.0,55.768752,37.586247,branch
Cho Asia bistro,ресторан,Рестораны; Доставка еды,"Мясницкая улица, 13 ст2",1 этаж,101000.0,Красносельский,Москва,Москва,4.8,122.0,55.762095,37.633805,branch
Chow-chow,азиатское кафе-бар,Кафе; Бары; Доставка еды,"улица Забелина, 1",,101000.0,Басманный,Москва,Москва,4.8,238.0,55.754645,37.637893,branch
Christian,ресторан авторской кухни,Рестораны; Доставка еды,"Кутузовский проспект, 2/1 к1а",1 этаж,121248.0,Дорогомилово,Москва,Москва,4.5,30.0,55.750538,37.56443,branch
Cider,кафе-бар,Кафе; Бары,"Пятницкая улица, 2",1 этаж,115035.0,Замоскворечье,Москва,Москва,4.6,19.0,55.745627,37.626578,branch
Cider,кафе-бар,Бары,"Никольская улица, 11-13 ст1",1 этаж,109012.0,Тверской,Москва,Москва,4.1,65.0,55.756935,37.622012,branch
Cihan Turkish Steak and Kebab,ресторан турецкой кухни,Рестораны; Доставка еды,"Комсомольский проспект, 21/10",1 этаж,119146.0,Хамовники,Москва,Москва,4.5,27.0,55.728113,37.584331,branch
Cihan Turkish Steak and Kebab,ресторан турецкой кухни,Рестораны; Доставка еды,"улица Новый Арбат, 21","1, 2 этаж",119019.0,Арбат,Москва,Москва,4.6,46.0,55.752201,37.585247,branch
Circle,пиццерия,Пиццерии; Быстрое питание; Доставка еды,"2-я Бауманская улица, 9/23 ст3",1 этаж; Вход через внутренний двор,105005.0,Басманный,Москва,Москва,4.3,9.0,55.763976,37.683578,branch
City friends,городское кафе,Кафе; Доставка еды,"Пресненская набережная, 8 ст1",1 этаж,123112.0,Пресненский,Москва,Москва,4.6,5.0,55.747329,37.538798,branch
City friends,городское кафе,Рестораны; Доставка еды,"Пресненская набережная, 6 ст2",-1 этаж,123112.0,Пресненский,Москва,Москва,3.5,4.0,55.748499,37.540926,branch
City place,ресторан европейской-паназиатской кухни,Рестораны; Доставка еды,"Пресненская набережная, 12",-2 этаж,123112.0,Пресненский,Москва,Москва,4.8,22.0,55.749805,37.536979,branch
City Space,панорамный бар-ресторан,Рестораны,"Космодамианская набережная, 52 ст6",34 этаж,115035.0,Замоскворечье,Москва,Москва,4.5,48.0,55.733514,37.643753,branch
City Voice,караоке клуб,Рестораны; Караоке-залы; Бары; Банкетные залы,"1-й Красногвардейский проезд, 21 ст2",6 этаж,123112.0,Пресненский,Москва,Москва,4.9,105.0,55.749694,37.53412,branch
Clovelly,бар,Рестораны; Бары,"улица Сретенка, 4/1",1-2 этаж,107045.0,Красносельский,Москва,Москва,4.6,22.0,55.766906,37.632654,branch
Coba,ресторан современной японской кухни,Рестораны; Суши-бары; Доставка еды,"улица Малая Дмитровка, 3",1 этаж,127006.0,Тверской,Москва,Москва,4.9,101.0,55.767005,37.606279,branch
Coba,ресторан современной японской кухни,Рестораны; Суши-бары; Доставка еды,"Новая площадь, 10",1 этаж,109012.0,Тверской,Москва,Москва,4.9,130.0,55.758063,37.627389,branch
Cockney’s pub,,Бары,"Новослободская улица, 16а",1 этаж,127030.0,Тверской,Москва,Москва,,,55.782332,37.600307,branch
Coda,кафе,Кафе,"Мясницкая улица, 8/2 ст1",2 этаж,101000.0,Басманный,Москва,Москва,1.0,1.0,55.759922,37.631357,branch
CofeFest,экспресс-кофейня,Кофейни; Кулинарии; Кафе-кондитерские,"улица Антонова-Овсеенко, 8",1 этаж; يمين крыло,123317.0,Пресненский,Москва,Москва,,,55.757865,37.536035,branch
Coffee inn,кафе,Кафе,"Садовническая улица, 8",1 этаж,115035.0,Замоскворечье,Москва,Москва,4.6,77.0,55.747695,37.627621,branch
Coffee Way,кофейня,Кофейни; Кафе; Продажа кофе,"улица Сущёвский Вал, 49 ст2Б",,127018.0,Марьина Роща,Москва,Москва,5.0,5.0,55.793534,37.610838,branch
Cohiba Atmosphere,ресторан-сигарный клуб,Рестораны; Бары,"улица Большая Якиманка, 22 к3",2 этаж,119180.0,Якиманка,Москва,Москва,5.0,17.0,55.73827,37.613289,branch
Colibri Bistro,ресторан,Кафе; Доставка еды,"Хавская улица, 9",1 этаж,115162.0,Даниловский,Москва,Москва,4.1,17.0,55.716212,37.613818,branch
Colin McDaniel,ирландский паб,Кафе; Бары,"Валовая улица, 3 ст1",,115054.0,Замоскворечье,Москва,Москва,4.3,19.0,55.730473,37.633661,branch
Com 1989,кафе вьетнамской кухни,Кафе; Доставка еды,"Мясницкая улица, 46 ст1",цокольный этаж,101000.0,Басманный,Москва,Москва,4.1,8.0,55.768263,37.644684,branch
Com 1989,кафе вьетнамской кухни,Кафе; Доставка еды,"улица Коровий Вал, 11",,119049.0,Якиманка,Москва,Москва,4.5,21.0,55.728992,37.618017,branch
Com 1989,кафе вьетнамской кухни,Кафе; Доставка еды,"проспект Мира, 102 к2",1 этаж,129626.0,Алексеевский,Москва,Москва,4.8,22.0,55.801283,37.636684,branch
Com 1989,кафе вьетнамской кухни,Кафе; Доставка еды,"Дубининская улица, 70",1-2 этаж,115054.0,Даниловский,Москва,Москва,4.9,38.0,55.721519,37.635403,branch
Comedy Hall,кафе,Кафе; Стендап-клубы,"Кожевническая улица, 14 ст5",1 этаж,115114.0,Даниловский,Москва,Москва,4.2,8.0,55.728164,37.645939,branch
Community,гастрономический ресторан c авторской кухней,Рестораны; Бары,"Космодамианская набережная, 2",,115035.0,Замоскворечье,Москва,Москва,4.2,43.0,55.745985,37.63828,branch
Connolly Station,ирландский паб,Кафе; Бары,"улица Большая Дмитровка, 13",2 этаж,125009.0,Тверской,Москва,Москва,4.5,89.0,55.762239,37.612715,branch
Constant,бар,Бары,"Ленинградский проспект, 10",2 этаж,125040.0,Беговой,Москва,Москва,5.0,4.0,55.779737,37.579698,branch
Conversation,кафе,Кафе; Кондитерские изделия,"улица Остоженка, 37/7 ст2","1, 2 этаж",119034.0,Хамовники,Москва,Москва,4.2,63.0,55.738629,37.59589,branch
Conversation,кафе,Кафе; Кондитерские изделия; Доставка еды,"Большая Никитская улица, 23/14/9",1 этаж,125009.0,Пресненский,Москва,Москва,4.5,210.0,55.757391,37.599305,branch
Copen 57,ресторан,Кафе; Рестораны; Бары,"Малый Козихинский переулок, 10 ст1",,123001.0,Пресненский,Москва,Москва,4.5,6.0,55.764379,37.596287,branch
Coperto,ресторан,Рестораны; Доставка еды,"Покровский бульвар, 5/1",1 этаж,109028.0,Басманный,Москва,Москва,3.7,11.0,55.756081,37.648933,branch
Corner Cafe&Kitchen,,Кафе; Доставка еды,"Композиторская улица, 17",1 этаж,121099.0,Арбат,Москва,Москва,4.8,156.0,55.751278,37.586921,branch
Correa`s,ресторан,Кафе; Доставка еды; Кейтеринг,"Большая Грузинская улица, 32 ст3",1 этаж,123557.0,Пресненский,Москва,Москва,3.8,32.0,55.767605,37.579474,branch
Cote azur,ресторан,Рестораны,"Новослободская улица, 23",2 этаж; гостиница Novotel Москва центр,127055.0,Тверской,Москва,Москва,5.0,2.0,55.78164,37.59797,branch
Crabolove,ресторан,Рестораны,"Ленинградский проспект, 24а ст2",,125040.0,Беговой,Москва,Москва,2.7,3.0,55.783645,37.574458,branch
Craft Republic,пивной бар,Бары,"Малый Гнездниковский переулок, 9 ст7",цокольный этаж,125009.0,Тверской,Москва,Москва,4.5,93.0,55.762641,37.606403,branch
Crafter Bar,,Кафе; Бары,"Малый Палашёвский переулок, 6",2 этаж,123104.0,Тверской,Москва,Москва,4.6,81.0,55.76511,37.602407,branch
Craftland cultural bar,кафе-бар,Бары,"улица Александра Солженицына, 17 ст1",цокольный этаж,109004.0,Таганский,Москва,Москва,4.5,34.0,55.743991,37.661357,branch
Crazy Daisy,бар,Бары; Ночные клубы,"Тургеневская площадь, 2",1 этаж,101000.0,Красносельский,Москва,Москва,4.4,502.0,55.765743,37.635712,branch
Crazy hunter,ресторан,Рестораны,"улица Доватора, 8",1 этаж,119048.0,Хамовники,Москва,Москва,4.4,16.0,55.723549,37.567795,branch
Cross keys pub,английский паб,Кафе; Бары; Доставка еды,"улица Малая Дмитровка, 3",1 этаж,127006.0,Тверской,Москва,Москва,4.4,40.0,55.767163,37.606226,branch
Crosta,пицца-бар,Бары; Пиццерии; Доставка еды; Быстрое питание,"Комсомольский проспект, 14/1 к2",,119021.0,Хамовники,Москва,Москва,4.8,55.0,55.731393,37.590144,branch
Curry,ресторан индийской кухни,Кафе,"Большая Дорогомиловская улица, 10",1 этаж,121059.0,Дорогомилово,Москва,Москва,4.7,3.0,55.746359,37.562067,branch
Curry,ресторан индийской кухни,Кафе,"Ладожская улица, 7",1 этаж,105005.0,Басманный,Москва,Москва,4.9,9.0,55.7716,37.682893,branch
Curry,ресторан индийской кухни,Кафе; Доставка еды,"2-я Брестская улица, 46 ст1",1 этаж,125047.0,Тверской,Москва,Москва,4.3,9.0,55.774339,37.58506,branch
Curry,ресторан индийской кухни,Кафе,"улица Красная Пресня, 29",1 этаж,123022.0,Пресненский,Москва,Москва,4.3,30.0,55.762289,37.564254,branch
Curry,ресторан индийской кухни,Кафе; Доставка еды,"Большая Серпуховская улица, 8/7 ст2",,115093.0,Замоскворечье,Москва,Москва,4.8,30.0,55.728682,37.624125,branch
Curry,ресторан индийской кухни,Кафе; Доставка еды,"улица Арбат, 32",1 этаж,119002.0,Арбат,Москва,Москва,4.7,44.0,55.749164,37.589904,branch
Cutfish,суши-бистро,Рестораны; Доставка еды,"Большой Козихинский переулок, 17 ст1",1 этаж,123001.0,Пресненский,Москва,Москва,4.6,23.0,55.764,37.595539,branch
Cvc,кафе китайской кухни,Кафе; Доставка еды,"Чистопрудный бульвар, 10 ст1",1 этаж,101000.0,Басманный,Москва,Москва,4.7,71.0,55.762308,37.64238,branch
Cyber Core Lounge,ресторан,Рестораны,"Кутузовский проспект, 26 к1",1 этаж,121165.0,Дорогомилово,Москва,Москва,,,55.743817,37.543708,branch
D13 Boutique,,Рестораны,"улица Большая Дмитровка, 13/8",1 этаж,125009.0,Тверской,Москва,Москва,,,55.762461,37.613393,branch
Dacha,гастропаб,Рестораны; Бары,"улица Новый Арбат, 28",2 этаж,119019.0,Арбат,Москва,Москва,4.3,81.0,55.752838,37.58533,branch
Dai viet,кафе вьетнамской кухни,Кафе,"Пресненская набережная, 6 ст2",-1 этаж,123112.0,Пресненский,Москва,Москва,5.0,1.0,55.748352,37.541051,branch
Dai viet,кафе вьетнамской кухни,Кафе,"Шмитовский проезд, 10/7",цокольный этаж,123100.0,Пресненский,Москва,Москва,4.5,18.0,55.758739,37.552824,branch
Dante,стильный бар-ресторан,Рестораны; Бары; Доставка еды; Банкетные залы,"улица Кузнецкий Мост, 3 ст2","1, 2 этаж",107031.0,Тверской,Москва,Москва,4.8,83.0,55.76145,37.617482,branch
Darbars,индийский ресторан,Рестораны; Банкетные залы; Доставка еды,"проспект Мира, 79",1 этаж,129110.0,Мещанский,Москва,Москва,4.7,96.0,55.790574,37.634302,branch
Dark Patrick`s Pub,ирландский паб,Кафе; Бары,"Большой Златоустинский переулок, 1 ст1",1 этаж,101000.0,Басманный,Москва,Москва,4.8,86.0,55.759979,37.631638,branch
Davno,бар,Кафе; Бары; Доставка еды,"Большой Палашёвский переулок, 2/12",1 этаж,123104.0,Пресненский,Москва,Москва,5.0,53.0,55.763299,37.596951,branch
de Torino,бистро,Рестораны; Бары,"Мясницкая улица, 14/2 ст1",,101000.0,Басманный,Москва,Москва,4.9,47.0,55.760867,37.632129,branch
Debri,бар,Бары,"Смоленская улица, 6",,121099.0,Арбат,Москва,Москва,,,55.746568,37.581586,branch
Decembeer,бар,Бары,"Краснопролетарская улица, 35",цокольный этаж,127030.0,Тверской,Москва,Москва,5.0,5.0,55.779565,37.604672,branch
Defaqto,бар,Кафе; Бары,"улица Большая Лубянка, 30/2",1 этаж,101000.0,Красносельский,Москва,Москва,4.7,144.0,55.766215,37.63149,branch
DeLaura,ресторан-бар,Рестораны; Бары; Доставка еды,"улица Покровка, 6",1 этаж; вход в арку,101000.0,Басманный,Москва,Москва,4.6,270.0,55.758792,37.642275,branch
Delhi6,индийский ресторан,Рестораны; Доставка еды,"Киевская улица, 2",4 этаж,121059.0,Дорогомилово,Москва,Москва,4.7,18.0,55.74325,37.562974,branch
Delicatessen,бар,Кафе; Бары,"Садовая-Каретная улица, 20 ст2",цокольный этаж,127051.0,Тверской,Москва,Москва,4.6,90.0,55.772628,37.610912,branch
Delight,стриптиз-клуб,Бары; Стриптиз-клубы; Ночные клубы,"Оружейный переулок, 15а",,125047.0,Тверской,Москва,Москва,5.0,44.0,55.772133,37.600882,branch
Dell`Arte,кафе,Кафе,"Большой Толмачёвский переулок, 4 ст1",,119017.0,Якиманка,Москва,Москва,4.7,59.0,55.740659,37.622853,branch
Delulu,бар,Кафе; Бары,"улица Рождественка, 6/9/20 ст1",3 этаж,107031.0,Мещанский,Москва,Москва,5.0,2.0,55.761795,37.624061,branch
Demokrat Bar&Kitchen,,Бары; Кафе; Доставка еды,"Большая Спасская улица, 13 ст1",цокольный этаж,129090.0,Красносельский,Москва,Москва,4.5,48.0,55.774076,37.63979,branch
Demokrat Bar&Kitchen,,Кафе,"улица Бахрушина, 21 ст4",1 этаж,115054.0,Замоскворечье,Москва,Москва,4.5,43.0,55.734023,37.636556,branch
Demokrat Bar&Kitchen,,Кафе; Доставка еды,"Лесная улица, 20 ст2",цокольный этаж,125196.0,Тверской,Москва,Москва,4.3,99.0,55.778949,37.591635,branch
Deti lapshi,,Кафе; Доставка еды,"Дербеневская набережная, 7 ст22",1 этаж,115114.0,Даниловский,Москва,Москва,4.6,23.0,55.722302,37.651811,branch
Di nulla,ресторан,Рестораны,"2-я Звенигородская улица, 12а",,123100.0,Пресненский,Москва,Москва,5.0,6.0,55.762246,37.555255,branch
Dictatura estetica,коктейльный бар,Кафе; Бары; Доставка еды,"Берсеневская набережная, 6 ст2",1 этаж,119072.0,Якиманка,Москва,Москва,4.5,43.0,55.740567,37.608769,branch
Dictatura estetica wine&kitchen,бар,Кафе; Бары,"Гоголевский бульвар, 17",1 этаж,119019.0,Хамовники,Москва,Москва,3.6,15.0,55.746731,37.599174,branch
Didi,грузинский ресторан,Рестораны; Доставка еды,"Тверской бульвар, 14 ст4",,125009.0,Пресненский,Москва,Москва,4.6,89.0,55.75975,37.601237,branch
Dizengof99,кафе,Кафе,"2-я Брестская улица, 37 ст1",,123056.0,Пресненский,Москва,Москва,4.3,11.0,55.773259,37.585724,branch
Dizengof99,кафе,Кафе,"Люсиновская улица, 13 ст1",1 этаж,115093.0,Замоскворечье,Москва,Москва,4.2,9.0,55.727962,37.623494,branch
Dizengof99,кафе,Кафе,"улица Шаболовка, 19",1 этаж,119049.0,Якиманка,Москва,Москва,5.0,669.0,55.723533,37.611181,branch
Dizengof99,кафе,Кафе; Доставка еды,"3-й Красносельский переулок, 19 ст11",,107140.0,Красносельский,Москва,Москва,4.7,64.0,55.784689,37.656316,branch
Dizengof99,кафе,Кафе,"Покровский бульвар, 8 ст1а",1 этаж,109028.0,Басманный,Москва,Москва,5.0,1303.0,55.757196,37.646907,branch
Do Not Disturb,коктейльный бар,Бары,"улица Петровка, 20/1",1-2 этаж,127051.0,Тверской,Москва,Москва,4.7,33.0,55.764253,37.61769,branch
Dolce far niente,итальянский ресторан,Рестораны; Доставка еды; Банкетные залы; Кейтеринг,"Смоленская улица, 6",1 этаж,121099.0,Арбат,Москва,Москва,4.7,159.0,55.746481,37.581278,branch
Dolmama,армянский ресторан,Рестораны; Доставка еды,"Романов переулок, 2/6 ст13",1 этаж,125009.0,Арбат,Москва,Москва,4.2,8.0,55.753792,37.609879,branch
Dominion,ресторан,Рестораны,"Шарикоподшипниковская улица, 5",1 этаж,115088.0,Южнопортовый,Москва,Москва,4.1,14.0,55.722445,37.667768,branch
Domino pizza,пиццерия,Пиццерии; Доставка еды; Быстрое питание,"улица Щипок, 22 ст1",1 этаж,115054.0,Замоскворечье,Москва,Москва,3.7,29.0,55.723791,37.634986,branch
Domino pizza,пиццерия,Пиццерии; Доставка еды; Быстрое питание,"Лесная улица, 45",1 этаж,127055.0,Тверской,Москва,Москва,3.5,20.0,55.780805,37.591595,branch
Don Giulio,кафе-лавка итальянских продуктов,Кафе; Сыры; Колбасные изделия; Кондитерские изделия; Доставка еды,"улица Покровка, 27 ст1",1 этаж,101000.0,Басманный,Москва,Москва,4.3,33.0,55.760049,37.648586,branch
Doner Efendi,турецкий ресторан,Рестораны,"Хорошёвское шоссе, 16 ст3",1 этаж,125284.0,Хорошёвский,Москва,Москва,4.4,11.0,55.774014,37.545823,branch
Door 2310,коктейльный бар,Бары; Доставка еды,"улица Петровка, 23/10 ст5",1 этаж,107031.0,Тверской,Москва,Москва,5.0,3.0,55.766261,37.614844,branch
Dorian Gray,кафе,Кафе; Доставка еды,"Кадашёвская набережная, 6",1 этаж,119017.0,Якиманка,Москва,Москва,3.7,70.0,55.74323,37.617807,branch
Dr.Живаго,ресторан,Рестораны; Доставка еды,"Моховая улица, 15/1",1 этаж,125009.0,Тверской,Москва,Москва,4.1,437.0,55.756769,37.614362,branch
Dragon,азиатский ресторан,Рестораны; Доставка еды,"Пресненская набережная, 8 ст1",1 этаж,123112.0,Пресненский,Москва,Москва,5.0,4.0,55.74713,37.538555,branch
Dream bar,кафе-бар,Кафе; Бары; Караоке-залы,"Мясницкая улица, 17 ст1",1 этаж,101000.0,Красносельский,Москва,Москва,4.3,218.0,55.763483,37.635546,branch
Dream coffee,кафе,Кофейни; Кафе,"1-й Красногвардейский проезд, 15",-1 этаж,123112.0,Пресненский,Москва,Москва,4.6,8.0,55.750231,37.539675,branch
Drunk Punk,бар,Кафе; Бары; Доставка еды,"Нижний Сусальный переулок, 5 ст2",цокольный этаж,105064.0,Басманный,Москва,Москва,4.7,34.0,55.760621,37.662554,branch
Dry&Wet,коктейльный бар,Бары; Ночные клубы,"Тверская улица, 27 ст1",цокольный этаж,125009.0,Тверской,Москва,Москва,4.8,83.0,55.76808,37.597708,branch
Dubai,,Рестораны,"улица Кузнецкий Мост, 7","2, 3 этаж",107031.0,Тверской,Москва,Москва,,,55.761862,37.618462,branch
Duckstar`s,кафе-бар,Кафе; Бары,"Абельмановская улица, 4а",,109147.0,Таганский,Москва,Москва,3.6,26.0,55.73641,37.670553,branch
Due Forni,ресторан,Рестораны,"Большой Саввинский переулок, 11 ст1",,119435.0,Хамовники,Москва,Москва,4.4,8.0,55.734702,37.568229,branch
DUKH,лаундж-бар,Бары; Центры паровых коктейлей; Кафе,"Новослободская улица, 19 ст1",1 этаж,127055.0,Тверской,Москва,Москва,5.0,20.0,55.780926,37.599305,branch
DUKH,лаундж-бар,Бары; Центры паровых коктейлей; Кафе,"Страстной бульвар, 4 ст5",цокольный этаж,125375.0,Тверской,Москва,Москва,4.9,89.0,55.764793,37.60864,branch
DUKH,лаундж-бар,Бары; Центры паровых коктейлей; Кафе,"Мясницкая улица, 24/7 ст1",цокольный этаж,101000.0,Басманный,Москва,Москва,4.9,107.0,55.762572,37.635609,branch
DUKH,лаундж-бар,Бары; Центры паровых коктейлей; Кафе,"Большая Никитская улица, 24/1 ст5",цокольный этаж,125009.0,Пресненский,Москва,Москва,4.9,152.0,55.75738,37.602206,branch
Dungeon Pub,,Кафе; Бары,"Малая Почтовая улица, 2/2 ст1",цокольный этаж,105005.0,Басманный,Москва,Москва,4.4,18.0,55.77069,37.686443,branch
Easy Brix,винный бар,Рестораны; Бары; Доставка еды,"Валовая улица, 32/75 ст1",1 этаж,115054.0,Замоскворечье,Москва,Москва,4.3,29.0,55.730431,37.625847,branch
Eat&Talk,ресторан с концепцией деловой гостиной,Кафе; Рестораны,"улица Воздвиженка, 4/7 ст2",1 этаж,125009.0,Арбат,Москва,Москва,4.9,281.0,55.753019,37.610894,branch
Eden,ресторан,Рестораны; Банкетные залы,"2-й Вышеславцев переулок, 5а",1 этаж,127018.0,Марьина Роща,Москва,Москва,,,55.791129,37.608315,branch
Eden,ресторан,Кафе; Доставка еды,"улица Покровка, 28 ст7",,101000.0,Басманный,Москва,Москва,,,55.759704,37.650137,branch
Edward`s pub,кафе-бар,Кафе; Бары,"Нижняя Сыромятническая улица, 10 ст9",1 этаж,105120.0,Басманный,Москва,Москва,4.8,107.0,55.752568,37.667825,branch
Eggsellent,кафе с концепцией завтраков весь день,Кафе; Доставка еды,"Несвижский переулок, 2",,119021.0,Хамовники,Москва,Москва,4.5,111.0,55.731985,37.587852,branch
Eggsellent,кафе с концепцией завтраков весь день,Кафе; Доставка еды,"Большая Садовая улица, 5 к1",1 этаж,123001.0,Пресненский,Москва,Москва,4.7,378.0,55.768896,37.592258,branch
Eisen,бар,Бары,"Арбатская площадь, 14 ст1",1 этаж,119019.0,Арбат,Москва,Москва,,,55.752608,37.601805,branch
El Asador,ресторан-сидрерия,Рестораны; Доставка еды; Бары; Усадьбы,"улица Большая Ордынка, 45 ст3",1 этаж,115184.0,Замоскворечье,Москва,Москва,4.4,48.0,55.734992,37.624805,branch
El borracho,крафтовый бар,Бары,"Трубная улица, 15",цокольный этаж,127051.0,Мещанский,Москва,Москва,4.7,37.0,55.769338,37.624752,branch
El Gaucho,мясной ресторан,Рестораны; Доставка еды; Банкетные залы,"улица Зацепский Вал, 6/13 ст1",1 этаж,115054.0,Замоскворечье,Москва,Москва,4.5,37.0,55.732806,37.639324,branch
El idilio,ресторан,Рестораны; Бары; Доставка еды,"Благовещенский переулок, 3 ст1",1 этаж,123001.0,Тверской,Москва,Москва,4.2,45.0,55.767637,37.598132,branch
El Pimpi,ресторан,Рестораны,"Большая Никитская улица, 12",1 этаж,125009.0,Пресненский,Москва,Москва,4.5,38.0,55.756504,37.60638,branch
Ela,ресторан,Рестораны; Доставка еды,"Новая Басманная улица, 32",,105066.0,Басманный,Москва,Москва,4.5,34.0,55.769595,37.667522,branch
Eliso Bistro,,Рестораны; Кафе; Доставка еды,"Поварская улица, 29/36 ст1",1 этаж,121069.0,Арбат,Москва,Москва,4.8,18.0,55.756658,37.588273,branch
Elite,ресторан,Рестораны; Банкетные залы,"улица Гастелло, 37",,107014.0,Сокольники,Москва,Москва,5.0,1.0,55.784149,37.689676,branch
Elsewhere,коктейльный бар,Бары,"Садовая-Самотечная улица, 20 ст1",цокольный этаж,127051.0,Тверской,Москва,Москва,5.0,8.0,55.773159,37.61957,branch
Encore Cafe,,Рестораны; Доставка еды,"Гороховский переулок, 12 ст5",1 этаж,105064.0,Басманный,Москва,Москва,4.5,9.0,55.764703,37.667036,branch
Encore cafe,кафе,Кафе,"1-й Красногвардейский проезд, 21 ст2",3 этаж,123112.0,Пресненский,Москва,Москва,,,55.749694,37.53412,branch
Erwin,ресторан,Рестораны; Доставка еды; Интересные здания,"Большой Патриарший переулок, 5",1 этаж,123001.0,Пресненский,Москва,Москва,3.9,121.0,55.763435,37.592807,branch
Erwin. Река,рыбный ресторан,Рестораны,"набережная Тараса Шевченко, 1 ст1",Флотилия Рэдиссон Ройал Москва,121248.0,Дорогомилово,Москва,Москва,4.6,10.0,55.75282,37.566004,branch
Erwin. РекаМореОкеан,ресторан,Рестораны,"Кутузовский проспект, 2/1 ст6",,121248.0,Дорогомилово,Москва,Москва,4.3,135.0,55.752075,37.568745,branch
Escapist,бар,Бары; Бильярдные залы,"Большой Трёхсвятительский переулок, 2/1 ст1",1 этаж,109028.0,Басманный,Москва,Москва,4.1,43.0,55.754817,37.645414,branch
Eshak,ресторан,Рестораны; Бары; Доставка еды,"улица Новый Арбат, 21 ст1",1-2 этаж,119019.0,Арбат,Москва,Москва,4.8,645.0,55.752199,37.584394,branch
Esse,джаз-клуб,Кафе; Бары,"Пятницкая улица, 27 ст3а","1, 2 этаж",115184.0,Замоскворечье,Москва,Москва,4.7,91.0,55.741215,37.628911,branch
Essenza,ресторан,Рестораны,"Леонтьевский переулок, 14/11",1 этаж,125009.0,Пресненский,Москва,Москва,,,55.760019,37.604452,branch
Ester,коктейльный бар,Бары,"Большая Никитская улица, 22/2",цокольный этаж,125009.0,Пресненский,Москва,Москва,4.3,18.0,55.757029,37.60304,branch
Esterum,бар,Бары,"Страстной бульвар, 4 ст4",1 этаж; вход в арку налево,125375.0,Тверской,Москва,Москва,5.0,8.0,55.76493,37.60783,branch
Estragon,ресторан-бар,Рестораны; Бары; Доставка еды,"Селезнёвская улица, 30 к Б-В",цокольный этаж,127473.0,Тверской,Москва,Москва,5.0,4.0,55.780804,37.610692,branch
Études café,гастробар,Кафе; Бары,"улица Покровка, 38а",1 этаж,101000.0,Басманный,Москва,Москва,4.2,30.0,55.761512,37.651479,branch
Eva,ресторан греческой кухни,Рестораны; Доставка еды,"1-й переулок Тружеников, 2",1 этаж,119121.0,Хамовники,Москва,Москва,4.6,29.0,55.739451,37.57559,branch
Eva,ресторан греческой кухни,Рестораны; Доставка еды,"Большая Грузинская улица, 69",1 этаж,123056.0,Тверской,Москва,Москва,4.7,154.0,55.773854,37.586349,branch
Everest Continental,​ресторан с лаундж-пространством,Рестораны; Бары; Центры паровых коктейлей; Ночные клубы,"2-я Звенигородская улица, 13 ст4","2, мансардный этаж",123022.0,Пресненский,Москва,Москва,5.0,796.0,55.762346,37.554796,branch
Everest Mansion,ресторан с лаундж-пространством,Рестораны; Бары; Центры паровых коктейлей,"Житная улица, 4",,119049.0,Якиманка,Москва,Москва,5.0,27.0,55.730182,37.622396,branch
Everest Siberia,ресторан с лаундж-пространством,Рестораны; Центры паровых коктейлей; Ночные клубы; Бары,"улица Садовая-Триумфальная, 22/31",2 этаж,127006.0,Тверской,Москва,Москва,5.0,442.0,55.771819,37.603351,branch
Everland,бар,Кафе; Бары; Доставка еды,"Староваганьковский переулок, 19 ст1",2 этаж,119019.0,Арбат,Москва,Москва,4.2,22.0,55.75118,37.607186,branch
Ex:Libris,арт-кафе,Кафе,"Бобров переулок, 6 ст1",1 этаж,101000.0,Красносельский,Москва,Москва,4.5,48.0,55.765001,37.63429,branch
Extravirgin,ресторан,Рестораны,"улица Большая Дмитровка, 23 ст1",1 этаж,125375.0,Тверской,Москва,Москва,4.8,8.0,55.765896,37.610021,branch
Extravirgin,ресторан,Рестораны; Доставка еды; Банкетные залы,"улица Малая Дмитровка, 5/9",1 этаж,127006.0,Тверской,Москва,Москва,4.7,66.0,55.76776,37.605356,branch
Extravirgin,ресторан,Рестораны; Доставка еды,"улица Покровка, 17",1 этаж,101000.0,Басманный,Москва,Москва,4.3,69.0,55.759417,37.645426,branch
Fan Tennis,кафе,Кафе,"Самокатная улица, 2 к1",,111033.0,Лефортово,Москва,Москва,5.0,6.0,55.758115,37.676316,branch
Far away Lounge,,Бары; Центры паровых коктейлей,"Нижегородская улица, 32 ст3",,109029.0,Таганский,Москва,Москва,,,55.737121,37.690223,branch
Faro Beer&Food,бар,Бары,"Малая Семёновская улица, 30 ст2",,107023.0,Соколиная Гора,Москва,Москва,5.0,3.0,55.783191,37.717523,branch
Fatto a mano,ресторан,Рестораны,"Долгоруковская улица, 2",1 этаж,127006.0,Тверской,Москва,Москва,4.8,12.0,55.7746,37.604254,branch
FeiFan HotPot & BBQ,,Рестораны; Доставка еды,"улица Лужники, 24 ст47",,119048.0,Хамовники,Москва,Москва,4.5,42.0,55.713439,37.551436,branch
Fest,бар,Кафе; Бары,"Страстной бульвар, 4 ст3",1 этаж,125375.0,Тверской,Москва,Москва,4.6,85.0,55.765056,37.608336,branch
Fibonacci Coffee&Wine,,Кафе,"Бауманская улица, 7 ст1",1 этаж,105005.0,Басманный,Москва,Москва,4.9,47.0,55.776495,37.676091,branch
Figo,итальянский ресторан,Рестораны; Доставка еды; Банкетные залы,"Смоленская-Сенная площадь, 23/25",,119121.0,Хамовники,Москва,Москва,4.4,45.0,55.744207,37.583109,branch
Filini,ресторан,Рестораны,"3-я улица Ямского Поля, 26а",2 этаж,125124.0,Беговой,Москва,Москва,3.6,3.0,55.78293,37.579392,branch
Fillary,караоке-клуб,Бары; Рестораны; Караоке-залы,"Цветной бульвар, 34",1 этаж,127051.0,Мещанский,Москва,Москва,4.9,362.0,55.77326,37.621868,branch
Finch,кафе,Кафе,"Зубовская улица, 5",1 этаж; вход с торца,119021.0,Хамовники,Москва,Москва,4.5,35.0,55.737361,37.584866,branch
Finch,кофейня,Кафе; Доставка еды,"Газетный переулок, 3-5 ст1",,125009.0,Пресненский,Москва,Москва,4.0,9.0,55.757349,37.608287,branch
"Fiorentini, Bistrot Toscano",ресторан,Рестораны,"улица Льва Толстого, 23 к1",1 этаж,119021.0,Хамовники,Москва,Москва,4.3,3.0,55.735104,37.584919,branch
FireLake grill&Cocktail bar,ресторан,Рестораны; Банкетные залы,"Самарская улица, 1",1 этаж,129110.0,Мещанский,Москва,Москва,4.8,32.0,55.78459,37.625855,branch
First,караоке-клуб,Кафе; Рестораны; Бары; Ночные клубы,"улица Шаболовка, 2 ст1",2 этаж,119049.0,Якиманка,Москва,Москва,4.3,62.0,55.727191,37.611443,branch
Fish,суши-бар,Суши-бары,"Стремянный переулок, 38",1 этаж,115054.0,Замоскворечье,Москва,Москва,,,55.727179,37.626454,branch
Fish культура,бистро,Рестораны; Бары; Доставка еды,"улица Покровка, 21-23/25 ст1",1 этаж,101000.0,Басманный,Москва,Москва,3.9,66.0,55.759667,37.647208,branch
Fish культура,бистро,Рестораны; Бары; Доставка еды,"улица Новый Арбат, 17",1 этаж,119019.0,Арбат,Москва,Москва,3.3,118.0,55.75221,37.58994,branch
Fish проект,ресторан,Рестораны; Доставка еды,"Большой Сухаревский переулок, 6",1 этаж,127051.0,Мещанский,Москва,Москва,3.6,6.0,55.770481,37.626923,branch
Fitz,бар,Бары,"Мясницкая улица, 14/2 ст1",1 этаж,101000.0,Басманный,Москва,Москва,5.0,7.0,55.760795,37.632333,branch
Flaner,ресторан,Рестораны; Бары; Доставка еды,"Кривоколенный переулок, 7",1 этаж,101000.0,Басманный,Москва,Москва,4.7,51.0,55.762475,37.636656,branch
Fleur Сafe`,ресторан,Рестораны; Банкетные залы,"улица Сущёвский Вал, 74",1 этаж,129272.0,Мещанский,Москва,Москва,4.5,6.0,55.791341,37.632953,branch
Flor,ресторан,Рестораны; Доставка еды,"Чистопрудный бульвар, 21/2",1 этаж,101000.0,Басманный,Москва,Москва,4.6,48.0,55.760538,37.646856,branch
Florentini,ресторан,Рестораны; Доставка еды,"Старая Басманная улица, 9 к1",1 этаж,105064.0,Басманный,Москва,Москва,4.4,49.0,55.764809,37.657821,branch
Flying inn,бар,Бары,"1-я Тверская-Ямская улица, 2 ст1",1 этаж,127006.0,Тверской,Москва,Москва,5.0,4.0,55.770224,37.596347,branch
Fogo,ресторан,Рестораны; Бары,"Береговой проезд, 5 к2",,121087.0,Филёвский парк,Москва,Москва,3.7,3.0,55.755718,37.508822,branch
Folk,ресторан,Рестораны; Доставка еды,"Цветной бульвар, 2",1 этаж,127051.0,Мещанский,Москва,Москва,4.7,99.0,55.768028,37.622972,branch
Fonoteca Listening Bar,бар,Бары,"Банковский переулок, 1/24",цокольный этаж; через ресторан Flaner,101000.0,Басманный,Москва,Москва,4.5,13.0,55.762475,37.636656,branch
Fontana. Римский стритфуд,пиццерия,Пиццерии; Быстрое питание,"Тверская улица, 27 ст2",2 этаж,125009.0,Тверской,Москва,Москва,4.3,11.0,55.769026,37.596959,branch
Food lab,кафе-столовая,Кафе; Столовые,"1-я Мытищинская улица, 3 ст1",1 этаж,129626.0,Алексеевский,Москва,Москва,,,55.79683,37.640986,branch
Forton hotel,ресторан,Кафе; Рестораны,"Житная улица, 6-8 ст7",1 этаж,119049.0,Якиманка,Москва,Москва,4.7,21.0,55.730657,37.619372,branch
Found Ramen&Rekodo,,Рестораны,"переулок Столешников, 11",,107031.0,Тверской,Москва,Москва,4.7,26.0,55.763771,37.615505,branch
Found Record Store&Pizzeria,пиццерия и магазин винила,Рестораны; Пиццерии; Доставка еды; Музыкальные пластинки,"Цветной бульвар, 15 ст1",5 этаж,127051.0,Тверской,Москва,Москва,4.6,152.0,55.771053,37.620728,branch
Frank by Баста,реберная,Рестораны; Доставка еды,"Пресненская набережная, 2",5 этаж,123112.0,Пресненский,Москва,Москва,5.0,629.0,55.748564,37.539305,branch
Frank by Баста,реберная,Рестораны,"улица Арбат, 38/1 ст1",,119002.0,Арбат,Москва,Москва,4.9,949.0,55.748523,37.587991,branch
Frank by Баста,реберная,Рестораны,"улица Сретенка, 24/2",1 этаж,107045.0,Красносельский,Москва,Москва,4.9,722.0,55.769936,37.632517,branch
Frank by Баста,реберная,Рестораны; Доставка еды,"Новорязанская улица, 23 ст1",1 этаж,105066.0,Красносельский,Москва,Москва,4.9,890.0,55.772607,37.662703,branch
Frank by Баста,реберная,Рестораны; Бары; Доставка еды,"Лесная улица, 20 ст6",1 этаж,125196.0,Тверской,Москва,Москва,4.9,2028.0,55.779657,37.590978,branch
Frank by Баста,реберная,Рестораны,"Павелецкая площадь, 3",0 этаж,115114.0,Замоскворечье,Москва,Москва,4.9,3253.0,55.730232,37.638057,branch
Frank by Баста,реберная,Кафе; Доставка еды,"улица Усачёва, 26",цокольный этаж,119048.0,Хамовники,Москва,Москва,4.9,1178.0,55.727318,37.56772,branch
Frank by Баста,реберная,Рестораны; Доставка еды,"Камергерский переулок, 6 ст1","1, 2 этаж",125009.0,Тверской,Москва,Москва,4.9,3264.0,55.760216,37.614598,branch
Frank by Баста,реберная,Рестораны; Доставка еды,"улица Новый Арбат, 17",1 этаж,119019.0,Арбат,Москва,Москва,4.9,2267.0,55.75222,37.590742,branch
Frank by Баста,реберная,Рестораны; Доставка еды,"Пятницкая улица, 10 ст1",1 этаж,115035.0,Замоскворечье,Москва,Москва,4.9,1701.0,55.743879,37.627832,branch
Frank by Баста,реберная,Рестораны; Бары,"Мясницкая улица, 24",1 этаж,101000.0,Басманный,Москва,Москва,4.9,3572.0,55.762841,37.635262,branch
Frank by Баста,реберная,Рестораны; Бары; Доставка еды,"улица Тимура Фрунзе, 22",цокольный этаж,119021.0,Хамовники,Москва,Москва,4.9,1189.0,55.735479,37.58802,branch
Frank by Баста,реберная,Рестораны; Доставка еды,"улица Рождественка, 5/7 ст2",1 этаж,107031.0,Мещанский,Москва,Москва,5.0,2007.0,55.761175,37.623455,branch
Frankie Bistro&Pizza,,Кафе; Пиццерии; Доставка еды,"Пятницкая улица, 82/34 ст1",1 этаж,115184.0,Замоскворечье,Москва,Москва,4.7,54.0,55.730449,37.625468,branch
French bakery se Delice,французская пекарня,Кофейни; Пекарни; Кафе-кондитерские,"Большая Почтовая улица, 32 к9",,105082.0,Басманный,Москва,Москва,,,55.779962,37.700327,branch
French bakery se Delice,французская пекарня,Кофейни; Пекарни; Кафе-кондитерские,"Новоостаповская улица, 7 к1",,115088.0,Южнопортовый,Москва,Москва,3.1,2.0,55.724084,37.682594,branch
French bakery se Delice,французская пекарня,Кофейни; Пекарни; Кафе-кондитерские,"Новослободская улица, 16",,127055.0,Тверской,Москва,Москва,,,55.781701,37.599138,branch
French bakery se Delice,французская пекарня,Кофейни; Пекарни; Кафе-кондитерские,"Бумажный проезд, 19",,127015.0,Беговой,Москва,Москва,,,55.789975,37.585906,branch
French bakery se Delice,французская пекарня,Кофейни; Кафе-кондитерские; Пекарни,"Тверская улица, 9",1 этаж,125009.0,Тверской,Москва,Москва,3.2,3.0,55.759918,37.610641,branch
French bakery se Delice,французская пекарня,Кофейни; Пекарни; Кафе-кондитерские,"Бауманская улица, 47",,105005.0,Басманный,Москва,Москва,1.9,1.0,55.769327,37.679699,branch
French bakery se Delice,французская пекарня,Кофейни; Пекарни; Кафе-кондитерские,"Большая Филёвская улица, 3 к3",,121087.0,Филёвский парк,Москва,Москва,5.0,6.0,55.749349,37.516797,branch
French bakery se Delice,французская пекарня,Кофейни; Пекарни; Кафе-кондитерские,"Большая Семёновская улица, 17а",1 этаж,107023.0,Соколиная Гора,Москва,Москва,2.7,6.0,55.782943,37.706039,branch
French bakery se Delice,французская пекарня,Кофейни; Пекарни; Кафе-кондитерские,"Большая Татарская улица, 5",,115184.0,Замоскворечье,Москва,Москва,4.4,13.0,55.742439,37.631369,branch
French bakery se Delice,французская пекарня,Кофейни; Кафе-кондитерские,"улица Нижняя Масловка, 10",1 этаж,127220.0,Савёловский,Москва,Москва,3.0,7.0,55.792355,37.578122,branch
French bakery se Delice,французская пекарня,Кофейни; Пекарни; Кондитерские изделия; Кафе-кондитерские,"2-я Брестская улица, 48",1 этаж,125047.0,Тверской,Москва,Москва,4.7,3.0,55.774623,37.584578,branch
French bakery se Delice,французская пекарня,Кофейни; Кафе-кондитерские,"Краснопрудная улица, вл12 ст1",1 этаж,107140.0,Красносельский,Москва,Москва,4.1,9.0,55.776925,37.661051,branch
French bakery se Delice,французская пекарня,Кофейни; Пекарни; Кафе-кондитерские,"Ленинский проспект, 37а",1 этаж,119334.0,Донской,Москва,Москва,2.8,9.0,55.709335,37.587823,branch
French bakery se Delice,французская пекарня,Кофейни; Кафе-кондитерские,"Большая Садовая улица, 6 ст2",1 этаж,123001.0,Пресненский,Москва,Москва,4.5,22.0,55.766477,37.59215,branch
French bakery se Delice,французская пекарня,Кофейни; Кафе-кондитерские,"Сретенский бульвар, 6/1 ст2",1 этаж,101000.0,Красносельский,Москва,Москва,3.9,9.0,55.765879,37.635344,branch
French bakery se Delice,французская пекарня,Кофейни; Пекарни; Кафе-кондитерские,"Новослободская улица, 10 ст1",1 этаж,127055.0,Тверской,Москва,Москва,2.9,11.0,55.780417,37.600242,branch
French bakery se Delice,французская пекарня,Кофейни; Пекарни; Кафе-кондитерские,"Бауманская улица, 32 ст2",1 этаж,105005.0,Басманный,Москва,Москва,4.4,43.0,55.772389,37.678323,branch
French bakery se Delice,французская пекарня,Кофейни; Пекарни; Кафе-кондитерские,"улица Большая Якиманка, 52",1 этаж,119049.0,Якиманка,Москва,Москва,4.6,30.0,55.731697,37.611745,branch
French bakery se Delice,французская пекарня,Кофейни; Пекарни; Кафе-кондитерские,"улица Зацепский Вал, 14","цокольный, 1 этаж",115054.0,Замоскворечье,Москва,Москва,3.8,37.0,55.731568,37.637291,branch
French bakery se Delice,французская пекарня,Кофейни; Пекарни; Кафе-кондитерские,"проспект Мира, 38",1 этаж,129090.0,Мещанский,Москва,Москва,4.4,22.0,55.779839,37.633533,branch
French bakery se Delice,французская пекарня,Кофейни; Пекарни; Кафе-кондитерские,"Новокузнецкая улица, 43/16 ст2",1 этаж,115054.0,Замоскворечье,Москва,Москва,4.7,46.0,55.731833,37.635846,branch
French bakery se Delice,французская пекарня,Кофейни; Пекарни; Кафе-кондитерские,"Цветной бульвар, 21 ст1",1 этаж,127051.0,Тверской,Москва,Москва,4.6,63.0,55.772232,37.620837,branch
French bakery se Delice,французская пекарня,Кофейни; Пекарни; Кафе-кондитерские,"Новослободская улица, 20",1 этаж,127055.0,Тверской,Москва,Москва,3.7,5.0,55.782174,37.598728,branch
French bakery se Delice,французская пекарня,Кофейни; Кафе-кондитерские,"Зубовский бульвар, 17",1 этаж,119021.0,Хамовники,Москва,Москва,4.7,58.0,55.736318,37.590879,branch
French bakery se Delice,французская пекарня,Кофейни; Пекарни; Кафе-кондитерские,"Пятницкая улица, 29",1 этаж,115184.0,Замоскворечье,Москва,Москва,4.5,96.0,55.740951,37.628708,branch
French bakery se Delice,французская пекарня,Кофейни; Пекарни; Кафе-кондитерские,"улица Шаболовка, 30/12",1 этаж,115419.0,Донской,Москва,Москва,4.5,120.0,55.719402,37.608882,branch
French bakery se Delice,французская пекарня,Кофейни; Кафе-кондитерские; Хлебобулочные изделия,"улица Кузнецкий Мост, 18/7",1 этаж,107031.0,Мещанский,Москва,Москва,4.5,156.0,55.761955,37.623394,branch
French bakery se Delice,французская пекарня,Кофейни; Пекарни; Кафе-кондитерские,"Новослободская улица, 3",1 этаж,127055.0,Тверской,Москва,Москва,2.8,15.0,55.779209,37.600784,branch
French bakery se Delice,французская пекарня,Кофейни; Пекарни; Кафе-кондитерские,"Тверская улица, 17",1 этаж,125009.0,Тверской,Москва,Москва,3.1,57.0,55.763544,37.606633,branch
Freya,ресторан,Кафе; Рестораны; Доставка еды,"Малая Никитская улица, 27 ст1","1, 2 этаж",121069.0,Пресненский,Москва,Москва,4.4,41.0,55.75875,37.587977,branch
Friends Forever Botanica,кафе,Кафе; Рестораны; Кондитерские изделия; Кафе-кондитерские,"проспект Мира, 26 ст1",1 этаж,129090.0,Мещанский,Москва,Москва,5.0,269.0,55.77811,37.633038,branch
from Berlin,винный ресторан,Кафе; Рестораны; Бары,"Садовая-Самотечная улица, 20 ст1",1 этаж,127051.0,Тверской,Москва,Москва,4.6,67.0,55.773255,37.619339,branch
Fruits&Veges,веганское кафе,Кафе; Доставка еды,"Нижняя Сыромятническая улица, 10 ст12",цокольный этаж,105120.0,Басманный,Москва,Москва,4.4,55.0,55.752721,37.66842,branch
Fullmoon,ресторан,Рестораны,"Малая Никитская улица, 16/5","-1, 1 этаж",121069.0,Пресненский,Москва,Москва,4.4,17.0,55.758592,37.59185,branch
Fumisawa Sushi,ресторан японской кухни,Рестораны; Суши-бары; Доставка еды,"улица Петровка, 5",1 этаж,107031.0,Тверской,Москва,Москва,4.2,18.0,55.762003,37.617306,branch
Funky Food,ресторан,Рестораны; Бары,"Рочдельская улица, 15 ст1",,123376.0,Пресненский,Москва,Москва,4.7,540.0,55.756817,37.566626,branch
Funny danbo,винный бар,Бары,"Стремянный переулок, 38",1 этаж; фудхолл Ракета,115054.0,Замоскворечье,Москва,Москва,5.0,2.0,55.727104,37.626733,branch
Funny danbo,винный бар,Бары,"Новослободская улица, 4",3 этаж,127055.0,Тверской,Москва,Москва,5.0,5.0,55.780136,37.60108,branch
G&t gourmet,ресторан,Рестораны; Банкетные залы; Доставка еды,"Русаковская улица, 24",2 этаж,107014.0,Сокольники,Москва,Москва,4.9,793.0,55.788149,37.680532,branch
Gabbiano,кафе,Кафе,"Турчанинов переулок, 3 ст1",,119034.0,Хамовники,Москва,Москва,,,55.736579,37.596233,branch
Gagawa,кафе,Кафе,"площадь Киевского вокзала, 2",4 этаж,121059.0,Дорогомилово,Москва,Москва,5.0,6.0,55.744464,37.567396,branch
Gagawa,кафе,Кафе,"Пресненская набережная, 2",4 этаж,123112.0,Пресненский,Москва,Москва,4.7,73.0,55.749439,37.53914,branch
Galerie,ресторан,Рестораны,"Краснопрудная улица, вл12 ст1",2 этаж,107140.0,Красносельский,Москва,Москва,,,55.777115,37.661465,branch
Garda,ресторан,Рестораны; Банкетные залы; Доставка еды,"улица Петровка, 17 ст1",1 этаж,107031.0,Тверской,Москва,Москва,4.8,58.0,55.764609,37.616553,branch
Gastrobar Cavina,винотека,Рестораны; Бары; Доставка еды,"Мансуровский переулок, 10 ст2",цокольный этаж,119034.0,Хамовники,Москва,Москва,4.8,22.0,55.740356,37.593755,branch
Gaufre,кафе,Кафе,"Таганская улица, 40/2",1 этаж,109147.0,Таганский,Москва,Москва,4.1,13.0,55.738494,37.666433,branch
Gazgolder,клуб-ресторан,Рестораны; Ночные клубы; Бары; Аренда концертных площадок,"Нижний Сусальный переулок, 5 ст26",,105064.0,Басманный,Москва,Москва,3.3,97.0,55.760243,37.665345,branch
Geisha Superman,бар,Кафе; Бары; Доставка еды,"Малая Бронная улица, 2 ст1",1 этаж,123104.0,Пресненский,Москва,Москва,4.4,48.0,55.759001,37.598901,branch
Gem,ресторан,Рестораны; Доставка еды,"Ходынская улица, 2 к А",1 этаж,123022.0,Пресненский,Москва,Москва,4.9,33.0,55.770533,37.564119,branch
Gemopuri,,Кафе; Рестораны; Доставка еды,"Крымская набережная, 10 ст5",,119049.0,Якиманка,Москва,Москва,5.0,14.0,55.738771,37.610637,branch
Gentalion,кафе-бар,Кафе,"1-я Брестская улица, 38 ст1",,125047.0,Тверской,Москва,Москва,,,55.77314,37.588929,branch
Georgian Family,кафе,Кафе; Доставка еды,"Береговой проезд, 5а к7",,121087.0,Филёвский парк,Москва,Москва,5.0,1.0,55.75462,37.509927,branch
Georgian House,кафе,Кафе; Доставка еды,"Пресненская набережная, 2",5 этаж,123112.0,Пресненский,Москва,Москва,4.5,329.0,55.748918,37.538284,branch
Georgiano,грузинский ресторан,Кафе; Рестораны; Доставка еды,"улица Косыгина, 5",1 этаж,119334.0,Гагаринский,Москва,Москва,4.1,38.0,55.707153,37.572719,branch
Geraldine,необистро,Рестораны; Доставка еды,"улица Остоженка, 27 к2",1 этаж,119034.0,Хамовники,Москва,Москва,4.7,108.0,55.739013,37.597586,branch
Gestalt,клуб,Бары; Ночные клубы; Банкетные залы; Организация праздников,"Милютинский переулок, 15 ст2а",,101000.0,Красносельский,Москва,Москва,5.0,16.0,55.765222,37.632284,branch
Gesten bar,,Рестораны,"Садовническая набережная, 17",1 этаж,115035.0,Замоскворечье,Москва,Москва,,,55.746212,37.631354,branch
Gg group,хинкальная,Кафе; Доставка еды,"Русаковская улица, 29",1 этаж,107113.0,Сокольники,Москва,Москва,4.0,27.0,55.787343,37.67777,branch
Gg group,хинкальная,Кафе; Доставка еды,"улица Новый Арбат, 22",1 этаж,119019.0,Арбат,Москва,Москва,4.0,59.0,55.753194,37.589132,branch
Gg group,хинкальная,Кафе; Доставка еды,"Мытная улица, 1 ст1",1 этаж,119049.0,Якиманка,Москва,Москва,3.4,64.0,55.728242,37.614928,branch
Gg group,хинкальная,Кафе; Доставка еды,"Неглинная улица, 15 ст1",1 этаж,127051.0,Тверской,Москва,Москва,3.8,138.0,55.762953,37.619842,branch
Ginstitute,,Бары,"улица Солянка, 1/2 ст1",,109028.0,Басманный,Москва,Москва,4.6,21.0,55.754066,37.637297,branch
Glastonberry,клуб-ресторан,Кафе; Банкетные залы; Бары; Доставка еды; Аренда концертных площадок,"1-я Дубровская улица, 13а ст1","1, 2 этаж",115088.0,Южнопортовый,Москва,Москва,4.5,71.0,55.722755,37.673643,branch
Golden mile,ресторан,Рестораны; Доставка еды,"Хилков переулок, 1",1 этаж,119034.0,Хамовники,Москва,Москва,,,55.736913,37.600451,branch
Golden Monkey,,Суши-бары; Быстрое питание,"Багратионовский проезд, 1а к1",1 этаж,121087.0,Филёвский парк,Москва,Москва,5.0,5.0,55.745989,37.513286,branch
Golden monkey,кафе,Суши-бары,"Большой Овчинниковский переулок, 16",2 этаж,115184.0,Замоскворечье,Москва,Москва,,,55.744672,37.629702,branch
Golden monkey,кафе,Суши-бары; Быстрое питание; Доставка еды,"Новослободская улица, 4",3 этаж,127055.0,Тверской,Москва,Москва,5.0,2.0,55.779981,37.601135,branch
Goldfinch pub,,Кафе; Рестораны; Бары; Алкогольные напитки,"Большая Филёвская улица, 3 к1",,121087.0,Филёвский парк,Москва,Москва,5.0,8.0,55.751695,37.51616,branch
Good Job,английский паб,Бары,"Летниковская улица, 4 ст5",,115114.0,Замоскворечье,Москва,Москва,,,55.727615,37.644578,branch
Good sushi,суши-бар,Суши-бары; Быстрое питание; Доставка еды,"Бауманская улица, 50/12 ст1",1 этаж,105005.0,Басманный,Москва,Москва,4.2,46.0,55.769589,37.679162,branch
Goodman,стейк-хаус,Рестораны; Кейтеринг; Доставка еды; Бары,"Павелецкая площадь, 2 ст1",1 этаж,115054.0,Замоскворечье,Москва,Москва,4.9,50.0,55.730479,37.634262,branch
Goodman,стейк-хаус,Рестораны; Доставка еды; Кейтеринг,"Трубная площадь, 2",2 этаж,107031.0,Мещанский,Москва,Москва,4.9,157.0,55.766513,37.622589,branch
Goodman Prime,ресторан,Рестораны; Доставка еды,"Смоленская площадь, 3","1, 2 этаж",121099.0,Арбат,Москва,Москва,4.4,11.0,55.747345,37.58205,branch
Goodman Prime,ресторан,Рестораны; Банкетные залы; Доставка еды,"Охотный Ряд улица, 2",2 этаж,103265.0,Тверской,Москва,Москва,4.9,157.0,55.75745,37.618415,branch
Gorilla by Баста,ресторан,Рестораны; Суши-бары; Доставка еды; Бары,"Мясницкая улица, 11",1 этаж,101000.0,Красносельский,Москва,Москва,4.9,765.0,55.761627,37.632861,branch
Gourmet Bar,бар,Бары,"Новослободская улица, 23",1 этаж,127055.0,Тверской,Москва,Москва,,,55.78164,37.59797,branch
Grace bistro,ресторан,Рестораны; Доставка еды,"улица Спиридоновка, 25/20 ст1",1 этаж,123001.0,Пресненский,Москва,Москва,4.7,146.0,55.762791,37.589098,branch
Grafa,гастробар,Рестораны; Бары,"Большой Спасоглинищевский переулок, 8",,101000.0,Басманный,Москва,Москва,4.9,131.0,55.755914,37.635208,branch
Grand Cru,винотека-ресторан,Рестораны,"Малая Бронная улица, 22 ст2",1 этаж,123104.0,Пресненский,Москва,Москва,4.6,23.0,55.762922,37.595007,branch
Grande Bibliotheca,ресторан,Рестораны; Доставка еды,"1-я улица Ямского Поля, 1 к1",1 этаж,125040.0,Беговой,Москва,Москва,3.8,17.0,55.779186,37.581737,branch
Grande friends forever,кафе,Кафе; Доставка еды; Кондитерские изделия,"улица Остоженка, 7 ст1",1 этаж,119034.0,Хамовники,Москва,Москва,4.2,51.0,55.743079,37.601059,branch
Greeks&Pasta,ресторан,Рестораны; Доставка еды,"Неглинная улица, 15",1 этаж,127051.0,Тверской,Москва,Москва,4.6,56.0,55.762783,37.61985,branch
Greenside,лаундж-бар,Рестораны; Бары,"улица Ефремова, 10 ст1",,119048.0,Хамовники,Москва,Москва,4.7,23.0,55.726184,37.573669,branch
Gregori,итальянская лавка,Кафе; Пиццерии; Сыры; Консервы; Макароны,"Большая Филёвская улица, 3 к1",1 этаж,121087.0,Филёвский парк,Москва,Москва,5.0,4.0,55.751253,37.515517,branch
Gru Seasons,рыбный ресторан,Рестораны,"Нижняя Красносельская улица, 35 ст59",1 этаж,105066.0,Басманный,Москва,Москва,,,55.776699,37.674941,branch
Guns&Bears Pub,бар,Кафе; Бары,"Новослободская улица, 46 ст1",1 этаж,127055.0,Тверской,Москва,Москва,4.6,38.0,55.786048,37.595669,branch
Guru Cafe,,Кафе,"2-я Брестская улица, 6",6 этаж; вход с ул. 1-я Брестская,125047.0,Тверской,Москва,Москва,5.0,1.0,55.77103,37.591948,branch
Gussi,ресторан,Рестораны; Доставка еды,"Никольская улица, 12",1 этаж,109012.0,Тверской,Москва,Москва,4.5,34.0,55.758753,37.626169,branch
Gusto,ресторан,Рестораны; Банкетные залы,"Камергерский переулок, 5","1, 2 этаж",125009.0,Тверской,Москва,Москва,4.5,282.0,55.760296,37.614191,branch
Hands,ресторан,Рестораны; Доставка еды,"Погодинская улица, 2",,119121.0,Хамовники,Москва,Москва,4.5,36.0,55.73534,37.573017,branch
Hands asian bistro,ресторан,Рестораны; Доставка еды,"Погодинская улица, 2",1 этаж,119121.0,Хамовники,Москва,Москва,4.5,7.0,55.735288,37.572911,branch
Hanky 3/7,бар,Бары,"улица Покровка, 3/7 ст1",цокольный этаж,101000.0,Басманный,Москва,Москва,5.0,6.0,55.75881,37.64033,branch
Hanoi,кафе быстрого питания,Кафе; Доставка еды,"улица Воронцово Поле, 18",1 этаж; направо,105064.0,Таганский,Москва,Москва,4.8,38.0,55.754601,37.655813,branch
Happy end bar&kitchen,бар,Рестораны; Бары; Доставка еды,"Спиридоньевский переулок, 9 ст1",цокольный этаж,123104.0,Пресненский,Москва,Москва,3.6,42.0,55.762465,37.594563,branch
Harat`s pub,ирландский паб,Кафе; Бары; Доставка еды,"улица Сущёвский Вал, 49 ст2",1 этаж,127018.0,Марьина Роща,Москва,Москва,3.9,33.0,55.793442,37.612803,branch
Harat`s pub,ирландский паб,Кафе; Бары,"Большая Семёновская улица, 10 ст2",1-2 этаж,107023.0,Соколиная Гора,Москва,Москва,4.6,29.0,55.782261,37.702966,branch
Harat`s pub,ирландский паб,Кафе; Бары,"улица Сретенка, 15",1 этаж,107045.0,Мещанский,Москва,Москва,4.9,138.0,55.769289,37.631982,branch
Harat`s pub,ирландский паб,Кафе; Рестораны; Бары,"Пушечная улица, 7/5 ст2",1 этаж,107031.0,Мещанский,Москва,Москва,4.4,36.0,55.760881,37.622726,branch
Harat`s pub,ирландский паб,Кафе; Бары,"Новослободская улица, 24 ст1",5 помещение; 1 этаж,127055.0,Тверской,Москва,Москва,4.8,43.0,55.782937,37.598091,branch
Harat`s pub,ирландский паб,Кафе; Бары,"Большой Строченовский переулок, 7",1 этаж,115054.0,Замоскворечье,Москва,Москва,4.0,35.0,55.729092,37.630536,branch
Harat`s pub,ирландский паб,Бары,"1-я Тверская-Ямская улица, 27",1 этаж,125047.0,Тверской,Москва,Москва,4.5,79.0,55.775854,37.585686,branch
Harat`s pub,ирландский паб,Кафе; Бары,"Таганская площадь, 10",1 этаж,109044.0,Таганский,Москва,Москва,4.9,178.0,55.74073,37.65428,branch
Harat`s pub,ирландский паб,Бары; Доставка еды,"улица Новый Арбат, 24",1 этаж; левое крыло,119019.0,Арбат,Москва,Москва,4.4,70.0,55.753074,37.58687,branch
Harat`s pub,ирландский паб,Кафе; Бары,"улица Покровка, 6",1 этаж,101000.0,Басманный,Москва,Москва,4.0,82.0,55.758745,37.641996,branch
Harvey&Monica,панорамный ресторан,Рестораны; Бары; Банкетные залы; Доставка еды,"Котельническая набережная, 31",2 этаж,115172.0,Таганский,Москва,Москва,4.3,35.0,55.741607,37.646182,branch
Hava,бар&кухня,Бары,"2-я Бауманская улица, 9/23 ст3",1 этаж,105005.0,Басманный,Москва,Москва,3.9,9.0,55.763945,37.684211,branch
Heat,итальянский ресторан,Рестораны; Доставка еды,"3-й Красносельский переулок, 19 ст11",,107140.0,Красносельский,Москва,Москва,5.0,13.0,55.784778,37.656223,branch
Heavy haze,лаундж-бар,Бары; Центры паровых коктейлей; Рестораны,"Нижегородская улица, 25",1 этаж,109029.0,Таганский,Москва,Москва,4.9,38.0,55.737241,37.694294,branch
Hedonist,ресторан,Рестораны; Доставка еды,"Покровский бульвар, 8 ст1",1 этаж,109028.0,Басманный,Москва,Москва,4.1,55.0,55.757467,37.646619,branch
Hello Kitty and friends,,Кафе; Кондитерские изделия,"Театральный проезд, 5 ст1",6 этаж,109012.0,Мещанский,Москва,Москва,4.2,19.0,55.760454,37.625048,branch
Hi Garden,гастрономическое кафе,Рестораны; Бары,"Ботанический переулок, 5",8 этаж,129090.0,Мещанский,Москва,Москва,3.8,8.0,55.777901,37.637931,branch
Hi Малатан,китайское кафе,Кафе,"Сущёвская улица, 21",1 этаж,127030.0,Тверской,Москва,Москва,,,55.782528,37.601433,branch
Hibiki,ресторан,Рестораны; Доставка еды; Банкетные залы,"Трубецкая улица, 10",,119048.0,Хамовники,Москва,Москва,4.3,20.0,55.727332,37.575984,branch
Hidden bar,бар,Кафе; Бары; Аренда концертных площадок,"Камергерский переулок, 6/5 ст3",цокольный этаж,125009.0,Тверской,Москва,Москва,4.3,54.0,55.760024,37.614077,branch
Hide,бар,Бары,"1-й Сетуньский проезд, 8",,119136.0,Раменки,Москва,Москва,,,55.732104,37.540659,branch
Hide Grand Bistro,винный ресторан,Рестораны,"1-й Сетуньский проезд, 8",,119136.0,Раменки,Москва,Москва,5.0,1.0,55.732341,37.539904,branch
High bar,панорамный бар,Рестораны; Бары; Доставка еды,"Пресненская набережная, 6 ст2",56 этаж; 3 подъезд,123112.0,Пресненский,Москва,Москва,4.1,13.0,55.748048,37.540747,branch
High ground,лаундж-бар,Кафе; Бары; Доставка еды,"Кожевническая улица, 18",2 этаж,115114.0,Даниловский,Москва,Москва,4.3,55.0,55.72879,37.647819,branch
Historia,ресторан,Рестораны,"Большая Никитская улица, 58 ст1",1 этаж,121069.0,Пресненский,Москва,Москва,4.0,53.0,55.758574,37.586577,branch
hite,корейский ресторан,Рестораны; Доставка еды,"Большая Серпуховская улица, 12/11 ст2",1 этаж,115093.0,Замоскворечье,Москва,Москва,4.5,126.0,55.728225,37.624328,branch
hite,корейский ресторан,Рестораны; Доставка еды,"улица 1905 года, 2",1 этаж,123376.0,Пресненский,Москва,Москва,4.6,146.0,55.755096,37.560178,branch
Hoi An,кафе,Кафе; Доставка еды,"проспект Мира, 54",цокольный этаж,129110.0,Мещанский,Москва,Москва,4.8,85.0,55.783639,37.635844,branch
Holi yoga&cafe,кафе,Кафе,"1-я улица Ямского Поля, 1 к1",1 этаж; вывеска Yoga meditation cafe,125040.0,Беговой,Москва,Москва,5.0,15.0,55.77982,37.581357,branch
Holi yoga&cafe,кафе,Кофейни; Кафе; Доставка еды; Кейтеринг,"улица Малая Ордынка, 19",1 этаж,119017.0,Замоскворечье,Москва,Москва,5.0,25.0,55.736763,37.625766,branch
Honey Bunny,стриптиз-клуб,Бары; Стриптиз-клубы; Караоке-залы; Ночные клубы,"улица Усачёва, 2 ст1",цокольный этаж,119048.0,Хамовники,Москва,Москва,4.9,77.0,55.731021,37.577569,branch
Hong Kong,китайский ресторан,Рестораны; Доставка еды,"Русаковская улица, 24","24, 25 этаж",107014.0,Сокольники,Москва,Москва,4.6,72.0,55.788149,37.680532,branch
HookahPlace 404,лаундж-бар,Бары; Центры паровых коктейлей,"2-я Брестская улица, 1",,123001.0,Пресненский,Москва,Москва,3.2,7.0,55.769068,37.593383,branch
HookahPlace Futura,лаундж-бар,Бары; Центры паровых коктейлей,"Никольская улица, 19-21/1",2 этаж,109012.0,Тверской,Москва,Москва,4.9,86.0,55.758315,37.623921,branch
HookahPlace Futura,лаундж-бар,Бары; Центры паровых коктейлей,"проспект Мира, 36 ст1",цокольный этаж,129090.0,Мещанский,Москва,Москва,4.7,179.0,55.779117,37.633473,branch
HookahPlace Mars,лаундж-бар,Рестораны; Центры паровых коктейлей; Бары,"улица Маросейка, 7/8 ст1",2 этаж,101000.0,Басманный,Москва,Москва,4.9,245.0,55.757572,37.633034,branch
HookahPlace Брюс,лаундж-бар,Рестораны; Центры паровых коктейлей; Бары,"Ладожская улица, 1/2",3 этаж,105005.0,Басманный,Москва,Москва,4.8,61.0,55.77158,37.681481,branch
HookahPlace Пятницкая,,Бары; Центры паровых коктейлей,"Пятницкая улица, 82/34 ст1",цокольный этаж,115184.0,Замоскворечье,Москва,Москва,4.8,65.0,55.730355,37.625255,branch
Hot Bird,караоке-бар,Бары; Караоке-залы,"улица Арбат, 6/2",1 этаж,119019.0,Арбат,Москва,Москва,3.8,12.0,55.752184,37.597224,branch
Howard Loves Craft,бар,Бары,"Болотная набережная, 7 ст3","1, 2 этаж",119072.0,Якиманка,Москва,Москва,4.6,154.0,55.740384,37.610489,branch
Hugo bistro&bar,гастробар,Рестораны; Доставка еды,"Садовническая улица, 80",1 этаж,115035.0,Замоскворечье,Москва,Москва,4.6,39.0,55.737174,37.640189,branch
I Like Grill,ресторан,Рестораны; Доставка еды,"улица Тимура Фрунзе, 11 ст44",1 этаж,119021.0,Хамовники,Москва,Москва,4.0,11.0,55.735168,37.585291,branch
I like pizza,пиццерия,Кафе; Пиццерии; Доставка еды,"улица Тимура Фрунзе, 11 ст19",1 этаж,119021.0,Хамовники,Москва,Москва,5.0,4.0,55.735902,37.5867,branch
I like wine 2.0,винный гастробар,Рестораны; Бары; Доставка еды,"улица Тимура Фрунзе, 11 ст19",1 этаж,119021.0,Хамовники,Москва,Москва,4.6,32.0,55.735902,37.5867,branch
I love cake,ресторан,Рестораны,"1-я улица Ямского Поля, 1 к1",1 этаж,125040.0,Беговой,Москва,Москва,4.5,21.0,55.779112,37.581306,branch
I love cake,ресторан,Кофейни; Кафе-кондитерские; Доставка еды,"Большой Патриарший переулок, 4",1 этаж,123001.0,Пресненский,Москва,Москва,4.7,315.0,55.762571,37.591986,branch
Ibis Kitchen,ресторан,Кафе; Бары,"улица Щипок, 22 ст1","1, 2 этаж",115054.0,Замоскворечье,Москва,Москва,3.1,4.0,55.723916,37.634645,branch
Ice Bar,бар,Бары,"1-й Красногвардейский проезд, 21 ст2",85 этаж,123112.0,Пресненский,Москва,Москва,5.0,1.0,55.749184,37.534005,branch
If,кафе,Бары,"Малый Трёхсвятительский переулок, 1 ст3",1 этаж,109028.0,Басманный,Москва,Москва,4.8,19.0,55.754853,37.645413,branch
Iggy Pub,бар,Бары,"Калашный переулок, 9",1 этаж,125009.0,Пресненский,Москва,Москва,4.6,25.0,55.75713,37.599757,branch
Igloobar,компания по аренде иглу на крыше,Рестораны; Организация праздников; Банкетные залы,"Нижний Сусальный переулок, 5 ст19",мансардный этаж,105064.0,Басманный,Москва,Москва,4.7,125.0,55.759514,37.665979,branch
Igloobar,ресторан,Рестораны,"Нижняя Красносельская улица, 35 ст59",6 этаж,105066.0,Басманный,Москва,Москва,5.0,1.0,55.776442,37.674918,branch
Ikra,гастротеатр,Рестораны,"Большая Никитская улица, 5",1 этаж,125009.0,Арбат,Москва,Москва,4.9,9.0,55.755252,37.609269,branch
Ikura izakaya by wrf,ресторан,Рестораны; Бары; Доставка еды,"Рождественский бульвар, 1",4 этаж,107045.0,Мещанский,Москва,Москва,4.7,79.0,55.766746,37.624036,branch
il Forno,ресторан,Рестораны; Доставка еды,"Кутузовский проспект, 2/1 ст6",,121248.0,Дорогомилово,Москва,Москва,5.0,18.0,55.752398,37.566816,branch
il Forno,ресторан,Рестораны; Доставка еды,"Неглинная улица, 8/10","цокольный, 1 этаж",107031.0,Мещанский,Москва,Москва,4.1,42.0,55.761452,37.620489,branch
Il letterato,семейный ресторан итальянской кухни,Рестораны; Доставка еды,"улица Воздвиженка, 1",цокольный этаж,119019.0,Тверской,Москва,Москва,4.3,73.0,55.752249,37.611465,branch
Il Matto,ресторан,Рестораны; Доставка еды,"улица Большая Дмитровка, 9 ст1",1 этаж,125009.0,Тверской,Москва,Москва,4.5,26.0,55.761692,37.614107,branch
Il pizzaiolo,итальянское кафе,Кафе; Пиццерии,"Камергерский переулок, 5 ст1",,125009.0,Тверской,Москва,Москва,4.8,24.0,55.760436,37.614573,branch
Il pizzaiolo,итальянское кафе,Кафе; Пиццерии; Доставка еды,"Тверская улица, 19а",1 этаж,125009.0,Тверской,Москва,Москва,4.9,186.0,55.765844,37.602929,branch
Il pizzaiolo,итальянское кафе,Кафе; Пиццерии; Доставка еды,"улица Арбат, 31",1 этаж,119002.0,Арбат,Москва,Москва,5.0,284.0,55.749902,37.593266,branch
