title,extension,content,address,address_comment,postal,district,city,region,rating,rating_cnt,lat,lon,type
[R]Cafe,кофейня,Кофейни,"1-я Тверская-Ямская улица, 2 ст1",,127006.0,Тверской,Москва,Москва,,,55.769793,37.596869,branch
#coffeepie,кофейня,Кофейни; Кондитерские изделия,"Наличная улица, 3",1 этаж,111020.0,Лефортово,Москва,Москва,3.4,34.0,55.764633,37.704269,branch
#Воблакевкуса,кафе быстрого питания,Кофейни,"улица Сергия Радонежского, 9 ст1",1 этаж,105120.0,Таганский,Москва,Москва,3.9,7.0,55.747234,37.675259,branch
1554,кофейня,Кофейни,"Новослободская улица, 50/1 ст1",1 этаж,127055.0,Тверской,Москва,Москва,3.9,23.0,55.786577,37.595108,branch
18 грамм,кофейня,Кофейни,"Шелепихинская набережная, 34 к2",1 этаж; лавка Редиска,123290.0,Хорошёво-Мнёвники,Москва,Москва,5.0,3.0,55.7627,37.509539,branch
1826,кофейня,Кофейни,"Дубининская улица, 70",4 этаж,115054.0,Даниловский,Москва,Москва,1.2,2.0,55.721121,37.635232,branch
2 bulki,пекарня,Кофейни; Пекарни,"Гжельский переулок, 14",,105120.0,Таганский,Москва,Москва,4.8,18.0,55.747903,37.677319,branch
2/7,кофейня,Кофейни,"Чистопрудный бульвар, 7/2",1 этаж,101000.0,Басманный,Москва,Москва,5.0,1.0,55.763494,37.642986,branch
2046,кофейня,Кофейни; Доставка еды,"Смоленский бульвар, 7/9",1 этаж,119121.0,Хамовники,Москва,Москва,4.6,53.0,55.740796,37.583811,branch
2morrow,кофейня,Кофейни; Продажа кофе,"Бауманская улица, 11 ст10",8 помещение,105005.0,Басманный,Москва,Москва,5.0,7.0,55.776357,37.677268,branch
302-бис,буфет,Кофейни,"Большая Садовая улица, 10",2 этаж,123001.0,Пресненский,Москва,Москва,4.8,2.0,55.767184,37.59363,branch
4 Элемента Кофе,кофейня,Кофейни,"Николоямская улица, 1",1 этаж,109240.0,Таганский,Москва,Москва,4.9,61.0,55.748559,37.648311,branch
9 Bar Coffee,кофейня,Кофейни,"Дербеневская набережная, 11 к В",Б блок; 1 этаж,115114.0,Даниловский,Москва,Москва,4.4,3.0,55.721119,37.652405,branch
9 Bar Coffee,кофейня,Кофейни,"Космодамианская набережная, 52 ст1",1 этаж,115035.0,Замоскворечье,Москва,Москва,4.1,10.0,55.732209,37.647067,branch
9 Bar Coffee,кофейня,Кофейни; Кулинарии; Продажа кофе,"Боровая улица, 10 к1",1 этаж,111020.0,Лефортово,Москва,Москва,4.8,13.0,55.771523,37.713882,branch
92 градуса,кофейня,Кофейни,"Волгоградский проспект, 32 к2",при входе сразу налево,109316.0,Южнопортовый,Москва,Москва,,,55.724056,37.689739,branch
A-House Cafe,,Кофейни,"Большой Афанасьевский переулок, 20",2 этаж,119019.0,Арбат,Москва,Москва,4.4,3.0,55.748397,37.597604,branch
Abc Coffee Roasters,кофейня,Кофейни,"2-я Звенигородская улица, 12 ст1",,123100.0,Пресненский,Москва,Москва,3.9,8.0,55.762641,37.557731,branch
Abc Coffee Roasters,кофейня,Кофейни,"улица Усачёва, 11и",1 этаж,119048.0,Хамовники,Москва,Москва,4.8,68.0,55.727435,37.570394,branch
Abc Coffee Roasters,кофейня,Кофейни; Доставка еды,"Пресненская набережная, 6 ст2",1 этаж,123112.0,Пресненский,Москва,Москва,4.2,10.0,55.748107,37.540884,branch
Abc Coffee Roasters,кофейня,Кофейни,"Милютинский переулок, 3",1 этаж,101000.0,Красносельский,Москва,Москва,4.5,66.0,55.761267,37.631647,branch
Abc Coffee Roasters,кофейня,Кофейни,"Ордынский тупик, 4а",,119017.0,Якиманка,Москва,Москва,4.6,149.0,55.741119,37.623498,branch
Abc Coffee Roasters,кофейня,Кофейни,"Большая Никитская улица, 19/16 ст1-2",1 этаж,125009.0,Пресненский,Москва,Москва,4.7,104.0,55.75716,37.600649,branch
Abc Coffee Roasters,кофейня,Кофейни,"улица Покровка, 7/9-11 ст1",1 этаж,101000.0,Басманный,Москва,Москва,4.6,78.0,55.759035,37.642269,branch
Afrozodiac,,Кофейни,"Большая Бронная улица, 25 ст3",,123104.0,Пресненский,Москва,Москва,,,55.76367,37.601923,branch
Air coffee,кофейня,Кофейни; Доставка еды,"Балакиревский переулок, 23",1 этаж,105082.0,Басманный,Москва,Москва,4.7,13.0,55.77828,37.689095,branch
Amov,кофейня,Кофейни,"улица Казакова, 7",1 этаж,105064.0,Басманный,Москва,Москва,4.5,10.0,55.763392,37.660071,branch
Amy cafe,кофейня,Кофейни,"1-й Красногвардейский проезд, 22 ст1",1 этаж,123317.0,Пресненский,Москва,Москва,2.0,1.0,55.751332,37.533962,branch
Andy coffee,кофейня,Кофейни,"Новорязанская улица, 18 ст13",1 этаж; ограниченный доступ,107078.0,Красносельский,Москва,Москва,,,55.770318,37.66063,branch
Andy coffee,кофейня,Быстрое питание; Точки кофе,"Новорязанская улица, 18 ст2",1 этаж,107078.0,Красносельский,Москва,Москва,4.6,11.0,55.772189,37.662178,branch
Antiпа,трапезная,Кофейни,"Колымажный переулок, 8/4 ст7",,119019.0,Хамовники,Москва,Москва,4.1,110.0,55.747786,37.605659,branch
Aqua cafe,кофейня,Кофейни; Кафе; Доставка еды,"улица Лужники, 24 ст4",1 этаж; Вход 2,119048.0,Хамовники,Москва,Москва,4.9,203.0,55.712523,37.559273,branch
Aqua coffee,экспресс-кофейня,Быстрое питание; Точки кофе,"улица Лужники, 24 ст4",1 этаж,119048.0,Хамовники,Москва,Москва,,,55.712523,37.559273,branch
Are,,Кофейни,"улица Покровка, 2/1 ст1",1 этаж,101000.0,Басманный,Москва,Москва,4.2,15.0,55.758305,37.639682,branch
Aspeen coffee,кофейня,Кофейни,"Русаковская улица, 13",,107140.0,Красносельский,Москва,Москва,,,55.784185,37.673868,branch
Aspeen coffee,кофейня,Кофейни,"Малая Почтовая улица, 8 ст3",напротив Lafferia,105082.0,Басманный,Москва,Москва,4.8,4.0,55.771427,37.686372,branch
Atelier de tartelettes,французская кондитерская,Кофейни; Кафе-кондитерские; Доставка еды; Кондитерские изделия,"Спиридоньевский переулок, 10а",1 этаж,123104.0,Пресненский,Москва,Москва,4.6,53.0,55.762706,37.595805,branch
Bageatteria,кофейня,Кофейни; Кондитерские изделия,"Смоленская площадь, 5",-1 этаж,121099.0,Арбат,Москва,Москва,3.6,8.0,55.748273,37.58154,branch
Bageatteria,кофейня,Кофейни; Кондитерские изделия; Продажа кофе; Доставка еды,"Лесная улица, 20 ст3",76 отдел; 1 этаж; вход около шлагбаума,125196.0,Тверской,Москва,Москва,3.4,16.0,55.779726,37.592938,branch
Baked Coffeeshop,кофейня,Кофейни,"Большая Спасская улица, 35",1 этаж,129090.0,Красносельский,Москва,Москва,4.4,11.0,55.77689,37.646719,branch
Baron Baran,кофейня,Быстрое питание; Точки кофе; Кондитерские изделия,"Тверская улица, 25/9",,125009.0,Тверской,Москва,Москва,4.5,4.0,55.767358,37.600194,branch
Beautiful flavors,кофейня,Кофейни,"Новослободская улица, 19 ст1",1 этаж,127055.0,Тверской,Москва,Москва,5.0,11.0,55.780955,37.59928,branch
Bez Tarelok,кафе,Кофейни; Кулинарии,"Верхняя Радищевская улица, 21",1 этаж,109240.0,Таганский,Москва,Москва,4.9,19.0,55.742878,37.653565,branch
Bez Tarelok,кафе,Кофейни,"улица Покровка, 10 ст1",1 этаж,101000.0,Басманный,Москва,Москва,4.7,26.0,55.758964,37.643387,branch
Bez Tarelok,кафе,Кофейни; Кулинарии,"Новинский бульвар, 31",1 этаж,123242.0,Пресненский,Москва,Москва,4.9,19.0,55.757559,37.582718,branch
Bez Tarelok,кафе,Кофейни; Кулинарии; Доставка еды,"улица Усачёва, 26",-1 этаж,119048.0,Хамовники,Москва,Москва,5.0,14.0,55.727557,37.567383,branch
Bitter drop,кофейня,Кофейни,"Большая Сухаревская площадь, 16/18 ст1",1 этаж,107045.0,Красносельский,Москва,Москва,4.9,17.0,55.771736,37.637302,branch
Bitter drop,кофейня,Кофейни; Доставка еды,"Нижняя Сыромятническая улица, 10 ст4",1 этаж,105120.0,Басманный,Москва,Москва,4.6,41.0,55.75225,37.670436,branch
Black milk,кофейня,Кофейни,"Старосадский переулок, 6/12 ст1",1 этаж,101000.0,Басманный,Москва,Москва,4.8,15.0,55.756668,37.639361,branch
Black milk,кофейня,Кофейни,"Малый Сухаревский переулок, 9 ст1",1 этаж,127051.0,Мещанский,Москва,Москва,4.9,35.0,55.770485,37.624267,branch
Black milk,кофейня,Кофейни,"Чистопрудный бульвар, 12 к4",1 этаж,101000.0,Басманный,Москва,Москва,4.8,52.0,55.762121,37.642627,branch
BlackOut,кофейня-музей,Кофейни; Кондитерские изделия,"улица Арбат, 17",1 этаж,119002.0,Арбат,Москва,Москва,5.0,83.0,55.751073,37.596638,branch
Blisstoriya,кофейня,Кофейни,"Можайский Вал улица, 2",1 этаж,121151.0,Дорогомилово,Москва,Москва,,,55.746021,37.556521,branch
Bloom coffee & more,кофейня-пекарня,Кофейни,"Маргелова улица, 3 к3",,125284.0,Хорошёвский,Москва,Москва,5.0,7.0,55.777507,37.540825,branch
Bloom-n-brew,кофейня,Кофейни; Продажа кофе; Кондитерские изделия,"Краснопролетарская улица, 16",1 этаж,127473.0,Тверской,Москва,Москва,4.6,33.0,55.777767,37.606822,branch
Bloom-n-brew,кофейня,Кофейни; Кондитерские изделия,"Вятская улица, 27 к2",1 этаж,127015.0,Савёловский,Москва,Москва,4.1,63.0,55.7968,37.581906,branch
Bloom-n-brew,кофейня,Кофейни,"Нижняя Красносельская улица, 35 ст50",1 этаж,105066.0,Басманный,Москва,Москва,4.5,47.0,55.774688,37.673318,branch
Bo food,кофейня,Кофейни,"Боровая улица, 10 к1",1 этаж,111020.0,Лефортово,Москва,Москва,5.0,1.0,55.77136,37.713986,branch
Bodrero,кондитерская,Кофейни; Кондитерские изделия; Кафе-кондитерские,"улица Сретенка, 9",1 этаж,107045.0,Мещанский,Москва,Москва,4.6,151.0,55.767625,37.631539,branch
Bódro,экспресс-кофейня,Кофейни,"Валовая улица, 35",,115054.0,Замоскворечье,Москва,Москва,5.0,2.0,55.729573,37.626121,branch
Bodro Coffee,экспресс-кофейня,Кофейни,"Кутузовский проспект, 36 ст32",,121170.0,Дорогомилово,Москва,Москва,4.3,12.0,55.740507,37.525345,branch
Bodro Coffee,экспресс-кофейня,Кофейни,"Дербеневская набережная, 7 ст2",1 этаж,115114.0,Даниловский,Москва,Москва,5.0,3.0,55.72318,37.65513,branch
Bodro Coffee,экспресс-кофейня,Быстрое питание; Точки кофе,"Пресненская набережная, 10 ст2",-1 этаж,123112.0,Пресненский,Москва,Москва,5.0,20.0,55.747509,37.535161,branch
Bodro Coffee,экспресс-кофейня,Кофейни,"Ленинский проспект, 2а",1 этаж,119049.0,Якиманка,Москва,Москва,4.7,111.0,55.729024,37.611467,branch
Bodro Coffee,экспресс-кофейня,Быстрое питание; Точки кофе,"Манежная площадь, 1 ст2",-1 этаж,125009.0,Тверской,Москва,Москва,4.8,74.0,55.756821,37.615313,branch
Bollo,городская кофейня,Кофейни,"Васильевская улица, 2 к1",1 этаж,123056.0,Пресненский,Москва,Москва,4.2,39.0,55.770028,37.585474,branch
Boring coffee,,Кофейни,"Кутузовский проспект, 32 к Е",,121170.0,Дорогомилово,Москва,Москва,,,55.741332,37.530975,branch
Breaddy,кафе,Кофейни; Кафе; Кондитерские изделия,"Поварская улица, 8/1 к1",1 этаж,121069.0,Арбат,Москва,Москва,,,55.753911,37.599056,branch
Breakfast,кафе,Кофейни; Кафе-кондитерские,"Малая Никитская улица, 2/1 ст1",1 этаж,121069.0,Пресненский,Москва,Москва,4.2,70.0,55.757911,37.597318,branch
Bubble Coffee,,Кофейни,"Большая Никитская улица, 24/1",1 этаж,125009.0,Пресненский,Москва,Москва,,,55.7572,37.601784,branch
Budil`nik,кофейня,Кофейни,"Кутузовский проспект, 27",,121165.0,Дорогомилово,Москва,Москва,4.8,7.0,55.74375,37.546126,branch
Cafe et croissan,кофейня,Кофейни,"Краснопресненская набережная, 14а к1",,123100.0,Пресненский,Москва,Москва,3.7,3.0,55.751108,37.549647,branch
Caffe Diemme,кофейня,Кофейни; Продажа кофе,"Смоленский бульвар, 3-5 ст1Б",,119121.0,Хамовники,Москва,Москва,5.0,1.0,55.739904,37.584338,branch
Caffe Diemme,кофейня,Кофейни; Продажа кофе,"3-я Фрунзенская улица, 1",1 этаж,119270.0,Хамовники,Москва,Москва,4.2,41.0,55.719035,37.582107,branch
Caffe Pascucci Bio,кофейня,Кофейни,"Самокатная улица, 4 ст7",1 этаж,111033.0,Лефортово,Москва,Москва,4.7,11.0,55.756819,37.678934,branch
Caffetteria,кафе,Кофейни,"Киевская улица, 2",1 этаж,121059.0,Дорогомилово,Москва,Москва,3.3,3.0,55.743478,37.562762,branch
Check point,кофейня,Быстрое питание; Точки кофе,"Шарикоподшипниковская улица, 13 ст46",,115088.0,Южнопортовый,Москва,Москва,,,55.721782,37.685067,branch
Chill coffee,экспресс-кофейня,Быстрое питание; Точки кофе,"Нижегородская улица, 32 ст15",1 этаж,109029.0,Таганский,Москва,Москва,5.0,1.0,55.736523,37.694852,branch
chill. tea&drinks,кофейня,Кофейни,"Краснопрудная улица, 22/24",,107140.0,Красносельский,Москва,Москва,5.0,5.0,55.778433,37.664418,branch
Cinnabon,кафе-пекарня,Кофейни,"улица Покровка, 14/2 ст1",цокольный этаж,101000.0,Басманный,Москва,Москва,1.1,57.0,55.759144,37.644996,branch
Clever,кофейня,Кофейни; Студии загара,"улица Тимура Фрунзе, 36/5",1 этаж,119021.0,Хамовники,Москва,Москва,4.8,8.0,55.737441,37.584632,branch
Clever,кофейня,Кофейни; Доставка еды,"Люсиновская улица, 36 ст1",1 этаж,115093.0,Замоскворечье,Москва,Москва,5.0,3.0,55.723469,37.621237,branch
Clever coffee,кофейня с выпечкой,Кофейни,"Уланский переулок, 23",1 этаж,107045.0,Красносельский,Москва,Москва,4.9,47.0,55.77027,37.641636,branch
Cobalt Coffee,кофейня,Кофейни,"Донская улица, 14",1 этаж,119049.0,Якиманка,Москва,Москва,4.5,21.0,55.722333,37.606253,branch
Cofan,кофейня,Кофейни; Доставка еды,"Новая Басманная улица, 19 ст1",1 этаж,107078.0,Красносельский,Москва,Москва,4.6,62.0,55.769821,37.659563,branch
CofeFest,экспресс-кофейня,Кофейни; Кондитерские изделия,"улица Фадеева, 8",1 этаж,125047.0,Тверской,Москва,Москва,,,55.775559,37.59752,branch
CofeFest,экспресс-кофейня,Кофейни; Кулинарии; Кондитерские изделия,"Большой Николопесковский переулок, 4 ст1",ГП № 68,119002.0,Арбат,Москва,Москва,,,55.750295,37.590806,branch
CofeFest,экспресс-кофейня,Кофейни; Кондитерские изделия; Пекарни,"улица Малая Якиманка, 22 ст1",около 101 кабинета,119180.0,Якиманка,Москва,Москва,2.0,1.0,55.73812,37.616669,branch
CofeFest,экспресс-кофейня,Кофейни; Кулинарии; Кафе-кондитерские,"улица Антонова-Овсеенко, 8",1 этаж; يمين крыло,123317.0,Пресненский,Москва,Москва,,,55.757865,37.536035,branch
CofeFest,экспресс-кофейня,Кофейни; Кондитерские изделия; Пекарни,"Смоленский бульвар, 24 ст4",,119002.0,Хамовники,Москва,Москва,2.3,3.0,55.743181,37.586361,branch
CofeFest,экспресс-кофейня,Кофейни; Кондитерские изделия; Пекарни,"Большой Козловский переулок, 9",1 этаж,107078.0,Басманный,Москва,Москва,,,55.766941,37.647467,branch
CofeFest,экспресс-кофейня,Кофейни; Кондитерские изделия,"Ольховская улица, 35 ст1",1 этаж,105066.0,Красносельский,Москва,Москва,4.0,4.0,55.777236,37.672742,branch
CofeFest,экспресс-кофейня,Кофейни; Кондитерские изделия,"улица Лестева, 5",1 этаж,115191.0,Даниловский,Москва,Москва,5.0,1.0,55.71447,37.617153,branch
CofeFest,экспресс-кофейня,Кофейни; Кондитерские изделия,"1-я Квесисская улица, 8/10",,127015.0,Савёловский,Москва,Москва,5.0,1.0,55.794056,37.581578,branch
CofeFest,экспресс-кофейня,Кофейни; Кондитерские изделия; Пекарни,"Вятская улица, 37",,127015.0,Савёловский,Москва,Москва,4.0,3.0,55.798983,37.580806,branch
CofeFest,экспресс-кофейня,Кофейни; Кондитерские изделия,"Сибирский проезд, 1 ст1",1 этаж; детская поликлиника №104,109029.0,Таганский,Москва,Москва,3.1,4.0,55.733597,37.680636,branch
CofeFest,экспресс-кофейня,Кофейни; Кондитерские изделия,"Иерусалимская улица, 4 к1",1 этаж,109316.0,Таганский,Москва,Москва,4.3,7.0,55.733007,37.67617,branch
CofeFest,экспресс-кофейня,Кофейни; Кондитерские изделия,"улица Матросская Тишина, 14",1 этаж; справа от входа,107076.0,Сокольники,Москва,Москва,3.8,3.0,55.789793,37.694698,branch
CofeFest,экспресс-кофейня,Кофейни; Кондитерские изделия; Пекарни,"Сверчков переулок, 5 ст2",1 этаж; Консультативно-диагностическая поликлиника,101000.0,Басманный,Москва,Москва,5.0,2.0,55.760943,37.640415,branch
CofeFest,экспресс-кофейня,Кофейни; Кондитерские изделия,"улица Плющиха, 42 с1",1 этаж,119121.0,Хамовники,Москва,Москва,4.0,3.0,55.740721,37.57527,branch
CofeFest,экспресс-кофейня,Кофейни; Кондитерские изделия; Пекарни,"Успенский переулок, 8",1 этаж,127006.0,Тверской,Москва,Москва,5.0,2.0,55.768679,37.60778,branch
CofeFest,экспресс-кофейня,Кофейни; Кондитерские изделия,"Проточный переулок, 3-5 ст1",1 этаж,121099.0,Арбат,Москва,Москва,5.0,2.0,55.750181,37.581305,branch
CofeFest,экспресс-кофейня,Кофейни; Кондитерские изделия,"Береговой проезд, 5а к1",1 этаж,121087.0,Филёвский парк,Москва,Москва,4.4,8.0,55.754998,37.50898,branch
CofeFest,экспресс-кофейня,Кофейни; Кондитерские изделия,"Яузская улица, 11/6 к5","4, 5 корпус; 1 этаж",109004.0,Таганский,Москва,Москва,5.0,7.0,55.745971,37.652275,branch
CofeFest,экспресс-кофейня,Кофейни; Кондитерские изделия; Пекарни,"Большой Саввинский переулок, 12 ст16",1 этаж; 7 подъезд,119435.0,Хамовники,Москва,Москва,3.0,3.0,55.731275,37.561254,branch
CofeFest,экспресс-кофейня,Кофейни; Кондитерские изделия,"Яузская улица, 11/6 к4",1 этаж,109240.0,Таганский,Москва,Москва,4.8,23.0,55.746201,37.650532,branch
Coffee,кофейня,Кофейни,"Комсомольская площадь, 5",1 этаж,107140.0,Красносельский,Москва,Москва,4.6,129.0,55.77626,37.657058,branch
Coffee,кофейня,Кофейни,"площадь Тверская Застава, 7",1 этаж,125047.0,Тверской,Москва,Москва,4.8,138.0,55.776155,37.581765,branch
Coffee,кофейня,Кофейни,"Душинская улица, 7 ст1",1 этаж,111024.0,Лефортово,Москва,Москва,4.4,17.0,55.74525,37.706002,branch
Coffee & kitchen,кофейня,Быстрое питание; Точки кофе,"1-я Дубровская улица, 13а ст2",1 этаж; за линией турникетов,115088.0,Южнопортовый,Москва,Москва,,,55.724336,37.673514,branch
Coffee 42,кофейня,Кофейни,"Багратионовский проезд, 1а к1",1 этаж,121087.0,Филёвский парк,Москва,Москва,4.7,13.0,55.745989,37.513286,branch
Coffee bean,кофейня,Кофейни; Доставка еды,"Пресненская набережная, 6 ст2",1 этаж,123112.0,Пресненский,Москва,Москва,4.4,25.0,55.748183,37.539735,branch
Coffee bean,кофейня,Кофейни; Кондитерские изделия; Доставка еды; Продажа кофе,"Долгоруковская улица, 39/6",1 этаж,127006.0,Тверской,Москва,Москва,4.7,41.0,55.778751,37.600557,branch
Coffee bean,кофейня,Кофейни; Доставка еды,"Пятницкая улица, 5 ст1",1 этаж,115035.0,Замоскворечье,Москва,Москва,4.4,76.0,55.745216,37.627263,branch
Coffee Berry,кофейня,Кофейни,"Павловская улица, вл7",1 этаж,115093.0,Даниловский,Москва,Москва,5.0,28.0,55.719596,37.627905,branch
Coffee berry,экспресс-кофейня,Быстрое питание; Точки кофе,"Ленинский проспект, 15",1 этаж,119071.0,Донской,Москва,Москва,4.7,13.0,55.720541,37.600506,branch
Coffee Break,экспресс-кофейня,Быстрое питание; Точки кофе,"Благовещенский переулок, 6 ст1",3 этаж,123001.0,Тверской,Москва,Москва,,,55.766722,37.597228,branch
Coffee buro,кофейня,Кофейни; Доставка еды,"Славянская площадь, 2/5/4 ст3",1 этаж,109012.0,Таганский,Москва,Москва,4.6,164.0,55.753324,37.633896,branch
Coffee first,кофейня,Кофейни,"улица Крымский Вал, 8",1 этаж,119049.0,Якиманка,Москва,Москва,4.8,51.0,55.731414,37.608681,branch
Coffee frisbee,кофейня,Кофейни,"4-й Сыромятнический переулок, 1/8 ст9","1, 2 этаж",105120.0,Басманный,Москва,Москва,4.2,41.0,55.756109,37.66549,branch
Coffee gourmet,кофейня,Кофейни,"Никольская улица, 11-13 ст1",1 этаж,109012.0,Тверской,Москва,Москва,4.9,630.0,55.756845,37.621888,branch
Coffee Kiss,,Кофейни,"Малая Бронная улица, 28",,123001.0,Пресненский,Москва,Москва,4.2,16.0,55.763577,37.594216,branch
Coffee Like,,Быстрое питание; Точки кофе; Кондитерские изделия,"Береговой проезд, 5а к5",1 этаж,121087.0,Филёвский парк,Москва,Москва,5.0,15.0,55.755306,37.510963,branch
Coffee Like,,Кофейни; Кондитерские изделия,"Краснопрудная улица, 26/1",1 этаж,107140.0,Красносельский,Москва,Москва,4.9,30.0,55.779163,37.66709,branch
Coffee Like,,Быстрое питание; Точки кофе; Кондитерские изделия,"улица Красная Пресня, 2 соор 1",цокольный этаж,123242.0,Пресненский,Москва,Москва,4.9,66.0,55.760966,37.577616,branch
Coffee Like,,Быстрое питание; Точки кофе; Кондитерские изделия,"Сокольническая площадь, 4",1 этаж,107113.0,Сокольники,Москва,Москва,4.8,32.0,55.789683,37.678384,branch
Coffee Music,кофейня,Кофейни,"Большая Почтовая улица, 71",,105082.0,Басманный,Москва,Москва,,,55.780322,37.696602,branch
Coffee Nice,кофейня,Кофейни; Кондитерские изделия,"Старая Басманная улица, 6 ст3",1 этаж,105064.0,Басманный,Москва,Москва,5.0,3.0,55.764508,37.657934,branch
Coffee orom,кофейня,Кофейни,"улица Сущёвский Вал, 46 ст1",,127018.0,Марьина Роща,Москва,Москва,4.2,12.0,55.792729,37.611944,branch
Coffee Point,экспресс-кофейня,Кофейни,"Каланчёвская улица, 29 ст2",,107078.0,Красносельский,Москва,Москва,1.0,1.0,55.775811,37.649724,branch
Coffee Point,экспресс-кофейня,Кофейни,"Оружейный переулок, 19",,125047.0,Тверской,Москва,Москва,,,55.773073,37.599775,branch
Coffee Point,экспресс-кофейня,Кофейни,"Летниковская улица, 2 ст2а",,115114.0,Замоскворечье,Москва,Москва,4.5,15.0,55.728842,37.644059,branch
Coffee Point,экспресс-кофейня,Быстрое питание; Точки кофе,"Цветной бульвар, 2",1 этаж; А подъезд,127051.0,Мещанский,Москва,Москва,,,55.767729,37.623159,branch
Coffee S,экспресс-кофейня,Быстрое питание; Точки кофе,"2-я Звенигородская улица, 13 ст41",1 этаж,123022.0,Пресненский,Москва,Москва,,,55.761244,37.552712,branch
Coffee T-Rex,кофейня,Кофейни,"Новорязанская улица, 16/11 ст1",,107078.0,Красносельский,Москва,Москва,5.0,2.0,55.772293,37.660432,branch
Coffee talks,Кофейня,Кофейни,"улица Бахрушина, 32 к1",1 этаж,115054.0,Замоскворечье,Москва,Москва,,,55.73198,37.637308,branch
Coffee Talks,кофейня,Кофейни,"1-й Вражский переулок, 4",,119121.0,Хамовники,Москва,Москва,5.0,1.0,55.739795,37.574589,branch
Coffee Way,кофейня,Кофейни; Кафе; Продажа кофе,"улица Сущёвский Вал, 49 ст2Б",,127018.0,Марьина Роща,Москва,Москва,5.0,5.0,55.793534,37.610838,branch
Coffee&cake,кофейня,Кофейни,"улица Сущёвский Вал, 49 ст2Б",1 этаж,127018.0,Марьина Роща,Москва,Москва,4.5,8.0,55.794071,37.610546,branch
Coffee&Nik,кофейня,Кофейни,"Шлюзовая набережная, 8 ст1",1 этаж,115114.0,Замоскворечье,Москва,Москва,5.0,5.0,55.730414,37.647705,branch
Coffeebrain,экспресс-кофейня,Кофейни; Продажа кофе; Доставка еды,"Сретенский бульвар, 7/1",1 этаж,107045.0,Красносельский,Москва,Москва,4.3,34.0,55.766785,37.634551,branch
Coffeekaldi`s,кофейня,Быстрое питание; Точки кофе; Точки безалкогольных напитков,"Мантулинская улица, вл5 ст1",,123100.0,Пресненский,Москва,Москва,5.0,1.0,55.754954,37.551661,branch
Coffeekaldi`s,кофейня,Кофейни; Доставка еды,"Мантулинская улица, вл5 ст2",,123100.0,Пресненский,Москва,Москва,4.4,14.0,55.754766,37.551082,branch
Coffeelovka,кофейня,Кофейни,"улица Двинцев, 12 к1 блок С",1 этаж,127018.0,Марьина Роща,Москва,Москва,1.0,1.0,55.796336,37.600688,branch
Coffeeshop Company,,Кофейни,"шоссе Энтузиастов, 3 к2",,111033.0,Лефортово,Москва,Москва,4.4,7.0,55.748014,37.692811,branch
Coffeeshop company,венская кофейня,Кофейни,"Новослободская улица, 23","1, 2 этаж",127055.0,Тверской,Москва,Москва,4.7,45.0,55.781815,37.598504,branch
Coffeeshop company,венская кофейня,Кофейни; Доставка еды,"площадь Киевского вокзала, 2",2 этаж,121059.0,Дорогомилово,Москва,Москва,4.6,352.0,55.744406,37.566785,branch
Coffeeshop company,венская кофейня,Кофейни,"Лаврушинский переулок, 17 ст2",,119017.0,Якиманка,Москва,Москва,3.7,267.0,55.741049,37.622659,branch
Cometodeema,кофейня,Кофейни,"Татарская улица, 14",1 этаж,115054.0,Замоскворечье,Москва,Москва,4.8,19.0,55.733642,37.637976,branch
Core bistro,,Кофейни,"1-й Тверской-Ямской переулок, 11",1 этаж,125047.0,Тверской,Москва,Москва,,,55.773071,37.597411,branch
Cosmic Latte,кофейня,Кофейни,"Якиманский переулок, 6 ст1",1 этаж,119049.0,Якиманка,Москва,Москва,4.6,74.0,55.733347,37.610094,branch
Cosmic Latte,кофейня,Кофейни,"улица Заморёнова, 12 ст1",1 этаж,123242.0,Пресненский,Москва,Москва,4.6,46.0,55.759617,37.573511,branch
Cosmic Latte,кофейня,Кофейни,"Ходынская улица, 2",1 этаж,123022.0,Пресненский,Москва,Москва,4.5,20.0,55.770313,37.565098,branch
Cosmic Latte,кофейня,Кофейни,"улица Новый Арбат, 21",2 этаж; центр Hyundai motorstudio,119019.0,Арбат,Москва,Москва,4.8,32.0,55.7522,37.584634,branch
Cream soda,кофейня,Кофейни; Доставка еды,"Лесная улица, 5",1 этаж,125196.0,Тверской,Москва,Москва,4.3,50.0,55.777614,37.586887,branch
Cream soda,кофейня,Кофейни; Доставка еды,"Мясницкая улица, 15","1, 2 этаж",101000.0,Красносельский,Москва,Москва,4.5,204.0,55.763068,37.635141,branch
CrmblBrd,кондитерская,Кофейни; Кондитерские изделия,"улица Крымский Вал, 6",1 этаж,119049.0,Якиманка,Москва,Москва,5.0,3.0,55.730824,37.610439,branch
Croissant Atelier,кофейня,Кофейни,"улица Большая Дмитровка, 23 ст1",,125375.0,Тверской,Москва,Москва,,,55.76579,37.61013,branch
Croissant Atelier,кофейня,Кофейни,"Климентовский переулок, 9/1",2 этаж,119017.0,Замоскворечье,Москва,Москва,5.0,3.0,55.740848,37.626169,branch
Croissant Atelier,кофейня,Кофейни,"Новослободская улица, 16",,127055.0,Тверской,Москва,Москва,4.7,15.0,55.781802,37.599089,branch
Crosby Coffee,кофейня,Кофейни; Продажа кофе,"Октябрьская улица, 103 ст4",,127521.0,Марьина Роща,Москва,Москва,5.0,9.0,55.79847,37.611747,branch
Cups&hugs,кофейня,Кофейни; Доставка еды,"Орликов переулок, 6",цокольный этаж,107078.0,Красносельский,Москва,Москва,3.2,16.0,55.771141,37.648557,branch
Cuteam,кофейня,Кофейни,"шоссе Энтузиастов, 3 к1",,111033.0,Лефортово,Москва,Москва,5.0,3.0,55.748209,37.689681,branch
Daily Green,кофейня,Кофейни; Кондитерские изделия,"Руновский переулок, 5 ст1",1 этаж,115184.0,Замоскворечье,Москва,Москва,4.8,158.0,55.742746,37.634843,branch
Dalev,кофейня,Кофейни,"улица Гиляровского, 48",,129110.0,Мещанский,Москва,Москва,5.0,1.0,55.784817,37.633269,branch
Dandi coffee,кофейня,Кофейни,"Большая Серпуховская улица, 46 ст34",1 этаж,115093.0,Замоскворечье,Москва,Москва,4.0,3.0,55.722105,37.624375,branch
David B,кофейня,Кофейни,"Большой Палашёвский переулок, 8",1 этаж,123104.0,Пресненский,Москва,Москва,4.7,61.0,55.763988,37.598612,branch
Degtyarny,кофейня,Кофейни,"Дегтярный переулок, 5 ст1",1 этаж,127006.0,Тверской,Москва,Москва,4.8,22.0,55.768072,37.601882,branch
Do.Bro Coffee,,Кофейни; Кондитерские изделия,"улица Земляной Вал, 8",1 этаж,105064.0,Басманный,Москва,Москва,5.0,2.0,55.76211,37.656834,branch
Do.Bro Coffee,кофейня,Кофейни,"Большая Татарская улица, 20 ст2",,115184.0,Замоскворечье,Москва,Москва,,,55.740305,37.632665,branch
Dobryakova Bakery,кофейня,Кофейни; Кондитерские изделия,"Малый Кисловский переулок, 9 ст1",1 этаж,125009.0,Пресненский,Москва,Москва,4.1,17.0,55.7561,37.602579,branch
Dojo Сoffee,,Кофейни,"Новая Басманная улица, 31 ст1",,105066.0,Басманный,Москва,Москва,,,55.770207,37.665392,branch
Dominion,кофейня,Кофейни,"Шарикоподшипниковская улица, 5",1 этаж,115088.0,Южнопортовый,Москва,Москва,,,55.722445,37.667768,branch
Domino,буфет,Быстрое питание; Точки кофе,"улица Сущёвский Вал, 5 ст1а",1 этаж,127018.0,Марьина Роща,Москва,Москва,,,55.794211,37.592857,branch
Doza coffee&cake,кофейня,Кофейни; Кондитерские изделия,"улица Петровка, 30/7",,127006.0,Тверской,Москва,Москва,5.0,7.0,55.768038,37.614739,branch
Dream coffee,кафе,Кофейни; Кафе,"1-й Красногвардейский проезд, 15",-1 этаж,123112.0,Пресненский,Москва,Москва,4.6,8.0,55.750231,37.539675,branch
Drink point,экспресс-кофейня,Быстрое питание; Точки кофе,,за турникетами,107140.0,Красносельский,Москва,Москва,2.1,7.0,55.775124,37.652467,branch
Dsgn Mira,кофейня,Кофейни,"проспект Мира, 102 к1",1 этаж,129626.0,Алексеевский,Москва,Москва,5.0,2.0,55.800547,37.636669,branch
Element coffee,экспресс-кофейня,Кофейни,"2-я Брестская улица, 6",1 этаж; Element Coffee,125047.0,Тверской,Москва,Москва,5.0,2.0,55.770727,37.591206,branch
Element coffee,экспресс-кофейня,Кофейни; Продажа кофе; Кондитерские изделия,"1-й Самотёчный переулок, 2 ст2",напротив супермаркета Дикси,127473.0,Тверской,Москва,Москва,4.6,12.0,55.777011,37.615664,branch
Eleven Coffee,кофейня,Кофейни; Доставка еды,"Арбатская площадь, 14 ст1",1 этаж,119019.0,Арбат,Москва,Москва,4.6,54.0,55.75252,37.602351,branch
Empire Zone,кофейня,Кофейни; Косметика и парфюмерия,"Большая Садовая улица, 10",,123001.0,Пресненский,Москва,Москва,5.0,4.0,55.767231,37.593229,branch
Empire Zone,кофейня,Кофейни,"улица Кузнецкий Мост, 4/3 ст1",1 этаж,125009.0,Тверской,Москва,Москва,5.0,28.0,55.760884,37.61662,branch
Espressivo coffee,,Кофейни,"Таганская улица, 31/22",1 этаж,109147.0,Таганский,Москва,Москва,3.9,6.0,55.739513,37.670399,branch
Espressobar,,Кофейни,"Трубная площадь, 2",1 этаж,107031.0,Мещанский,Москва,Москва,5.0,9.0,55.766448,37.62354,branch
Evergreen,кофейня,Кофейни,"Мантулинская улица, 26",1 этаж,123100.0,Пресненский,Москва,Москва,4.6,12.0,55.756915,37.547638,branch
Every Food,кафе-магазин готовой еды,Кофейни; Кулинарии,"2-я Брестская улица, 8",1 этаж; за турникетами,125047.0,Тверской,Москва,Москва,5.0,1.0,55.77113,37.590577,branch
Express Cafe&Bar,лобби-бар,Быстрое питание; Точки кофе,"Дубининская улица, 33в",1 этаж,115054.0,Замоскворечье,Москва,Москва,5.0,8.0,55.725131,37.638881,branch
Eyes coffee,точка по продаже кофе,Кофейни,"Большая Серпуховская улица, 58",1 этаж,115093.0,Даниловский,Москва,Москва,4.8,9.0,55.720287,37.626345,branch
Fave coffee,кофейня,Кофейни,"Малая Пироговская улица, 13 ст3",,119435.0,Хамовники,Москва,Москва,5.0,2.0,55.728729,37.569673,branch
Fifth Avenue,дизайн-кафе,Кофейни; Книги; Керамические изделия; Сувениры,"Смоленская улица, 7",,119121.0,Хамовники,Москва,Москва,3.3,14.0,55.745171,37.577184,branch
Finch,кофейня,Кофейни,"Большая Серпуховская улица, 5",1 этаж,115093.0,Замоскворечье,Москва,Москва,4.7,124.0,55.728898,37.625708,branch
Fine,кофейня,Кофейни; Доставка еды; Продажа кофе,"улица Волхонка, 9 ст2",1 этаж,119019.0,Хамовники,Москва,Москва,4.6,56.0,55.747196,37.608004,branch
Flight Coffee,кофейня,Кофейни,"Рождественский бульвар, 5/7 ст1",1 этаж,107045.0,Мещанский,Москва,Москва,4.9,29.0,55.766907,37.62523,branch
Flip,кофейня,Кофейни,"Новодевичий проезд, 2",1 этаж,119435.0,Хамовники,Москва,Москва,4.5,31.0,55.728138,37.559913,branch
Floo,кофейня,Кофейни; Кондитерские изделия,"улица Гашека, 7 ст1",1 этаж,123056.0,Пресненский,Москва,Москва,4.7,31.0,55.768584,37.589147,branch
Floo mini,кофейня,Кофейни; Доставка еды,"Таганская улица, 24 ст1",цокольный этаж,109147.0,Таганский,Москва,Москва,4.7,16.0,55.740186,37.66167,branch
Flower Lab,студия цветов и кофейня,Кофейни; Цветы; Доставка цветов; Товары для праздников; Услуги по упаковке подарков,"Большая Филёвская улица, 3 к4",1 этаж,121087.0,Филёвский парк,Москва,Москва,4.9,58.0,55.747589,37.517959,branch
French bakery se Delice,французская пекарня,Кофейни; Хлебобулочные изделия; Пекарни,"Береговой проезд, 1Б",,121087.0,Филёвский парк,Москва,Москва,,,55.755392,37.514857,branch
French bakery se Delice,французская пекарня,Кофейни; Пекарни; Кафе-кондитерские,"Большая Почтовая улица, 32 к9",,105082.0,Басманный,Москва,Москва,,,55.779962,37.700327,branch
French bakery se Delice,французская пекарня,Кофейни; Пекарни; Кафе-кондитерские,"Новоостаповская улица, 7 к1",,115088.0,Южнопортовый,Москва,Москва,3.1,2.0,55.724084,37.682594,branch
French bakery se Delice,французская пекарня,Кофейни; Пекарни; Кафе-кондитерские,"Новослободская улица, 16",,127055.0,Тверской,Москва,Москва,,,55.781701,37.599138,branch
French bakery se Delice,французская пекарня,Кофейни; Пекарни; Кафе-кондитерские,"Бумажный проезд, 19",,127015.0,Беговой,Москва,Москва,,,55.789975,37.585906,branch
French bakery se Delice,французская пекарня,Кофейни; Кондитерские изделия; Хлебобулочные изделия,"Большая Филёвская улица, 4",,121087.0,Филёвский парк,Москва,Москва,4.5,2.0,55.754129,37.51094,branch
French bakery se Delice,французская пекарня,Кофейни,"улица Арбат, 20",,119002.0,Арбат,Москва,Москва,5.0,1.0,55.750253,37.593522,branch
French bakery se Delice,французская пекарня,Кофейни; Кафе-кондитерские; Пекарни,"Тверская улица, 9",1 этаж,125009.0,Тверской,Москва,Москва,3.2,3.0,55.759918,37.610641,branch
French bakery se Delice,французская пекарня,Кофейни; Пекарни; Кафе-кондитерские,"Бауманская улица, 47",,105005.0,Басманный,Москва,Москва,1.9,1.0,55.769327,37.679699,branch
French bakery se Delice,французская пекарня,Кофейни; Пекарни; Кафе-кондитерские,"Большая Филёвская улица, 3 к3",,121087.0,Филёвский парк,Москва,Москва,5.0,6.0,55.749349,37.516797,branch
French bakery se Delice,французская пекарня,Кофейни; Пекарни; Кафе-кондитерские,"Большая Семёновская улица, 17а",1 этаж,107023.0,Соколиная Гора,Москва,Москва,2.7,6.0,55.782943,37.706039,branch
French bakery se Delice,французская пекарня,Кофейни; Пекарни; Кафе-кондитерские,"Большая Татарская улица, 5",,115184.0,Замоскворечье,Москва,Москва,4.4,13.0,55.742439,37.631369,branch
French bakery se Delice,французская пекарня,Кофейни; Кондитерские изделия; Хлебобулочные изделия,"Грузинский Вал улица, 28/45",,123056.0,Пресненский,Москва,Москва,4.1,5.0,55.77504,37.583274,branch
French bakery se Delice,французская пекарня,Кофейни; Кафе-кондитерские,"улица Нижняя Масловка, 10",1 этаж,127220.0,Савёловский,Москва,Москва,3.0,7.0,55.792355,37.578122,branch
French bakery se Delice,французская пекарня,Кофейни; Кондитерские изделия,"Пресненская набережная, 2",1 этаж,123112.0,Пресненский,Москва,Москва,3.0,7.0,55.74834,37.537354,branch
French bakery se Delice,французская пекарня,Кофейни; Пекарни; Кондитерские изделия; Кафе-кондитерские,"2-я Брестская улица, 48",1 этаж,125047.0,Тверской,Москва,Москва,4.7,3.0,55.774623,37.584578,branch
French bakery se Delice,французская пекарня,Кофейни; Кафе-кондитерские,"Краснопрудная улица, вл12 ст1",1 этаж,107140.0,Красносельский,Москва,Москва,4.1,9.0,55.776925,37.661051,branch
French bakery se Delice,французская пекарня,Кофейни; Пекарни; Кафе-кондитерские,"Ленинский проспект, 37а",1 этаж,119334.0,Донской,Москва,Москва,2.8,9.0,55.709335,37.587823,branch
French bakery se Delice,французская пекарня,Кофейни; Кафе-кондитерские,"Большая Садовая улица, 6 ст2",1 этаж,123001.0,Пресненский,Москва,Москва,4.5,22.0,55.766477,37.59215,branch
French bakery se Delice,французская пекарня,Кофейни; Кафе-кондитерские,"Сретенский бульвар, 6/1 ст2",1 этаж,101000.0,Красносельский,Москва,Москва,3.9,9.0,55.765879,37.635344,branch
French bakery se Delice,французская пекарня,Кофейни; Пекарни; Кафе-кондитерские,"Новослободская улица, 10 ст1",1 этаж,127055.0,Тверской,Москва,Москва,2.9,11.0,55.780417,37.600242,branch
French bakery se Delice,французская пекарня,Кофейни; Пекарни; Кафе-кондитерские,"Бауманская улица, 32 ст2",1 этаж,105005.0,Басманный,Москва,Москва,4.4,43.0,55.772389,37.678323,branch
French bakery se Delice,французская пекарня,Кофейни; Пекарни; Кафе-кондитерские,"улица Большая Якиманка, 52",1 этаж,119049.0,Якиманка,Москва,Москва,4.6,30.0,55.731697,37.611745,branch
French bakery se Delice,французская пекарня,Кофейни; Пекарни; Кафе-кондитерские,"улица Зацепский Вал, 14","цокольный, 1 этаж",115054.0,Замоскворечье,Москва,Москва,3.8,37.0,55.731568,37.637291,branch
French bakery se Delice,французская пекарня,Кофейни; Пекарни; Кафе-кондитерские,"проспект Мира, 38",1 этаж,129090.0,Мещанский,Москва,Москва,4.4,22.0,55.779839,37.633533,branch
French bakery se Delice,французская пекарня,Кофейни; Пекарни; Кондитерские изделия,"Мясницкая улица, 30/1/2 ст1",1 этаж,101000.0,Басманный,Москва,Москва,4.4,102.0,55.76553,37.638639,branch
French bakery se Delice,французская пекарня,Кофейни; Пекарни; Кафе-кондитерские,"Новокузнецкая улица, 43/16 ст2",1 этаж,115054.0,Замоскворечье,Москва,Москва,4.7,46.0,55.731833,37.635846,branch
French bakery se Delice,французская пекарня,Кофейни; Пекарни; Кафе-кондитерские,"Цветной бульвар, 21 ст1",1 этаж,127051.0,Тверской,Москва,Москва,4.6,63.0,55.772232,37.620837,branch
French bakery se Delice,французская пекарня,Кофейни; Пекарни; Кафе-кондитерские,"Новослободская улица, 20",1 этаж,127055.0,Тверской,Москва,Москва,3.7,5.0,55.782174,37.598728,branch
French bakery se Delice,французская пекарня,Кофейни; Кафе-кондитерские,"Зубовский бульвар, 17",1 этаж,119021.0,Хамовники,Москва,Москва,4.7,58.0,55.736318,37.590879,branch
French bakery se Delice,французская пекарня,Кофейни; Пекарни; Кафе-кондитерские,"Пятницкая улица, 29",1 этаж,115184.0,Замоскворечье,Москва,Москва,4.5,96.0,55.740951,37.628708,branch
French bakery se Delice,французская пекарня,Кофейни; Пекарни; Кондитерские изделия,"улица Земляной Вал, 27",1 этаж,105064.0,Басманный,Москва,Москва,4.6,56.0,55.759246,37.658253,branch
French bakery se Delice,французская пекарня,Кофейни; Пекарни; Кафе-кондитерские,"улица Шаболовка, 30/12",1 этаж,115419.0,Донской,Москва,Москва,4.5,120.0,55.719402,37.608882,branch
French bakery se Delice,французская пекарня,Кофейни; Кафе-кондитерские; Хлебобулочные изделия,"улица Кузнецкий Мост, 18/7",1 этаж,107031.0,Мещанский,Москва,Москва,4.5,156.0,55.761955,37.623394,branch
French bakery se Delice,французская пекарня,Кофейни; Пекарни; Кафе-кондитерские,"Новослободская улица, 3",1 этаж,127055.0,Тверской,Москва,Москва,2.8,15.0,55.779209,37.600784,branch
French bakery se Delice,французская пекарня,Кофейни; Пекарни; Кафе-кондитерские,"Тверская улица, 17",1 этаж,125009.0,Тверской,Москва,Москва,3.1,57.0,55.763544,37.606633,branch
Friends social club,магазин-кофейня,Кофейни,"Кутузовский проспект, 1/7",1 этаж,121248.0,Дорогомилово,Москва,Москва,4.5,6.0,55.75,37.571463,branch
Funk,экспресс-кофейня,Кофейни,"Малая Семёновская улица, 28а ст19",1 этаж,107023.0,Соколиная Гора,Москва,Москва,5.0,6.0,55.784461,37.715183,branch
Gabo,кафе,Быстрое питание; Точки кофе,"Погодинская улица, 8",1 этаж,119121.0,Хамовники,Москва,Москва,4.6,25.0,55.733444,37.569159,branch
Galiuk coffee,кофейня,Кофейни,"улица Раевского, 3",1 этаж,121151.0,Дорогомилово,Москва,Москва,4.6,22.0,55.744912,37.553123,branch
GallaDance,кофейня,Кофейни,"Смоленская площадь, 3",4 этаж,121099.0,Арбат,Москва,Москва,5.0,1.0,55.747563,37.581349,branch
Glitch coffee,кофейня,Кофейни,"улица Сущёвский Вал, 49 ст2",1 этаж,127018.0,Марьина Роща,Москва,Москва,,,55.793352,37.612097,branch
Glitch coffee,кофейня,Кофейни,"Бумажный проезд, 19",1 этаж,127015.0,Беговой,Москва,Москва,,,55.79054,37.5861,branch
Glitch coffee,кофейня,Кофейни,"Береговой проезд, 5а к1",1 этаж,121087.0,Филёвский парк,Москва,Москва,,,55.755199,37.50946,branch
Glow subs&coffee,экспресс-кофейня,Быстрое питание; Точки кофе,,,119048.0,Хамовники,Москва,Москва,3.0,1.0,55.716518,37.556213,branch
Gog,хюгге-кофейня,Кофейни,"улица Машкова, 21",1 этаж,101000.0,Басманный,Москва,Москва,5.0,29.0,55.76471,37.653989,branch
Gog,хюгге-кофейня,Кофейни,"Яузская улица, 6 ст5",,109240.0,Таганский,Москва,Москва,4.7,69.0,55.747226,37.646723,branch
Grab&go,кофейня,Быстрое питание; Точки кофе; Доставка еды,"улица Правды, 24 ст3",1 этаж,125124.0,Беговой,Москва,Москва,5.0,1.0,55.788214,37.58285,branch
Granvillano,итальянское кафе-магазин,Кофейни; Доставка еды,"Октябрьская улица, 7",1 этаж,127018.0,Марьина Роща,Москва,Москва,4.1,2.0,55.785866,37.61369,branch
Gt. CoffeexEdomo,кофейня,Кофейни,"улица Плющиха, 37",в ēdomo,119121.0,Хамовники,Москва,Москва,3.5,4.0,55.741149,37.577372,branch
Gussi Coffee,кофейня,Кофейни; Доставка еды,"улица Маши Порываевой, 38",,107078.0,Красносельский,Москва,Москва,4.4,36.0,55.773825,37.649983,branch
Gustolife,кофейня,Кофейни; Кейтеринг,"Шарикоподшипниковская улица, 4 к1а",1 этаж,115088.0,Южнопортовый,Москва,Москва,4.7,11.0,55.721021,37.672779,branch
Here`n`now,кофейня,Кофейни; Доставка еды,"Большой Кисловский переулок, 1 ст2",1 этаж,125009.0,Арбат,Москва,Москва,4.2,7.0,55.753459,37.605656,branch
Here`n`now,кофейня,Кофейни,"Таганская улица, 17-23",1 этаж,109147.0,Таганский,Москва,Москва,4.9,8.0,55.740078,37.663574,branch
Here`n`now,кофейня,Кофейни,"Русаковская улица, 31",2 этаж,107113.0,Сокольники,Москва,Москва,4.0,19.0,55.788635,37.679342,branch
Here`n`now,кофейня,Кофейни,"2-й Сыромятнический переулок, 1",1 этаж,105120.0,Таганский,Москва,Москва,3.9,4.0,55.753824,37.661821,branch
Holi yoga&cafe,кафе,Кофейни; Кафе; Доставка еды; Кейтеринг,"улица Малая Ордынка, 19",1 этаж,119017.0,Замоскворечье,Москва,Москва,5.0,25.0,55.736763,37.625766,branch
Holy Berry,экспресс-кофейня,Быстрое питание; Точки кофе,"улица Измайловский Вал, 2",1 этаж,105318.0,Соколиная Гора,Москва,Москва,5.0,1.0,55.783682,37.719083,branch
Honey Coffee,экспресс-кофейня,Быстрое питание; Точки кофе,"Верхняя Красносельская улица, 3 к2",1 этаж,107140.0,Красносельский,Москва,Москва,5.0,1.0,55.785996,37.660757,branch
Hongdae,к-поп кафе,Кофейни,"Спартаковская площадь, 16/15 ст5",1 этаж,105082.0,Басманный,Москва,Москва,4.9,44.0,55.776181,37.678506,branch
Hq! Coffee,экспресс-кофейня,Кофейни,"Мантулинская улица, 9 к4",вход в кофейню снаружи жилого комплекса,123100.0,Пресненский,Москва,Москва,5.0,2.0,55.755059,37.543309,branch
Hq! Coffee,экспресс-кофейня,Кофейни; Кулинарии,"Грузинский переулок, 3а",2 корпус; 1 этаж,123056.0,Пресненский,Москва,Москва,3.8,4.0,55.771569,37.579966,branch
I love cake,ресторан,Кофейни; Кафе-кондитерские; Доставка еды,"Большой Патриарший переулок, 4",1 этаж,123001.0,Пресненский,Москва,Москва,4.7,315.0,55.762571,37.591986,branch
Impress cafe,кофейня,Кофейни,"Ленинградский проспект, 15 ст11",3 этаж,125040.0,Беговой,Москва,Москва,4.5,12.0,55.780268,37.570509,branch
It`s Cot,студия кофе,Кофейни,"Переведеновский переулок, 13 ст13",центральный вход,105082.0,Басманный,Москва,Москва,,,55.780482,37.689753,branch
Jeffrey`s,кофейня,Кофейни,"Большая Семёновская улица, 20",3 этаж,107023.0,Соколиная Гора,Москва,Москва,5.0,2.0,55.781597,37.704996,branch
Jeffrey`s coffee,тайм-кофейня,Кофейни; Антикафе; Коворкинг,"Ладожская улица, 8",2 этаж,105005.0,Басманный,Москва,Москва,4.4,17.0,55.771344,37.682765,branch
Jeffrey`s coffeeshop,кофейня,Кофейни; Продажа кофе; Кафе-кондитерские,"Ленинский проспект, 37а",1 этаж,119334.0,Донской,Москва,Москва,4.9,114.0,55.709264,37.587831,branch
Jeffrey`s сoffeeshop,кофейня,Кофейни,"Бумажный проезд, 4",1 этаж,125040.0,Беговой,Москва,Москва,4.3,7.0,55.787205,37.586542,branch
Jinju,кофейня,Кофейни,"переулок Столешников, 9 ст3",цокольный этаж,107031.0,Тверской,Москва,Москва,4.8,15.0,55.763333,37.614438,branch
Jinju,кофейня,Кофейни,"4-й Кожевнический переулок, 4",,115114.0,Даниловский,Москва,Москва,4.5,23.0,55.725212,37.649055,branch
Jinju,кофейня,Кофейни,"улица Макаренко, 9 ст1",1 этаж,101000.0,Басманный,Москва,Москва,4.2,37.0,55.761929,37.648638,branch
Jinju bubble tea,точка безалкогольных напитков,Кофейни,"Ладожская улица, 7",,105005.0,Басманный,Москва,Москва,4.7,16.0,55.771587,37.68264,branch
Jinju bubble tea,точка безалкогольных напитков,Кофейни,"улица Покровка, 9",справа от аптеки Трика,101000.0,Басманный,Москва,Москва,4.8,23.0,55.759102,37.642811,branch
Jinju bubble tea,точка безалкогольных напитков,Кофейни,"улица Земляной Вал, 23 ст1",1 этаж,105064.0,Басманный,Москва,Москва,4.1,10.0,55.760158,37.658241,branch
Jinju bubble tea,точка безалкогольных напитков,Кофейни,"Зубовский бульвар, 29",1 этаж,119021.0,Хамовники,Москва,Москва,4.8,33.0,55.737263,37.588344,branch
Jinju bubble tea,точка безалкогольных напитков,Кофейни,"проспект Мира, 47 ст1",1 этаж,129110.0,Мещанский,Москва,Москва,4.9,93.0,55.782848,37.633948,branch
Joja coffee,кафе,Кофейни; Кафе,"Новокузнецкая улица, 1 ст2",,115184.0,Замоскворечье,Москва,Москва,4.5,29.0,55.740197,37.630033,branch
Joja Coffee,кофейня,Быстрое питание; Точки кофе; Кондитерские изделия,"Народная улица, 9",1 этаж,115172.0,Таганский,Москва,Москва,4.0,2.0,55.738631,37.651864,branch
Kafema,магазин-кофейня,Кофейни; Продажа кофе; Продажа чая,"4-я Тверская-Ямская улица, 9",цокольный этаж,125047.0,Тверской,Москва,Москва,4.9,54.0,55.772081,37.597459,branch
Kakdela,кофейня,Кофейни,"Бумажный проезд, 19",1 этаж,127015.0,Беговой,Москва,Москва,,,55.79032,37.586087,branch
Kalina,кофейня,Кофейни,"Тверская улица, 12 ст9",1 этаж,125375.0,Тверской,Москва,Москва,4.4,10.0,55.76356,37.609521,branch
Kalina Red,кофейня,Кофейни,"улица Большая Лубянка, 13/16 ст1",1 этаж,107031.0,Мещанский,Москва,Москва,5.0,2.0,55.76441,37.629541,branch
Kaya coffee shop,,Кофейни,"Береговой проезд, 3",1 этаж,121087.0,Филёвский парк,Москва,Москва,3.5,15.0,55.757617,37.509214,branch
Kotomka,магазин товаров для дома,Кофейни,"Малый Казённый переулок, 16",,105064.0,Басманный,Москва,Москва,5.0,1.0,55.761237,37.655602,branch
Kuchis Coffee,экспресс-кофейня,Кофейни,"Крутицкая улица, 9",1 этаж,109044.0,Таганский,Москва,Москва,4.2,4.0,55.72879,37.658809,branch
Kurnik,бутик пирогов,Кофейни; Кондитерские изделия,"Ветошный переулок, 13",1 этаж,109012.0,Тверской,Москва,Москва,4.8,17.0,55.755219,37.621904,branch
La cafe,кофейня,Быстрое питание; Точки кофе,"Большая Переяславская улица, 46 ст2",1 этаж,129110.0,Мещанский,Москва,Москва,4.0,2.0,55.786681,37.640991,branch
La Vie Cafe,кофейня,Кофейни,"Воронцовская улица, 25 ст1",1 этаж,109147.0,Таганский,Москва,Москва,4.9,49.0,55.735953,37.660469,branch
Le cafe Blanc,,Кофейни,"Раушская набережная, 4/5 ст1",1-3 этаж,115035.0,Замоскворечье,Москва,Москва,3.0,2.0,55.747941,37.627141,branch
Life Story,кофейня,Кофейни; Кондитерские изделия,"улица Виктора Маслова, 2","1, 2 этаж",115068.0,Даниловский,Москва,Москва,5.0,1.0,55.718735,37.654765,branch
Like a bird,кофейня,Кофейни,"Бауманская улица, 24",1 этаж,105005.0,Басманный,Москва,Москва,3.0,1.0,55.774373,37.678003,branch
Lime,кафе,Кофейни,"Красная площадь, 3",2 этаж,109012.0,Тверской,Москва,Москва,,,55.755249,37.61981,branch
Lime Cafe,,Кофейни; Кондитерские изделия,"Павелецкая площадь, 3",0 этаж; магазин Lime,115114.0,Замоскворечье,Москва,Москва,4.9,9.0,55.730685,37.637591,branch
Lintu,экспресс-кофейня,Кофейни,"Летниковская улица, 2 ст4",1 этаж,115114.0,Замоскворечье,Москва,Москва,5.0,1.0,55.728153,37.643495,branch
Lisobon,кафе,Кофейни,"улица Сретенка, 26/1",1 этаж,107045.0,Красносельский,Москва,Москва,4.7,32.0,55.77002,37.633367,branch
Loave,,Кофейни; Пекарни,"Пятницкая улица, 22 ст1",1 этаж,115035.0,Замоскворечье,Москва,Москва,4.0,5.0,55.741639,37.628393,branch
Lovemark,кофейня,Кофейни,"Садовническая набережная, 77 ст1",,115035.0,Замоскворечье,Москва,Москва,5.0,1.0,55.734983,37.641813,branch
Lovemark,кофейня,Кофейни,"улица Льва Толстого, 16",1 этаж,119021.0,Хамовники,Москва,Москва,5.0,6.0,55.734131,37.586782,branch
M`eatall,,Кофейни,"Олимпийский проспект, 12",,129090.0,Мещанский,Москва,Москва,,,55.777919,37.621998,branch
Magic в зернах,кофейня,Кофейни,"Боровая улица, 6",1 этаж,111020.0,Лефортово,Москва,Москва,4.0,3.0,55.772764,37.712809,branch
Makecup.coffee,экспресс-кофейня,Быстрое питание; Точки кофе,"Бутырская улица, 8",4 этаж; фотостудия Cross+Studio,127015.0,Бутырский,Москва,Москва,4.0,4.0,55.797267,37.58493,branch
Mates,кофейня,Кофейни; Доставка еды,"Большая Грузинская улица, 76",1 этаж,125047.0,Тверской,Москва,Москва,4.0,8.0,55.773795,37.587274,branch
Mates,кофейня,Кофейни; Доставка еды,"улица Шаболовка, 19",1 этаж,119049.0,Якиманка,Москва,Москва,3.9,14.0,55.723699,37.611219,branch
Mates,кофейня,Кофейни; Доставка еды,"Мантулинская улица, 5 ст11",,123100.0,Пресненский,Москва,Москва,4.1,25.0,55.756111,37.554834,branch
Mates,кофейня,Кофейни,"Малая Бронная улица, 16",1 этаж,123104.0,Пресненский,Москва,Москва,4.5,49.0,55.76166,37.596042,branch
Maven,магазин-кофейня,Кофейни; Продажа чая; Продажа кофе; Кондитерские изделия; Сувенирные композиции,"улица Большая Дмитровка, 1",1 этаж,125009.0,Тверской,Москва,Москва,,,55.758564,37.617221,branch
Maven,магазин-кофейня,Кофейни; Продажа чая; Продажа кофе; Кондитерские изделия; Сувенирные композиции,"Театральная площадь, 2",1 этаж,125009.0,Тверской,Москва,Москва,2.9,13.0,55.758897,37.617329,branch
Maдо,кофейня,Кофейни,"Мосфильмовская улица, 2",1 этаж,119285.0,Раменки,Москва,Москва,4.7,10.0,55.726066,37.532919,branch
MeetMos,кафе,Кофейни; Кафе,"Пресненская набережная, 12",-1 этаж,123112.0,Пресненский,Москва,Москва,5.0,2.0,55.750131,37.537668,branch
Milk&Beans,кофейня,Кофейни,"улица Усачёва, 2 ст1",1 этаж,119048.0,Хамовники,Москва,Москва,5.0,4.0,55.730819,37.57653,branch
Milk&Beans,кофейня,Кофейни,"Шмитовский проезд, 39 к1",1 этаж,123290.0,Пресненский,Москва,Москва,,,55.754371,37.52299,branch
Milk&Snow,кондитерская,Быстрое питание; Кондитерские изделия; Точки кофе,"Рождественский бульвар, 1",1 этаж,107045.0,Мещанский,Москва,Москва,3.0,4.0,55.766807,37.624018,branch
Molnia Coffee,кофейня,Кофейни,"Кожевническая улица, 5",1 этаж,115114.0,Замоскворечье,Москва,Москва,4.4,19.0,55.730194,37.644633,branch
MonteView coffee,кофейня,Кофейни; Доставка еды; Продажа кофе,"Тестовская улица, 1",,123112.0,Пресненский,Москва,Москва,4.1,1.0,55.747928,37.533083,branch
MonteView coffee,кофейня,Кофейни,"улица Большие Каменщики, 9 ст С",1 этаж,115172.0,Таганский,Москва,Москва,4.6,24.0,55.737518,37.655401,branch
Moonrise Coffee,,Кофейни; Доставка еды,"Береговой проезд, 1а",1 этаж,121087.0,Филёвский парк,Москва,Москва,4.7,30.0,55.757144,37.512249,branch
Mosaic coffee,,Кофейни,"улица Петровка, 25 ст1",1 этаж,107031.0,Тверской,Москва,Москва,,,55.767213,37.614058,branch
Mosca Coffee,,Кофейни,"Пресненская набережная, 12",-1 этаж,123112.0,Пресненский,Москва,Москва,5.0,8.0,55.749515,37.537707,branch
Mountain Brew,,Кофейни,"2-я Брестская улица, 6",6 этаж,125047.0,Тверской,Москва,Москва,,,55.770727,37.591206,branch
Mussi,веган-кафе,Кофейни; Кондитерские изделия,"Нижняя Красносельская улица, 35 ст50",1 этаж,105066.0,Басманный,Москва,Москва,4.7,78.0,55.774837,37.67446,branch
My Vocal Coffee,,Кофейни,"Дербеневская улица, 3",,115114.0,Даниловский,Москва,Москва,,,55.725583,37.651121,branch
Nastavnik,кофейня,Кофейни,"Наставнический переулок, 17 ст1",1 этаж; 18 подъезд,105120.0,Таганский,Москва,Москва,,,55.749386,37.665904,branch
Natura,кофейня,Кофейни,"2-я Звенигородская улица, 12 ст23",,123100.0,Пресненский,Москва,Москва,4.8,85.0,55.762642,37.557214,branch
Nice buffet,бистро,Быстрое питание; Точки кофе,,,119048.0,Хамовники,Москва,Москва,,,55.711684,37.554459,branch
Noba,кофейня,Быстрое питание; Точки кофе,"Дербеневская набережная, 7 ст9",1 этаж,115114.0,Даниловский,Москва,Москва,,,55.723314,37.654629,branch
Nodo,кофейня,Кофейни,"Сибирский проезд, 2",,109029.0,Таганский,Москва,Москва,5.0,4.0,55.732559,37.679933,branch
Nofilters,кофейня,Кофейни; Продажа кофе,"Тверская улица, 15",1 этаж,125009.0,Тверской,Москва,Москва,4.9,80.0,55.762372,37.608049,branch
Nord сoffee,экспресс-кофейня,Кофейни; Продажа кофе,"1-я Тверская-Ямская улица, 12",1 этаж,125047.0,Тверской,Москва,Москва,4.0,27.0,55.772572,37.592658,branch
Nothing Fancy,кофейня,Кофейни,"улица Петровка, 30/7",1 этаж,127006.0,Тверской,Москва,Москва,4.6,21.0,55.768059,37.614385,branch
Ofis,кофейня,Кофейни; Кафе,"улица Пресненский Вал, 7 ст1",,123022.0,Пресненский,Москва,Москва,4.2,16.0,55.767466,37.564585,branch
Old grinder,кофейня,Кофейни,"Кропоткинский переулок, 9",,119034.0,Хамовники,Москва,Москва,4.5,27.0,55.738002,37.593044,branch
Omg! Coffee,кофейня,Кофейни; Доставка еды; Кондитерские изделия,"Ермолаевский переулок, 7",,123001.0,Пресненский,Москва,Москва,3.9,8.0,55.764285,37.590579,branch
Omg! Coffee,кофейня,Кофейни; Доставка еды; Кондитерские изделия,"улица Рождественка, 6/9/20 ст1",1 этаж,107031.0,Мещанский,Москва,Москва,4.1,150.0,55.762004,37.624292,branch
One and double,экспресс-кофейня,Быстрое питание; Точки кофе,,,119334.0,Гагаринский,Москва,Москва,3.0,2.0,55.707041,37.585865,branch
One and double,экспресс-кофейня,Быстрое питание; Точки кофе,,,107140.0,Красносельский,Москва,Москва,,,55.775124,37.652467,branch
One and double,экспресс-кофейня,Быстрое питание; Точки кофе,"Комсомольская площадь, 2",1 этаж; на перроне вокзала,107140.0,Красносельский,Москва,Москва,3.7,6.0,55.774054,37.655953,branch
One Price Coffee,кофейня,Кофейни; Точки кофе,"Ленинский проспект, 37а",1 этаж,119334.0,Донской,Москва,Москва,4.5,2.0,55.709399,37.587816,branch
One Price Coffee,кофейня,Быстрое питание; Точки кофе,"Цветной бульвар, 17",1 этаж,127051.0,Тверской,Москва,Москва,3.9,13.0,55.771524,37.620612,branch
One special,кофейня,Кофейни; Доставка еды,"Павелецкая площадь, 3",-2 этаж,115114.0,Замоскворечье,Москва,Москва,4.6,29.0,55.730774,37.639998,branch
One special,кофейня,Кофейни; Доставка еды; Кафе,"Нижний Сусальный переулок, 5 ст11",1 этаж,105064.0,Басманный,Москва,Москва,4.8,21.0,55.76087,37.666303,branch
Organic coffee,,Кофейни,"улица Арбат, 4 ст1",1 этаж,119019.0,Арбат,Москва,Москва,,,55.751752,37.597841,branch
Pascucci,кофешоп,Кофейни; Кофемашины; Продажа кофе,"Самокатная улица, 4 ст7",1 этаж,111033.0,Лефортово,Москва,Москва,5.0,1.0,55.756819,37.678934,branch
Paula Coffee,кофейня,Кофейни,"3-я улица Ямского Поля, 2 к19",3 этаж,125124.0,Беговой,Москва,Москва,1.4,1.0,55.784508,37.583585,branch
Pipes,кофейня,Кофейни,"Краснопрудная улица, 26",1 этаж,107140.0,Красносельский,Москва,Москва,3.2,2.0,55.779192,37.667045,branch
Pipes,кофейня,Кофейни,"Бережковская набережная, 20 ст69",,121059.0,Дорогомилово,Москва,Москва,5.0,10.0,55.735138,37.551298,branch
Pita by Сила Dobraw,кафе,Кофейни; Доставка еды,"Пресненская набережная, 12",-1 этаж,123112.0,Пресненский,Москва,Москва,4.6,20.0,55.749628,37.537818,branch
Playami,,Кофейни,"Переведеновский переулок, 13 ст18",1 этаж,105082.0,Басманный,Москва,Москва,,,55.78087,37.68932,branch
Point 242,кофейня,Кофейни,"проспект Мира, 61",1 этаж,129110.0,Мещанский,Москва,Москва,4.2,34.0,55.785925,37.634609,branch
Prime,кафе,Быстрое питание; Точки кофе,"Мясницкая улица, 32 ст1",1 этаж,101000.0,Басманный,Москва,Москва,4.2,52.0,55.76565,37.63895,branch
Pro Sto Coffee,экспресс-кофейня,Быстрое питание; Точки кофе,,,119334.0,Гагаринский,Москва,Москва,4.7,24.0,55.711629,37.572532,branch
ProSweet,кофейня-кондитерская,Кофейни; Кафе-кондитерские; Кондитерские изделия,"улица Красная Пресня, 38",,123376.0,Пресненский,Москва,Москва,5.0,1.0,55.762613,37.566155,branch
Proкофе,точка кофе,Быстрое питание; Точки кофе,"Краснопресненская набережная, 12",2 этаж; 9 подъезд,123610.0,Пресненский,Москва,Москва,,,55.754715,37.556359,branch
Pshur,кофейня,Кофейни; Кафе,"2-я Звенигородская улица, 12 ст23",гастромаркет Greens,123100.0,Пресненский,Москва,Москва,4.3,16.0,55.762645,37.557034,branch
R5/7s1 by right coffee,,Кофейни,"улица Рождественка, 5/7 ст1",цокольный этаж,107031.0,Мещанский,Москва,Москва,5.0,2.0,55.761746,37.62341,branch
Raffle Waffle,кафе гонконгских вафель,Быстрое питание; Точки кофе; Доставка еды,"Театральный проезд, 5",6 этаж,109012.0,Мещанский,Москва,Москва,2.9,22.0,55.760119,37.625188,branch
ráno,кофейня,Кофейни,"Большая Почтовая улица, 32",1 этаж,105082.0,Басманный,Москва,Москва,4.2,6.0,55.779895,37.698754,branch
Raw to go,кафе,Быстрое питание; Доставка еды; Точки кофе; Точки безалкогольных напитков,"Новорязанская улица, 23 ст1",1 этаж,105066.0,Красносельский,Москва,Москва,4.1,4.0,55.772511,37.663007,branch
Red Stars,кафе,Быстрое питание; Точки кофе,"улица Красная Пресня, 24",1 этаж; супермаркет Магнит,123376.0,Пресненский,Москва,Москва,,,55.76208,37.570198,branch
Red Tuna,кафе быстрого обслуживания,Быстрое питание; Точки кофе,"Пречистенская набережная, 11 ст1",1 этаж,119034.0,Хамовники,Москва,Москва,5.0,1.0,55.737739,37.603584,branch
Ripple Coffee,,Кофейни,"3-я улица Ямского Поля, 2 к13",,125124.0,Беговой,Москва,Москва,5.0,1.0,55.781589,37.582164,branch
Ritmo,кофейня,Кофейни,"Цветной бульвар, 15 ст1",5 этаж,127051.0,Тверской,Москва,Москва,,,55.771219,37.620301,branch
Ritmo X Giardino,кофейня,Кофейни,"Малая Никитская улица, 12 ст12",,121069.0,Пресненский,Москва,Москва,4.0,11.0,55.75831,37.593982,branch
Roaster,кофейня,Кофейни; Доставка еды,"4-я Тверская-Ямская улица, 2/11 ст2",1 этаж,125047.0,Тверской,Москва,Москва,4.7,125.0,55.771929,37.59828,branch
Roaster,кофейня-винный бар,Кофейни; Кафе; Доставка еды,"улица Новая Дорога, 9",1 этаж,105094.0,Басманный,Москва,Москва,4.4,11.0,55.772425,37.700724,branch
Roaster coffee and wine,кофейня,Кофейни,"Долгоруковская улица, 32",1 этаж,127006.0,Тверской,Москва,Москва,4.7,36.0,55.776926,37.602958,branch
Rockets,кофейня,Кофейни,"1-я улица Ямского Поля, 15 ст2",,125124.0,Беговой,Москва,Москва,5.0,1.0,55.782061,37.583673,branch
Rockets,кофейня,Кофейни; Продажа кофе,"Садовническая улица, 82/2",,115035.0,Замоскворечье,Москва,Москва,4.4,15.0,55.735935,37.642435,branch
Rockets,кофейня,Кофейни; Продажа кофе; Кафе,"Тверской бульвар, 3",,123104.0,Пресненский,Москва,Москва,4.3,39.0,55.758276,37.598136,branch
Rockets,кофейня,Кофейни; Продажа кофе,"Валовая улица, 35",1 этаж,115054.0,Замоскворечье,Москва,Москва,4.7,45.0,55.729106,37.626705,branch
S.Cafe,кофейня,Кофейни,"улица Бахрушина, 12 ст2",1 этаж,115184.0,Замоскворечье,Москва,Москва,5.0,9.0,55.735642,37.634867,branch
Saletta coffee,кофейня,Кофейни; Кафе,"Таганская улица, 25-27",,109147.0,Таганский,Москва,Москва,5.0,13.0,55.739981,37.665135,branch
Seadog Coffee Roasters,кофейня,Кофейни,"Кутузовский проспект, 24",,121151.0,Дорогомилово,Москва,Москва,,,55.74451,37.545238,branch
Seadog Coffee Roasters,кофейня,Кофейни,"улица Большая Ордынка, 7 ст1",1 этаж,115035.0,Замоскворечье,Москва,Москва,4.4,24.0,55.744643,37.624916,branch
Select,кафе-бистро,Быстрое питание; Точки кофе,"Большой Овчинниковский переулок, 16",-1 этаж; супермаркет Перекрёсток,115184.0,Замоскворечье,Москва,Москва,,,55.74459,37.629898,branch
Select,кафе-бистро,Быстрое питание; Точки кофе,"улица Новый Арбат, 15",,119019.0,Арбат,Москва,Москва,,,55.752241,37.592176,branch
Select,кафе-бистро,Быстрое питание; Точки кофе,"Волочаевская улица, 12а",,111033.0,Лефортово,Москва,Москва,,,55.7559,37.68217,branch
Setrocoffee,кофейня,Кофейни; Доставка еды,"улица Правды, 23",1 этаж,127015.0,Беговой,Москва,Москва,5.0,2.0,55.788765,37.581952,branch
Short talk cafe,,Кофейни,"Садовая-Кудринская улица, 32 ст2",цокольный этаж,123001.0,Пресненский,Москва,Москва,4.7,66.0,55.765368,37.590591,branch
Sibwell,кофейня,Кофейни,"улица Большая Якиманка, 39",2 этаж,119049.0,Якиманка,Москва,Москва,4.8,5.0,55.73411,37.61324,branch
Sip coffee,кофейня,Кофейни,"Газетный переулок, 3/5 ст1","1 этаж; вход с зеленой вывеской, черная дверь, далее налево, белая дверь",125009.0,Пресненский,Москва,Москва,4.9,22.0,55.757204,37.608105,branch
Sister Margaret,барбершоп,Кофейни; Барбершопы,"улица Сокольнический Вал, 22",1 этаж,107113.0,Сокольники,Москва,Москва,4.2,11.0,55.791854,37.660642,branch
Skuratov Coffee,кофейня,Кофейни,"переулок Столешников, 11",,107031.0,Тверской,Москва,Москва,4.8,9.0,55.763631,37.615517,branch
Skuratov Coffee,кофейня,Кофейни,"Большой Овчинниковский переулок, 16",1 этаж,115184.0,Замоскворечье,Москва,Москва,4.7,9.0,55.744356,37.630786,branch
Skuratov Coffee,кофейня,Кофейни,"1-я улица Ямского Поля, 1 к1",1 этаж,125040.0,Беговой,Москва,Москва,4.9,45.0,55.779429,37.58209,branch
Skuratov Coffee,кофейня,Кофейни,"Комсомольский проспект, 24 ст1",1 этаж,119021.0,Хамовники,Москва,Москва,4.6,68.0,55.727934,37.581006,branch
Skuratov Coffee,кофейня,Кофейни,"Мясницкая улица, 13 ст2",1 этаж,101000.0,Красносельский,Москва,Москва,4.7,103.0,55.762256,37.634083,branch
Skuratov Coffee,кофейня,Кофейни,"Рочдельская улица, 15 ст1",1 этаж,123376.0,Пресненский,Москва,Москва,4.8,22.0,55.756957,37.566475,branch
Skuratov Coffee,кофейня,Кофейни,"Нижняя Красносельская улица, 35 ст49",1 этаж,105066.0,Басманный,Москва,Москва,4.9,47.0,55.775556,37.672066,branch
Skuratov Coffee,кофейня,Кофейни,"Благовещенский переулок, 1Б",1 этаж,123001.0,Пресненский,Москва,Москва,4.8,56.0,55.767403,37.597799,branch
Skuratov Coffee,кофейня,Кофейни,"улица Александра Невского, 1",,125047.0,Тверской,Москва,Москва,4.8,141.0,55.774892,37.59284,branch
Skuratov Coffee,кофейня,Кофейни,"Верхняя Радищевская улица, 19/3 ст2",цокольный этаж,109240.0,Таганский,Москва,Москва,4.8,205.0,55.743444,37.653409,branch
Skuratov Coffee,кофейня,Кофейни,"Кутузовский проспект, 36 ст39",,121170.0,Дорогомилово,Москва,Москва,4.8,100.0,55.739603,37.527417,branch
Skuratov Coffee,кофейня,Кофейни,"Калашный переулок, 5",1 этаж,119019.0,Пресненский,Москва,Москва,4.9,293.0,55.755126,37.601471,branch
Sky coffee,кофейня,Кофейни,"Мытная улица, 40 к1",1 этаж,119049.0,Якиманка,Москва,Москва,4.2,5.0,55.72309,37.616396,branch
Smart Coffee Lab,кофейня,Кофейни,"улица Маросейка, 11 ст4",1 этаж,101000.0,Басманный,Москва,Москва,4.9,38.0,55.757924,37.636223,branch
smart day,кофейня,Кофейни; Продажа кофе; Доставка еды,"проезд Шелихова, 1 к2",,111033.0,Лефортово,Москва,Москва,,,55.74913,37.689889,branch
smart day,кофейня,Кофейни; Продажа кофе; Доставка еды,"улица Покровка, 38а",1 этаж,101000.0,Басманный,Москва,Москва,,,55.76159,37.651599,branch
smart day,кофейня,Кофейни; Доставка еды,"Спартаковская площадь, 16/15 ст2","1, 2 этаж",105082.0,Басманный,Москва,Москва,4.6,37.0,55.776147,37.679044,branch
Smoothie&coffee,кофейня,Кофейни,"Мантулинская улица, 18",1 этаж,123100.0,Пресненский,Москва,Москва,3.7,15.0,55.756199,37.551482,branch
Sonder,кафе,Кофейни,"Бакунинская улица, 8",,105005.0,Басманный,Москва,Москва,4.9,19.0,55.773175,37.680697,branch
St.Riders Coffee,кофейня,Кофейни; Продажа кофе; Кондитерские изделия,"Таганская улица, 1/2 ст2",1 этаж,109147.0,Таганский,Москва,Москва,5.0,7.0,55.741431,37.657281,branch
Star hit cafe,кофейня,Кофейни; Кулинарии,"улица Кузнецкий Мост, 18/7",1 этаж,107031.0,Мещанский,Москва,Москва,4.3,31.0,55.761978,37.623018,branch
Star hit cafe,кофейня,Кофейни; Кулинарии; Кондитерские изделия,"улица Шаболовка, 31г",1 этаж,115162.0,Донской,Москва,Москва,4.8,202.0,55.721233,37.610389,branch
Stardogs,точка фастфуда,Кафе; Быстрое питание; Точки кофе,"Розанова улица, 4",,123007.0,Хорошёвский,Москва,Москва,4.0,1.0,55.772886,37.542617,branch
Stardogs,точка фастфуда,Быстрое питание; Точки кофе,"1-я Тверская-Ямская улица, 29",1 этаж,125047.0,Тверской,Москва,Москва,,,55.776085,37.585292,branch
Stardogs,точка фастфуда,Кафе; Быстрое питание; Точки кофе,"Оружейный переулок, 41",1 этаж,127006.0,Тверской,Москва,Москва,,,55.773644,37.604557,branch
Stars coffee,кофейня,Кофейни,,,119048.0,Хамовники,Москва,Москва,,,55.714187,37.549291,branch
Stars coffee,кофейня,Кофейни; Доставка еды,"Павелецкая площадь, 3",-2 этаж,115114.0,Замоскворечье,Москва,Москва,3.1,3.0,55.731109,37.639835,branch
Stars coffee,кофейня,Кофейни,"улица Шаболовка, 30",,115419.0,Донской,Москва,Москва,4.4,7.0,55.719566,37.608313,branch
Stars coffee,кофейня,Кофейни,"площадь Киевского вокзала, 2",3 этаж,121059.0,Дорогомилово,Москва,Москва,4.1,11.0,55.744026,37.565075,branch
Stars coffee,кофейня,Кофейни,"Лесная улица, 20 ст1",1 этаж,125196.0,Тверской,Москва,Москва,4.3,14.0,55.780249,37.591609,branch
Stars selected,кофейня,Кофейни,"Камергерский переулок, 5 ст1",1 этаж,125009.0,Тверской,Москва,Москва,,,55.760256,37.614084,branch
Stars Selected,кофейня,Кофейни,"улица Новый Арбат, 15",,119019.0,Арбат,Москва,Москва,4.2,7.0,55.752266,37.593374,branch
Stim,кофейня,Кофейни; Доставка еды; Кафе,"Бауманская улица, 15 к4",1 этаж,105082.0,Басманный,Москва,Москва,4.4,87.0,55.776093,37.678424,branch
Sue coffee,кофейня,Кофейни,"Валовая улица, 2-4/44 ст1",1 этаж,115054.0,Замоскворечье,Москва,Москва,4.6,70.0,55.731161,37.634711,branch
Support кофе,,Кофейни,"3-я улица Ямского Поля, 2 к25",1 этаж; рядом с фотостудией Le Magneta,125124.0,Беговой,Москва,Москва,5.0,1.0,55.784673,37.583357,branch
Surf Coffee,кофейня,Кофейни,"Пресненская набережная, 10",-1 этаж,123112.0,Пресненский,Москва,Москва,5.0,1.0,55.746773,37.537121,branch
Surf Coffee x Alaia,кофейня,Кофейни,"улица Вавилова, вл4",1 этаж,119071.0,Донской,Москва,Москва,4.5,21.0,55.708657,37.590276,branch
Surf Coffee X Arbat,кофейня,Кофейни,"улица Новый Арбат, 7 ст А",1 этаж,119019.0,Арбат,Москва,Москва,4.7,111.0,55.752464,37.597482,branch
Surf Coffee x Arma,кофейня,Кофейни; Продажа кофе,"Нижний Сусальный переулок, 5 ст2",1 этаж,105064.0,Басманный,Москва,Москва,4.7,47.0,55.760147,37.661999,branch
Surf Coffee x Atrium,кофейня,Кофейни,"улица Земляной Вал, 33",4 этаж,105064.0,Басманный,Москва,Москва,4.4,10.0,55.756841,37.659236,branch
Surf Coffee x Belka,кофейня,Кофейни; Продажа кофе,"улица Бутырский Вал, 4",1 этаж,125196.0,Тверской,Москва,Москва,4.1,6.0,55.777367,37.585264,branch
Surf Coffee x Bike,кофейня,Кофейни,"2-я Черногрязская улица, 6 к1",,123100.0,Пресненский,Москва,Москва,,,55.761129,37.54715,branch
Surf Coffee x Bonnie,кофейня,Кофейни,"Большая Почтовая улица, 28",1 этаж,105082.0,Басманный,Москва,Москва,4.8,55.0,55.779673,37.698663,branch
Surf Coffee x Boom,кофейня,Кофейни,"Пушечная улица, 7/5 ст2",1 этаж,107031.0,Мещанский,Москва,Москва,5.0,6.0,55.76089,37.622593,branch
Surf Coffee X Bove,кофейня,Кофейни,"проспект Академика Сахарова, 7",1 этаж,107078.0,Красносельский,Москва,Москва,4.3,10.0,55.771259,37.644158,branch
Surf Coffee x Cave,,Кофейни; Кондитерские изделия,"Новокузнецкая улица, 6",1 этаж,119017.0,Замоскворечье,Москва,Москва,4.9,51.0,55.738379,37.630204,branch
Surf Coffee x Change,кофейня,Кофейни,"Стремянный переулок, 38",1 этаж,115054.0,Замоскворечье,Москва,Москва,4.9,73.0,55.727548,37.62649,branch
Surf Coffee x Chiller,кофейня,Кофейни,"2-я Звенигородская улица, 14 к1",1 этаж,123100.0,Пресненский,Москва,Москва,4.4,10.0,55.76322,37.555205,branch
Surf Coffee x Cutback,,Кофейни; Продажа кофе,"Бумажный проезд, 19",,127015.0,Беговой,Москва,Москва,5.0,4.0,55.789815,37.586154,branch
Surf coffee x Depo,кофейня,Кофейни,"Новорязанская улица, 23 ст1",1 этаж,105066.0,Красносельский,Москва,Москва,4.7,14.0,55.772501,37.662641,branch
Surf Coffee x Dream,кофейня,Кофейни,"Новослободская улица, 16а",1 этаж,127030.0,Тверской,Москва,Москва,4.8,89.0,55.782217,37.599765,branch
Surf Coffee x Element,кофейня,Кофейни,"Весковский переулок, 3",1 этаж,127006.0,Тверской,Москва,Москва,5.0,6.0,55.779472,37.599219,branch
Surf Coffee X Film,кофейня,Кофейни,"улица Новый Арбат, 24",1 этаж,119019.0,Арбат,Москва,Москва,4.5,25.0,55.752959,37.588432,branch
Surf Coffee X Flow,кофейня,Кофейни,"Страстной бульвар, 8а",1 этаж,107031.0,Тверской,Москва,Москва,4.4,36.0,55.766235,37.610472,branch
Surf coffee x G-spot,кофейня,Кофейни,"Мясницкая улица, 16",1 этаж; Лавочки,101000.0,Басманный,Москва,Москва,4.6,78.0,55.761002,37.632331,branch
Surf Coffee x Grain,кофейня,Кофейни,"Шелепихинская набережная, 34 к2",1 этаж,123290.0,Хорошёво-Мнёвники,Москва,Москва,4.5,14.0,55.7628,37.508803,branch
Surf Coffee x Happiness,кофейня,Кофейни; Продажа кофе,"Дубининская улица, 59а",1 этаж,115054.0,Даниловский,Москва,Москва,5.0,3.0,55.71831,37.63593,branch
Surf Coffee x IQ,кофейня,Кофейни,"Пресненская набережная, 10 ст2",-1 этаж,123112.0,Пресненский,Москва,Москва,4.7,6.0,55.747521,37.534853,branch
Surf Coffee x Jazz,кофейня,Кофейни; Продажа кофе,"улица Сущёвский Вал, 49 ст2",1 этаж,127018.0,Марьина Роща,Москва,Москва,4.7,38.0,55.793365,37.612444,branch
Surf Coffee x Line up,кофейня,Кофейни; Доставка еды,"улица Покровка, 4 ст1",1 этаж,101000.0,Басманный,Москва,Москва,3.9,19.0,55.758707,37.641773,branch
Surf Coffee x Lore,кофейня,Кофейни,"Краснопрудная улица, 22-24",3/1 помещение,107140.0,Красносельский,Москва,Москва,5.0,9.0,55.778698,37.665028,branch
Surf Coffee x Lovely,кофейня,Кофейни; Продажа кофе,"проспект Мира, 40",1 этаж,129090.0,Мещанский,Москва,Москва,4.6,54.0,55.780281,37.634031,branch
Surf coffee x Lucky,кофейня,Кофейни; Продажа кофе,"Бауманская улица, 33/2 ст1",цокольный этаж,105005.0,Басманный,Москва,Москва,4.8,60.0,55.772568,37.678791,branch
Surf Coffee x Marx,кофейня,Кофейни,"Таганская улица, 1/2 ст2",1 этаж,109147.0,Таганский,Москва,Москва,5.0,3.0,55.741391,37.65747,branch
Surf Coffee X Mayak,кофейня,Кофейни; Доставка еды,"Тверская улица, 25/12","1, 2 этаж",125009.0,Тверской,Москва,Москва,4.9,66.0,55.767692,37.599584,branch
Surf Coffee x Nazare,,Кофейни,"Тверская улица, 18 ст1",1 этаж,127006.0,Тверской,Москва,Москва,3.3,3.0,55.766187,37.604068,branch
Surf Coffee x Neglinka,кофейня,Кофейни,"Неглинная улица, 14 ст1а",1 этаж,107031.0,Мещанский,Москва,Москва,4.8,67.0,55.764109,37.620277,branch
Surf Coffee x Neo,кофейня,Кофейни,"Стремянный переулок, 2",1 этаж,115054.0,Замоскворечье,Москва,Москва,4.4,6.0,55.729222,37.636415,branch
Surf coffee x Nikola,кофейня,Кофейни,"Никольская улица, 10/2 ст2Б",1 этаж,109012.0,Тверской,Москва,Москва,4.7,37.0,55.758203,37.625388,branch
Surf coffee x Oasis,кофейня,Кофейни; Доставка еды; Продажа кофе,"Орликов переулок, 8",1 этаж,107078.0,Красносельский,Москва,Москва,4.8,57.0,55.771452,37.649222,branch
Surf Coffee x Pi,,Кофейни,"1-й Обыденский переулок, 14",1 этаж,119034.0,Хамовники,Москва,Москва,4.8,145.0,55.743983,37.602043,branch
Surf Coffee x Pier,кофейня,Кофейни,"Причальный проезд, 10 к2",,123290.0,Хорошёво-Мнёвники,Москва,Москва,4.5,6.0,55.76041,37.515872,branch
Surf Coffee x Pipe,кофейня,Кофейни; Продажа кофе,"Трубная улица, 26 к1",1 этаж,127051.0,Мещанский,Москва,Москва,4.7,16.0,55.770722,37.625531,branch
Surf Coffee X Pkrvk,кофейня,Кофейни,"улица Покровка, 31 ст1",1 этаж,101000.0,Басманный,Москва,Москва,4.2,15.0,55.760843,37.650006,branch
Surf Coffee x Race,кофейня,Кофейни,"Маргелова улица, 3 к3",,125284.0,Хорошёвский,Москва,Москва,5.0,4.0,55.777548,37.541286,branch
Surf coffee x rail,кофейня,Кофейни,"Кожевническая улица, 1 ст1",1 этаж,115114.0,Замоскворечье,Москва,Москва,4.5,18.0,55.730897,37.641469,branch
Surf Coffee X Red Village,кофейня,Кофейни,"Нижняя Красносельская улица, 35 ст49",1 этаж,105066.0,Басманный,Москва,Москва,4.6,24.0,55.775718,37.671832,branch
Surf coffee x Republic,кофейня,Кофейни; Доставка еды,"1-я Тверская-Ямская улица, 10",1 этаж,125047.0,Тверской,Москва,Москва,4.5,21.0,55.772221,37.592796,branch
Surf coffee x Revolution,кофейня,Кофейни; Продажа кофе,"улица Красная Пресня, 30 ст1",1 этаж,123376.0,Пресненский,Москва,Москва,4.9,98.0,55.762242,37.568319,branch
Surf coffee x Roma,кофейня,Кофейни,"шоссе Энтузиастов, 1 к2",,111033.0,Лефортово,Москва,Москва,4.9,11.0,55.748107,37.688671,branch
Surf coffee x Sababa,кофейня,Кофейни; Продажа кофе,"Пятницкий переулок, 3",1 этаж,115184.0,Замоскворечье,Москва,Москва,4.8,90.0,55.743211,37.630118,branch
Surf Coffee X Seasons,кофейня,Кофейни; Доставка еды,"Охотный Ряд улица, 2",1 этаж,103265.0,Тверской,Москва,Москва,4.5,86.0,55.757311,37.618302,branch
Surf coffee x Secret Spot,кофейня,Кофейни; Доставка еды,"Конный переулок, 12",1 этаж,115162.0,Якиманка,Москва,Москва,4.9,67.0,55.721761,37.611827,branch
Surf Coffee x Slava,,Кофейни,"1-я улица Ямского Поля, 1 к1",,125040.0,Беговой,Москва,Москва,5.0,7.0,55.779225,37.580808,branch
Surf Coffee X Smile,кофейня,Кофейни,"Смоленская площадь, 5",-1 этаж,121099.0,Арбат,Москва,Москва,4.8,34.0,55.748226,37.58152,branch
Surf coffee x sport,кофейня,Кофейни,"улица Усачёва, 62",1 этаж,119048.0,Хамовники,Москва,Москва,4.4,45.0,55.724607,37.5624,branch
Surf Coffee x Sretenka,кофейня,Кофейни; Продажа кофе,"улица Сретенка, 27 ст1",1 этаж,127051.0,Мещанский,Москва,Москва,4.9,48.0,55.771191,37.632284,branch
Surf Coffee x Station,,Кофейни,"улица Земляной Вал, 25",,105064.0,Басманный,Москва,Москва,5.0,3.0,55.75988,37.658245,branch
Surf coffee x Stitch,кофейня,Кофейни,"Рочдельская улица, 15 ст35",,123376.0,Пресненский,Москва,Москва,4.7,27.0,55.756495,37.562156,branch
Surf Coffee X Strana,кофейня,Кофейни,"Зубовский бульвар, 25 к1",,119021.0,Хамовники,Москва,Москва,4.4,11.0,55.736699,37.589736,branch
Surf coffee x studio,кофейня,Кофейни; Продажа кофе,"Садовническая улица, 42 ст1",1 этаж,115035.0,Замоскворечье,Москва,Москва,4.9,63.0,55.744857,37.636944,branch
Surf Coffee x Sunrise,кофейня,Кофейни,"Киевская улица, 2",1 этаж,121059.0,Дорогомилово,Москва,Москва,4.8,51.0,55.743601,37.563474,branch
Surf Coffee X Supernova,кофейня,Кофейни,"Новинский бульвар, 7",,121099.0,Арбат,Москва,Москва,4.2,10.0,55.751891,37.582789,branch
Surf Coffee X Tag,кофейня,Кофейни,"Верхняя Радищевская улица, 13 ст1",1 этаж,109240.0,Таганский,Москва,Москва,4.2,18.0,55.743751,37.651299,branch
Surf Coffee x Union,кофейня,Кофейни,"Русаковская улица, 22",1 этаж,107014.0,Сокольники,Москва,Москва,4.7,44.0,55.787339,37.679755,branch
Surf coffee x urban jungle,,Кофейни; Продажа кофе,"Долгоруковская улица, 5/27/2",1-2 этаж,125047.0,Тверской,Москва,Москва,4.7,46.0,55.773588,37.603659,branch
Surf Coffee x Val d’isere,кофейня,Кофейни,"Тверская улица, 4",,125009.0,Тверской,Москва,Москва,4.9,19.0,55.758754,37.612872,branch
Surf Coffee x Yakimanka,кофейня,Кофейни,"улица Большая Якиманка, 50",1 этаж,119049.0,Якиманка,Москва,Москва,4.8,32.0,55.732217,37.611717,branch
Sweell Cafe,кафе,Кофейни; Кафе,"Самокатная улица, 4 ст13",1 этаж,111033.0,Лефортово,Москва,Москва,4.8,8.0,55.756662,37.676125,branch
Sweet family,кофейня,Кофейни,,,127006.0,Тверской,Москва,Москва,,,55.770551,37.61,branch
Syncope,кофейня,Кофейни,"Малая Почтовая улица, 8 ст1",,105082.0,Басманный,Москва,Москва,4.0,2.0,55.77156,37.687184,branch
Syncope,кофейня,Кофейни,"Волгоградский проспект, 16",цокольный этаж,109316.0,Таганский,Москва,Москва,4.0,2.0,55.729178,37.675069,branch
Take your mood,кофейня,Кофейни,"Столярный переулок, 3 к12",1 этаж,123022.0,Пресненский,Москва,Москва,4.5,2.0,55.764394,37.568981,branch
Tea palace,чайная,Кофейни,"Солянский проезд, 4/1 к2",,109240.0,Таганский,Москва,Москва,5.0,8.0,55.753871,37.63612,branch
Tea Room,,Кофейни,"Софийская набережная, 34 ст5",,115035.0,Якиманка,Москва,Москва,5.0,11.0,55.746697,37.62251,branch
Teacha,,Кофейни; Точки безалкогольных напитков,"площадь Тверская Застава, 4",1 этаж,125047.0,Тверской,Москва,Москва,5.0,4.0,55.775443,37.582206,branch
Tell me,кофейня,Кофейни,"Лесная улица, 10-16",1 этаж,125047.0,Тверской,Москва,Москва,4.6,7.0,55.778439,37.588991,branch
Tempo,кофейня,Кофейни; Кафе; Доставка еды,"Хавская улица, 9",1 этаж,115162.0,Даниловский,Москва,Москва,4.4,11.0,55.716444,37.613819,branch
Ter.mos,кофейня,Кофейни; Кафе,"Жуков проезд, 21Б",1 этаж,115114.0,Даниловский,Москва,Москва,4.7,35.0,55.722495,37.645643,branch
That Place,кофейня,Кофейни,"Чистопрудный бульвар, 12 к4",1 этаж,101000.0,Басманный,Москва,Москва,4.7,30.0,55.761596,37.64303,branch
The 8 Кофе,кофейня,Кофейни,"Волгоградский проспект, 21 ст11",2 этаж,109316.0,Нижегородский,Москва,Москва,,,55.726492,37.686456,branch
The coffee club,кофейня,Кофейни; Продажа кофе,"улица Большая Ордынка, 31/12 ст1",1 этаж,119017.0,Замоскворечье,Москва,Москва,4.7,43.0,55.73829,37.624582,branch
The low key,кафе-бар,Кофейни,"Новоостаповская улица, 20",1 этаж,115088.0,Южнопортовый,Москва,Москва,,,55.72351,37.68496,branch
The Waterfront,кафе,Кофейни; Доставка еды; Кафе,"улица Большая Полянка, 51а",1 этаж,119180.0,Якиманка,Москва,Москва,4.6,70.0,55.732025,37.620659,branch
Tintoretto coffee,кофейня,Кофейни,"Малый Казённый переулок, 2",1 этаж,105064.0,Басманный,Москва,Москва,4.5,20.0,55.76,37.65278,branch
Uclad space,,Кофейни,"улица Большая Полянка, 9",,119180.0,Якиманка,Москва,Москва,4.5,11.0,55.740254,37.617339,branch
Urban,кофейня,Кофейни,"Смоленская площадь, 3",F11 павильон; 4 этаж,121099.0,Арбат,Москва,Москва,,,55.747417,37.581856,branch
Urban Roaster,кофейня,Кофейни; Продажа кофе,"Большая Серпуховская улица, 48 ст1",1 этаж,115093.0,Замоскворечье,Москва,Москва,4.9,14.0,55.72222,37.627108,branch
V60 Coffee&Bakery,кафе,Кафе; Кофейни,"Малый Палашёвский переулок, 5",1 этаж; V hotel Tverskaya,123104.0,Тверской,Москва,Москва,4.8,10.0,55.765353,37.602206,branch
V60 Coffee&Bakery,кафе,Кофейни; Кондитерские изделия,"Пресненская набережная, 6 ст2",4 подъезд,123112.0,Пресненский,Москва,Москва,5.0,1.0,55.747886,37.540035,branch
Valle Sanchez,кофейня,Кофейни; Доставка еды,"Дербеневская набережная, 7 ст12",цокольный этаж,115114.0,Даниловский,Москва,Москва,5.0,17.0,55.723454,37.652186,branch
Velle Coffee,экспресс-кофейня,Быстрое питание; Точки кофе,"Новорязанская улица, 23 ст1",1 этаж,105066.0,Красносельский,Москва,Москва,3.5,9.0,55.772817,37.663124,branch
Vera coffee&tea keto&healthy dishes and desserts,кофейня,Кофейни; Кондитерские изделия,"Пречистенская набережная, 11 ст2",1 этаж,119034.0,Хамовники,Москва,Москва,4.9,66.0,55.737503,37.602986,branch
Waffles and Strawberry,кофейня,Кофейни; Мороженое,"Новослободская улица, 4",3 этаж,127055.0,Тверской,Москва,Москва,,,55.780106,37.601438,branch
Wakecup,кофейня,Кофейни,"Нижняя Сыромятническая улица, 10 ст2",2 этаж,105120.0,Басманный,Москва,Москва,,,55.751955,37.670887,branch
West 4 corner,,Кофейни,"Дубининская улица, 41 ст1",1 этаж,115054.0,Замоскворечье,Москва,Москва,5.0,10.0,55.723993,37.636996,branch
White fox,кофейня,Кофейни; Доставка еды; Кафе,"Малая Грузинская улица, 38",1 этаж,123557.0,Пресненский,Москва,Москва,4.4,17.0,55.768474,37.572756,branch
White fox,кофейня,Кофейни; Доставка еды; Кафе,"улица Плющиха, 20/2",,119121.0,Хамовники,Москва,Москва,4.7,36.0,55.74372,37.578201,branch
White fox,кофейня,Кофейни; Доставка еды,"Большой Трёхгорный переулок, 6",,123022.0,Пресненский,Москва,Москва,4.5,22.0,55.758948,37.563578,branch
Winners,кофейня,Кофейни,"Шмитовский проезд, 39 к6",,123290.0,Пресненский,Москва,Москва,5.0,1.0,55.753031,37.527109,branch
Winners,кофейня,Кофейни,"Шелепихинская набережная, 34 к4",1 этаж,123290.0,Хорошёво-Мнёвники,Москва,Москва,4.3,10.0,55.764051,37.513482,branch
Winners,кофейня,Кофейни; Продажа кофе; Кондитерские изделия; Кулинарии,"Большая Филёвская улица, 3 к2",1 этаж,121087.0,Филёвский парк,Москва,Москва,5.0,8.0,55.74979,37.516411,branch
Ycp,кофейня,Кофейни; Доставка еды; Кафе,"Мясницкая улица, 13 ст24",1 этаж; напротив конференц-зала ФРИИ Сити Холл,101000.0,Красносельский,Москва,Москва,4.6,81.0,55.763278,37.63356,branch
Yellow Line,магазин винтажного и современного декора,Кофейни,"Малый Казённый переулок, 5а ст32",,105064.0,Басманный,Москва,Москва,,,55.762773,37.654554,branch
Yes no milk,экспресс-кофейня,Кофейни,"улица Лужники, 24 ст45",1 этаж,119048.0,Хамовники,Москва,Москва,3.6,11.0,55.719461,37.549343,branch
YesBakery,кофейня,Кофейни,"улица Мельникова, 3 к1",1 этаж,109316.0,Южнопортовый,Москва,Москва,5.0,1.0,55.726239,37.677043,branch
Yugen,кофейня,Кофейни,"Октябрьский переулок, 1/9",1 этаж,127018.0,Марьина Роща,Москва,Москва,4.7,15.0,55.786185,37.61366,branch
Yumbaker,кафе-кондитерская,Кофейни; Кафе-кондитерские; Доставка еды; Кондитерские изделия,"проспект Мира, 26 ст1",1 этаж,129090.0,Мещанский,Москва,Москва,4.4,49.0,55.7779,37.6336,branch
Yumbaker,кафе-кондитерская,Кофейни; Кафе-кондитерские; Доставка еды; Кондитерские изделия,"Пятницкая улица, 66 ст1",1 этаж,115184.0,Замоскворечье,Москва,Москва,4.9,138.0,55.732281,37.626721,branch
Yummy mummy,кафе,Кофейни; Доставка еды; Кулинарии,"улица Еланского, 2 ст1",1 этаж; правое крыло,119435.0,Хамовники,Москва,Москва,,,55.733906,37.572784,branch
Zoe,пекарня,Кофейни; Пекарни; Кондитерские изделия,"Мясницкая улица, 13 ст20",1 этаж,101000.0,Красносельский,Москва,Москва,4.5,231.0,55.763373,37.633592,branch
Zефир,кофейня,Кофейни,"Дубининская улица, 57 ст2",2.106 офис; 1 этаж,115054.0,Даниловский,Москва,Москва,4.0,6.0,55.720842,37.636467,branch
Азбука daily,кофейня,Быстрое питание; Точки кофе,"Дубининская улица, 59а",,115054.0,Даниловский,Москва,Москва,,,55.718945,37.635564,branch
Азбука daily,кофейня,Быстрое питание; Точки кофе,"Мантулинская улица, 9 к3",,123100.0,Пресненский,Москва,Москва,,,55.754229,37.544959,branch
Азбука daily,кофейня,Быстрое питание; Точки кофе; Кондитерские изделия; Доставка еды,"Мытная улица, 7 ст1",1 этаж; супермаркет Азбука daily,119049.0,Замоскворечье,Москва,Москва,,,55.721645,37.617654,branch
Азбука Вкуса,кафе,Быстрое питание; Точки кофе,"Шелепихинская набережная, 34 к5",,123290.0,Хорошёво-Мнёвники,Москва,Москва,,,55.764763,37.511527,branch
Азбука Вкуса,кафе,Быстрое питание; Кондитерские изделия; Точки кофе,"Олимпийский проспект, 30 ст1",,129272.0,Мещанский,Москва,Москва,,,55.791036,37.622789,branch
Азбука Вкуса,кафе,Быстрое питание; Точки кофе,"Кутузовский проспект, 32 к1",1 этаж,121170.0,Дорогомилово,Москва,Москва,3.6,2.0,55.741102,37.531104,branch
Азбука Вкуса,кафе,Быстрое питание; Точки кофе,"Новинский бульвар, 8",-1 этаж,121099.0,Арбат,Москва,Москва,2.0,2.0,55.75119,37.58469,branch
Азбука Вкуса,кафе,Быстрое питание; Точки кофе,"улица Бутырский Вал, 10",1 этаж; супермаркет Азбука daily,125196.0,Тверской,Москва,Москва,5.0,1.0,55.778441,37.585653,branch
Азбука Вкуса,кафе,Быстрое питание; Точки кофе,"1-й Вражский переулок, 2/44",,119121.0,Хамовники,Москва,Москва,,,55.739624,37.5758,branch
Азбука Вкуса,кафе,Быстрое питание; Кондитерские изделия; Точки кофе,"Тверская улица, 5/6",1 этаж,125009.0,Тверской,Москва,Москва,4.8,2.0,55.758095,37.612365,branch
Азбука Вкуса,кафе,Быстрое питание; Кондитерские изделия; Точки кофе,"Чистопрудный бульвар, 16 ст1",1 этаж,101000.0,Басманный,Москва,Москва,,,55.759472,37.644995,branch
Азбука Вкуса,кафе,Быстрое питание; Точки кофе,"Цветной бульвар, 25 ст1",1 этаж,127051.0,Тверской,Москва,Москва,3.3,1.0,55.773077,37.620828,branch
Азбука Вкуса,кафе,Быстрое питание; Кондитерские изделия; Точки кофе,"Новинский бульвар, 31",1 этаж,123242.0,Пресненский,Москва,Москва,,,55.757529,37.583365,branch
Азбука Вкуса,кафе,Кофейни; Кондитерские изделия,"улица Остоженка, 10",1 этаж,119034.0,Хамовники,Москва,Москва,3.5,3.0,55.742572,37.600065,branch
Азбука Вкуса,кафе,Быстрое питание; Точки кофе,"улица Петровка, 19",1 этаж; супермаркет Азбука daily,107031.0,Тверской,Москва,Москва,4.6,2.0,55.765228,37.61607,branch
Азбука Вкуса,кафе,Быстрое питание; Точки кофе,"Новокузнецкая улица, 1",1 этаж; мини-маркет Азбука daily,115184.0,Замоскворечье,Москва,Москва,4.2,10.0,55.740728,37.629922,branch
Азбука Вкуса,кафе,Быстрое питание; Кондитерские изделия; Точки кофе,"улица Садовая-Триумфальная, 18-20",1 этаж; супермаркет Азбука daily,127006.0,Тверской,Москва,Москва,5.0,1.0,55.77167,37.602819,branch
Азбука Вкуса,кафе,Быстрое питание; Точки кофе,"Большая Грузинская улица, 16",1 этаж; супермаркет Азбука daily,123242.0,Пресненский,Москва,Москва,4.3,5.0,55.764708,37.578785,branch
Азбука Вкуса,кафе,Быстрое питание; Точки кофе,"Страстной бульвар, 6 ст1",1 этаж; супермаркет Азбука daily,125375.0,Тверской,Москва,Москва,3.8,7.0,55.765829,37.608716,branch
Азбука Вкуса,кафе,Быстрое питание; Кондитерские изделия; Точки кофе,"улица Пречистенка, 24/1",1 этаж; мини-маркет Азбука daily,119034.0,Хамовники,Москва,Москва,4.3,4.0,55.742043,37.59354,branch
Азбука Вкуса,кафе,Быстрое питание; Точки кофе,"улица Сретенка, 1",1 этаж; мини-маркет Азбука daily,107045.0,Мещанский,Москва,Москва,4.8,60.0,55.766623,37.631213,branch
Азбука Вкуса,кафе,Быстрое питание; Кондитерские изделия; Точки кофе,"Ленинский проспект, 21",,119071.0,Донской,Москва,Москва,,,55.717942,37.595922,branch
Азбука Вкуса,кафе,Быстрое питание; Точки кофе,"проспект Мира, 58",1 этаж; супермаркет Азбука вкуса,129110.0,Мещанский,Москва,Москва,,,55.785661,37.636042,branch
Азбука Вкуса,кафе,Быстрое питание; Кондитерские изделия; Точки кофе,"Пятницкая улица, 13 ст1",1 этаж,115035.0,Замоскворечье,Москва,Москва,4.8,89.0,55.743762,37.628213,branch
Азбука Вкуса,кафе,Быстрое питание; Точки кофе,"улица Остоженка, 42/2",1 этаж; супермаркет Азбука daily,119034.0,Хамовники,Москва,Москва,4.8,63.0,55.737396,37.594859,branch
Азбука Вкуса,кафе,Быстрое питание; Точки кофе; Доставка еды,"Большая Садовая улица, 5 к1",1 этаж; мини-маркет Азбука daily,123001.0,Пресненский,Москва,Москва,3.3,2.0,55.769526,37.591574,branch
Азбука Вкуса,кафе,Быстрое питание; Точки кофе,"Старая Басманная улица, 28/2",1 этаж; супермаркет Азбука вкуса,105066.0,Басманный,Москва,Москва,2.3,1.0,55.768195,37.667614,branch
Азбука Вкуса,кафе,Быстрое питание; Точки кофе,"Комсомольский проспект, 4",1 этаж; супермаркет Азбука вкуса,119021.0,Хамовники,Москва,Москва,5.0,1.0,55.733181,37.592479,branch
Азбука Вкуса,кафе,Быстрое питание; Точки кофе,"улица Симоновский Вал, 12 к2",1 этаж; супермаркет Азбука вкуса,115088.0,Даниловский,Москва,Москва,4.8,5.0,55.724615,37.662926,branch
Азбука Вкуса,кафе,Быстрое питание; Точки кофе,"улица Арбат, 54/2",1 этаж; супермаркет Азбука Вкуса,119002.0,Арбат,Москва,Москва,1.7,2.0,55.747144,37.583107,branch
Азбука Вкуса,кафе,Быстрое питание; Точки кофе,"Хорошёвское шоссе, 52 к1",даркстор Азбука вкуса,123007.0,Хорошёвский,Москва,Москва,5.0,2.0,55.776559,37.533105,branch
Азбука Вкуса,кафе,Быстрое питание; Точки кофе,"Пресненская набережная, 12",1 этаж; супермаркет Азбука вкуса,123112.0,Пресненский,Москва,Москва,,,55.749745,37.538314,branch
Азбука Вкуса,кафе,Быстрое питание; Кондитерские изделия; Точки кофе,"Делегатская улица, 9 ст1",1 этаж,127473.0,Тверской,Москва,Москва,5.0,1.0,55.775689,37.613833,branch
Азбука Вкуса,кафе,Быстрое питание; Точки кофе,"улица Сергея Макеева, 9 к1",1 этаж; супермаркет Азбука вкуса,123100.0,Пресненский,Москва,Москва,5.0,1.0,55.760677,37.55032,branch
Азбука Вкуса,кафе,Быстрое питание; Точки кофе,"Лялин переулок, 11-13/1 ст2",1 этаж; мини-маркет Азбука daily,101000.0,Басманный,Москва,Москва,4.8,37.0,55.758383,37.652719,branch
Азбука Вкуса,кафе,Быстрое питание; Точки кофе,"проспект Мира, 49",1 этаж; супермаркет Азбука daily,129110.0,Мещанский,Москва,Москва,5.0,3.0,55.783482,37.634043,branch
Азбука Вкуса,кафе,Быстрое питание; Точки кофе,"Большая Грузинская улица, 63 ст1",супермаркет Азбука вкуса,123056.0,Пресненский,Москва,Москва,1.4,1.0,55.772988,37.585176,branch
Азбука Вкуса,кафе,Быстрое питание; Кондитерские изделия; Точки кофе,"Долгоруковская улица, 40",1 этаж; супермаркет Азбука daily,127006.0,Тверской,Москва,Москва,3.8,3.0,55.779217,37.602684,branch
Азбука Вкуса,кафе,Быстрое питание; Точки кофе,"Смоленская-Сенная площадь, 27 ст1а",мини-маркет Азбука daily,119121.0,Хамовники,Москва,Москва,4.5,6.0,55.745233,37.582649,branch
Азбука Вкуса,кафе,Быстрое питание; Кондитерские изделия; Точки кофе,"Никольская улица, 10",1 этаж; супермаркет Азбука daily,109012.0,Тверской,Москва,Москва,4.8,100.0,55.758319,37.624404,branch
Азбука Вкуса,кафе,Быстрое питание; Кондитерские изделия; Точки кофе,"Трубная площадь, 2",1 этаж; супермаркет Азбука вкуса,107031.0,Мещанский,Москва,Москва,,,55.766217,37.622066,branch
Азбука Вкуса,кафе,Быстрое питание; Кондитерские изделия; Точки кофе,"Русаковская улица, 22",1 этаж; супермаркет Азбука вкуса,107014.0,Сокольники,Москва,Москва,,,55.786353,37.678347,branch
Азбука Вкуса,кафе,Быстрое питание; Кондитерские изделия; Точки кофе,"Марксистская улица, 38",-1 этаж; супермаркет Азбука вкуса,109147.0,Таганский,Москва,Москва,4.0,2.0,55.733862,37.667599,branch
Азбука Вкуса,кафе,Быстрое питание; Кондитерские изделия; Точки кофе,"Ленинский проспект, 34",супермаркет Азбука Вкуса,119334.0,Гагаринский,Москва,Москва,1.4,1.0,55.707137,37.578178,branch
Азбука Вкуса,кафе,Быстрое питание; Кондитерские изделия; Точки кофе,"улица Большая Якиманка, 32",1 этаж; супермаркет Азбука вкуса,119049.0,Якиманка,Москва,Москва,5.0,1.0,55.735387,37.612858,branch
Азбука Вкуса,кафе,Быстрое питание; Точки кофе; Кондитерские изделия,"Большая Татарская улица, 30",1 этаж; супермаркет Азбука daily,115184.0,Замоскворечье,Москва,Москва,4.1,7.0,55.738672,37.633927,branch
Алёнка,кофейня,Кофейни; Кондитерские изделия,"улица Фадеева, 4а ст1",1 этаж,125047.0,Тверской,Москва,Москва,4.4,10.0,55.775776,37.602322,branch
Алёнка,кофейня,Кофейни; Кафе-кондитерские; Доставка еды,"Страстной бульвар, 2",1 этаж,125375.0,Тверской,Москва,Москва,4.7,31.0,55.765202,37.60723,branch
Алёнка,кофейня,Кофейни; Кондитерские изделия,"Театральный проезд, 5",2-11 павильон; 2 этаж,109012.0,Мещанский,Москва,Москва,4.1,37.0,55.760387,37.625831,branch
Алёнка,кофейня,Кофейни; Кондитерские изделия,"1-я Тверская-Ямская улица, 12",1 этаж,125047.0,Тверской,Москва,Москва,4.8,127.0,55.772368,37.592546,branch
Альпака и кофе,кофейня,Кофейни,"Староконюшенный переулок, 25",1 этаж,119002.0,Хамовники,Москва,Москва,4.7,31.0,55.747066,37.595062,branch
Аппо,кофейня,Кофейни; Доставка еды,"Шелепихинская набережная, 34 к2 ст1",,123290.0,Хорошёво-Мнёвники,Москва,Москва,3.8,17.0,55.763945,37.509009,branch
Аритмия,кофейня,Быстрое питание; Точки кофе,,,119334.0,Раменки,Москва,Москва,3.8,14.0,55.707048,37.551299,branch
Ароматика,,Кофейни,"Переведеновский переулок, 13 ст18",1 этаж,105082.0,Басманный,Москва,Москва,5.0,3.0,55.781051,37.689067,branch
Атмосфера,кофейня,Кофейни,"Краснопресненская набережная, 12",2 этаж; 6 подъезд,123610.0,Пресненский,Москва,Москва,4.3,3.0,55.755499,37.556501,branch
Аэроплан.кофе,,Кофейни; Кондитерские изделия,"Садовническая улица, 80",1 этаж,115035.0,Замоскворечье,Москва,Москва,4.9,72.0,55.737341,37.640052,branch
Аэроплан.кофе,,Кофейни; Продажа кофе; Кондитерские изделия,"Пятницкая улица, 65/10",,115184.0,Замоскворечье,Москва,Москва,4.2,62.0,55.732749,37.627448,branch
Б. 28,кофейня,Кофейни,"улица Бахрушина, 28",1 этаж,115054.0,Замоскворечье,Москва,Москва,,,55.732514,37.63697,branch
Бабушка Бобра,кофейня,Кофейни; Кондитерские изделия; Продажа кофе,"улица Большая Якиманка, 19",1 этаж,119180.0,Якиманка,Москва,Москва,5.0,31.0,55.737396,37.615145,branch
Багетная Рапсодия,кофейня,Кофейни,"Тестовская улица, 1",,123112.0,Пресненский,Москва,Москва,4.0,4.0,55.747928,37.533083,branch
Баймиа,,Кофейни,"Ленинский проспект, 23",,119071.0,Донской,Москва,Москва,,,55.717541,37.596711,branch
Банзай,,Кофейни,"Кутузовский проспект, 32 к1",,121170.0,Дорогомилово,Москва,Москва,,,55.741332,37.530975,branch
Бар 2,кофейня,Кофейни,"Болотная набережная, 15 к1",1 этаж,119072.0,Якиманка,Москва,Москва,4.8,18.0,55.742497,37.612773,branch
Бар Капибар,зоокафе,Кофейни; Зоокафе,"Таганская улица, 13 ст2",,109147.0,Таганский,Москва,Москва,4.9,80.0,55.740754,37.66046,branch
Бар33,кофейня,Кофейни,"улица Симоновский Вал, 7Б",1 этаж,109044.0,Южнопортовый,Москва,Москва,4.3,10.0,55.726969,37.66348,branch
БарБариста,кофейня,Кофейни,"1-й Хорошёвский проезд, 14 ст1",1 этаж,125284.0,Хорошёвский,Москва,Москва,4.8,32.0,55.775069,37.54556,branch
Бейджанс,кофейня,Кофейни,"Ленинградский проспект, 13 ст1",1 этаж,125040.0,Беговой,Москва,Москва,4.9,7.0,55.78125,37.573421,branch
Бодрый день,мини-кофейня,Кофейни; Кулинарии,"Столярный переулок, 3 к14",1 этаж,123022.0,Пресненский,Москва,Москва,,,55.765204,37.569213,branch
Бодрый день,мини-кофейня,Кофейни,"улица Правды, 24 ст8",1 этаж,125124.0,Беговой,Москва,Москва,4.5,10.0,55.786267,37.58375,branch
Борис Сонный,кофейня,Кофейни,"Селезнёвская улица, 32",1 этаж,127473.0,Тверской,Москва,Москва,4.7,62.0,55.780749,37.611782,branch
Булка и кофе,кафе,Кофейни,"Большая Серпуховская улица, 32 ст1",1 этаж,115093.0,Замоскворечье,Москва,Москва,4.4,14.0,55.725306,37.625715,branch
БунаБин,,Кофейни; Продажа чая; Продажа кофе,"проезд Шелихова, 3",,111033.0,Лефортово,Москва,Москва,4.2,3.0,55.749166,37.690403,branch
Буф а39,кофейня,Кофейни,"Зубовский бульвар, 2 ст5",1 этаж,119021.0,Хамовники,Москва,Москва,3.8,6.0,55.736772,37.594459,branch
Буфетрина. 2,кофейня,Кофейни; Кондитерские изделия,"Нижняя Сыромятническая улица, 11 к1",1 этаж,105120.0,Басманный,Москва,Москва,5.0,1.0,55.75307,37.671024,branch
Буханка,пекарня,Кофейни; Пекарни,"улица Крузенштерна, 6",,111033.0,Лефортово,Москва,Москва,,,55.750247,37.689949,branch
Буханка,пекарня,Кофейни; Пекарни; Кондитерские изделия; Доставка еды,"Маргелова улица, 3 к2",,125284.0,Хорошёвский,Москва,Москва,3.9,6.0,55.777201,37.54109,branch
Быстро&Вкусно,кафе быстрого обслуживания,Быстрое питание; Точки кофе; Безалкогольные напитки,,цокольный этаж,101000.0,Басманный,Москва,Москва,4.7,12.0,55.765582,37.636954,branch
Бюфэ,,Кофейни,"Вятская улица, 35 ст3",,127015.0,Савёловский,Москва,Москва,5.0,1.0,55.798235,37.581823,branch
В гостях у Марты,кафе,Кофейни,"Волгоградский проспект, 3",,109316.0,Таганский,Москва,Москва,3.8,7.0,55.732384,37.672101,branch
Важный кофе,кофейня,Кофейни,"Малая Грузинская улица, 3",,123557.0,Пресненский,Москва,Москва,,,55.76257,37.570499,branch
Ванильное небо,кафе-кулинария,Кофейни; Доставка еды; Кулинарии,"улица Бутырский Вал, 68/70 ст1",1 этаж,127055.0,Тверской,Москва,Москва,5.0,1.0,55.7885,37.588725,branch
Ванильное небо,кафе-кулинария,Кофейни; Доставка еды,"улица Двинцев, 12 к1 блок В",1 этаж,127018.0,Марьина Роща,Москва,Москва,2.2,2.0,55.796672,37.598986,branch
Ванлав,семейное кафе-кондитерская,Кофейни; Кафе,"2-я Звенигородская улица, 12 ст23",,123100.0,Пресненский,Москва,Москва,4.7,16.0,55.762647,37.55691,branch
Варочная,кофейня,Кофейни,"Пресненская набережная, 12",,123112.0,Пресненский,Москва,Москва,,,55.749515,37.537707,branch
Веселый клуб лентяев,кофейня,Кофейни,"Большая Почтовая улица, 40 ст7",,105082.0,Басманный,Москва,Москва,1.4,1.0,55.781877,37.698503,branch
Виктория,кофейня,Быстрое питание; Точки кофе,"Бакунинская улица, 1-3",1 этаж,105005.0,Басманный,Москва,Москва,4.5,4.0,55.77352,37.67909,branch
ВкусВилл,кафе,Быстрое питание; Точки кофе,"Октябрьская улица, 89",магазин ВкусВилл,127521.0,Марьина Роща,Москва,Москва,,,55.796444,37.612622,branch
ВкусВилл,кафе,Быстрое питание; Точки кофе,"Береговой проезд, 3",,121087.0,Филёвский парк,Москва,Москва,,,55.75797,37.509752,branch
ВкусВилл,кафе,Быстрое питание; Точки кофе,"Береговой проезд, 1Б",,121087.0,Филёвский парк,Москва,Москва,,,55.755595,37.513655,branch
ВкусВилл,кафе,Быстрое питание; Точки кофе,"Кудринская площадь, 1",,123242.0,Пресненский,Москва,Москва,,,55.759615,37.581603,branch
ВкусВилл,кафе,Быстрое питание; Точки кофе,"Мантулинская улица, 26",,123100.0,Пресненский,Москва,Москва,,,55.757212,37.547332,branch
ВкусВилл,кафе,Быстрое питание; Точки кофе,"Стремянный переулок, 2",1 этаж; Магазин ВкусВилл,115054.0,Замоскворечье,Москва,Москва,,,55.728563,37.636147,branch
ВкусВилл,кафе,Быстрое питание; Точки кофе,"Пресненская набережная, 10 ст2",-1 этаж,123112.0,Пресненский,Москва,Москва,,,55.747619,37.535444,branch
ВкусВилл,кафе,Быстрое питание; Точки кофе,"улица Шаболовка, 61",1 этаж,115419.0,Даниловский,Москва,Москва,,,55.714492,37.607977,branch
ВкусВилл,кафе,Быстрое питание; Точки кофе,"Люсиновская улица, 4",1 этаж,115093.0,Замоскворечье,Москва,Москва,,,55.727645,37.62256,branch
ВкусВилл,кафе,Быстрое питание; Точки кофе,"улица Плющиха, 42 ст1",супермаркет ВкусВилл,119121.0,Хамовники,Москва,Москва,,,55.741265,37.576477,branch
ВкусВилл,кафе,Быстрое питание; Точки кофе,"улица Барболина, 2",,107014.0,Сокольники,Москва,Москва,5.0,1.0,55.787898,37.68537,branch
ВкусВилл,кафе,Быстрое питание; Точки кофе,"улица Александра Невского, 1",1 этаж,125047.0,Тверской,Москва,Москва,,,55.774816,37.592922,branch
ВкусВилл,кафе,Быстрое питание; Точки кофе,"улица Бутырский Вал, 48",,127055.0,Тверской,Москва,Москва,,,55.785288,37.587959,branch
ВкусВилл,кафе,Быстрое питание; Точки кофе,"Верхняя Радищевская улица, 17/2 ст2",1 этаж,109240.0,Таганский,Москва,Москва,5.0,1.0,55.743225,37.652741,branch
ВкусВилл,кафе,Быстрое питание; Точки кофе,"улица Большая Якиманка, 54",1 этаж,119049.0,Якиманка,Москва,Москва,,,55.731494,37.611746,branch
ВкусВилл,кафе,Быстрое питание; Точки кофе,"Сокольническая площадь, 4а",1 этаж; супермаркет ВкусВилл,107113.0,Сокольники,Москва,Москва,5.0,1.0,55.790216,37.678524,branch
ВкусВилл,кафе,Быстрое питание; Точки кофе,"Шелепихинская набережная, 34 к1",1 этаж; супермаркет ВкусВилл,123290.0,Хорошёво-Мнёвники,Москва,Москва,5.0,1.0,55.760858,37.513479,branch
ВкусВилл,кафе,Быстрое питание; Точки кофе,"Протопоповский переулок, 16",1 этаж; магазин ВкусВилл,129090.0,Мещанский,Москва,Москва,4.5,2.0,55.779336,37.640958,branch
ВкусВилл,кафе,Быстрое питание; Точки кофе,"улица Пресненский Вал, 5",1 этаж,123022.0,Пресненский,Москва,Москва,,,55.766021,37.564165,branch
ВкусВилл,кафе,Быстрое питание; Точки кофе,"улица Пречистенка, 31/16",1 этаж; супермаркет ВкусВилл,119034.0,Хамовники,Москва,Москва,,,55.740044,37.589989,branch
ВкусВилл,кафе,Быстрое питание; Точки кофе,"улица Большая Полянка, 9",1 этаж,119180.0,Якиманка,Москва,Москва,,,55.740175,37.617384,branch
ВкусВилл,кафе,Быстрое питание; Точки кофе,"Мясницкая улица, 17 ст1",1 этаж; магазин ВкусВилл,101000.0,Красносельский,Москва,Москва,,,55.763547,37.635606,branch
ВкусВилл,кафе,Быстрое питание; Точки кофе,"улица Петровка, 24 ст2",1 этаж,127051.0,Тверской,Москва,Москва,3.6,3.0,55.765238,37.616472,branch
ВкусВилл,кафе,Быстрое питание; Точки кофе,"Зоологическая улица, 4",1 этаж; супермаркет ВкусВилл,123242.0,Пресненский,Москва,Москва,5.0,1.0,55.765562,37.581609,branch
ВкусВилл,кафе,Быстрое питание; Точки кофе,"проспект Мира, 40",1 этаж,129090.0,Мещанский,Москва,Москва,5.0,2.0,55.780252,37.634313,branch
ВкусВилл,кафе,Быстрое питание; Точки кофе,"улица Малая Дмитровка, 31",1 этаж,127006.0,Тверской,Москва,Москва,5.0,2.0,55.771925,37.60373,branch
ВкусВилл,кафе,Быстрое питание; Точки кофе,"улица 1905 года, 11 ст1",1 этаж,123022.0,Пресненский,Москва,Москва,5.0,3.0,55.764764,37.560619,branch
ВкусВилл,кафе,Быстрое питание; Точки кофе,"Садовнический проезд, 6",1 этаж,115035.0,Замоскворечье,Москва,Москва,5.0,2.0,55.741611,37.629416,branch
ВкусВилл,кафе,Быстрое питание; Точки кофе,"3-й Крутицкий переулок, 13 ст2",,109044.0,Южнопортовый,Москва,Москва,,,55.731092,37.664918,branch
ВкусВилл,кафе,Быстрое питание; Точки кофе,"проспект Мира, 76",1 этаж; магазин ВкусВилл,129110.0,Мещанский,Москва,Москва,5.0,1.0,55.790329,37.635216,branch
ВкусВилл,кафе,Быстрое питание; Точки кофе,"Лесная улица, 45",1 этаж,127055.0,Тверской,Москва,Москва,1.0,1.0,55.781083,37.592019,branch
ВкусВилл,кафе,Быстрое питание; Точки кофе,"улица Арбат, 1",1 этаж,119019.0,Арбат,Москва,Москва,4.5,2.0,55.75204,37.599578,branch
ВкусВилл,кафе,Быстрое питание; Точки кофе,"Бутырская улица, 2/18",1 этаж,127015.0,Бутырский,Москва,Москва,5.0,1.0,55.794227,37.586853,branch
ВкусВилл,кафе,Быстрое питание; Точки кофе,"Малая Пироговская улица, 21",1 этаж,119435.0,Хамовники,Москва,Москва,3.2,2.0,55.726808,37.567388,branch
ВкусВилл,точка кофе,Быстрое питание; Точки кофе,,,119049.0,Якиманка,Москва,Москва,,,55.731564,37.604412,branch
Воздух,,Кофейни,"улица Малая Дмитровка, 5/9",5 этаж,127006.0,Тверской,Москва,Москва,,,55.768091,37.605457,branch
Волшебнутый кофе,кофейня с предсказаниями,Кофейни,"Трёхпрудный переулок, 10/2",,123001.0,Тверской,Москва,Москва,4.8,35.0,55.76543,37.597505,branch
Восход,,Кофейни,"Столярный переулок, 3 к2",1 этаж,123022.0,Пресненский,Москва,Москва,5.0,1.0,55.763697,37.568138,branch
Все ли поели?,кафетерий,Кофейни,"Партийный переулок, 1 к57 ст3",1 этаж,115093.0,Даниловский,Москва,Москва,,,55.719068,37.629799,branch
Все ли поели?,столовая,Столовые; Доставка еды; Точки кофе,"Краснопролетарская улица, 16","цокольный, 1 этаж",127473.0,Тверской,Москва,Москва,4.8,94.0,55.778181,37.607165,branch
Всегда рады,минимаркет,Быстрое питание; Точки кофе; Кулинарии,"Спартаковский переулок, 2 ст1",1 этаж,105082.0,Красносельский,Москва,Москва,,,55.778206,37.671708,branch
Вспышка,кофейня,Кофейни,"Нижняя Красносельская улица, 35 ст2",1 этаж,105066.0,Басманный,Москва,Москва,4.8,72.0,55.775999,37.672248,branch
Высоко-Петровский мужской монастырь г. Москвы РПЦ,монастырская кофейня,Кофейни,"улица Петровка, 28 ст5",1 этаж,127051.0,Тверской,Москва,Москва,4.6,33.0,55.766784,37.615033,branch
Галерея,лобби-бар,Кофейни,"Вознесенский переулок, 7",1 этаж; гостиница Арткорт Москва,125009.0,Пресненский,Москва,Москва,,,55.757962,37.604217,branch
Гараж 13,кофейня,Кофейни,"Старомонетный переулок, 6",,119180.0,Якиманка,Москва,Москва,4.7,27.0,55.741981,37.617329,branch
География вкуса,кофейня,Кофейни,"Гончарная улица, 30 ст1",1 этаж; левое крыло,115172.0,Таганский,Москва,Москва,,,55.742395,37.647158,branch
Георгиевское подворье,грузинский ресторан,Рестораны; Доставка еды; Точки кофе,"Малая Грузинская улица, 20/13 ст1",цокольный этаж,123242.0,Пресненский,Москва,Москва,4.2,45.0,55.765099,37.572443,branch
Главдонер,кафе быстрого питания,Кофейни; Быстрое питание; Доставка еды,"Новослободская улица, 26 ст1",,127055.0,Тверской,Москва,Москва,3.0,2.0,55.783333,37.597745,branch
Голубка,кофейня,Кофейни; Кафе-кондитерские,"Комсомольский проспект, 5/2",1 этаж,119021.0,Хамовники,Москва,Москва,4.6,17.0,55.732015,37.592707,branch
Грабли Box,,Быстрое питание; Доставка еды; Точки кофе,"Большой Саввинский переулок, 12 ст12",1 этаж,119435.0,Хамовники,Москва,Москва,4.2,13.0,55.731816,37.560528,branch
Гринери,кофейня,Кофейни,"Таганская улица, 24 ст1",цокольный этаж,109147.0,Таганский,Москва,Москва,5.0,7.0,55.740022,37.662021,branch
Гудмоня,кофейня,Кофейни,"Селезнёвская улица, 11а ст2","3 этаж; Налево от лифта, до конца",127473.0,Тверской,Москва,Москва,,,55.781182,37.603627,branch
Гюго,кофейня,Кофейни; Продажа кофе,"Овчинниковская набережная, 6 ст1",1 этаж,115035.0,Замоскворечье,Москва,Москва,5.0,5.0,55.745493,37.628548,branch
Даблби,кофейня,Кофейни,"Ленинский проспект, 30",,119334.0,Донской,Москва,Москва,4.3,6.0,55.711107,37.585318,branch
Даблби,кофейня,Кофейни,"Волочаевская улица, 15 к1",,111033.0,Лефортово,Москва,Москва,5.0,1.0,55.750884,37.677757,branch
Даблби,кофейня,Кофейни; Продажа кофе,"Донская улица, 31",,115419.0,Донской,Москва,Москва,3.0,5.0,55.719937,37.60622,branch
Даблби,кофейня,Кофейни,"Большая Никитская улица, 17 ст2",1 этаж,125009.0,Пресненский,Москва,Москва,4.8,6.0,55.756826,37.603174,branch
Даблби,кофейня,Кофейни,"Космодамианская набережная, 52 ст3",1 этаж,115035.0,Замоскворечье,Москва,Москва,3.5,4.0,55.73264,37.644994,branch
Даблби,кофейня,Кофейни; Продажа кофе,"Овчинниковская набережная, 18/1 ст2",В блок; 1 этаж,115035.0,Замоскворечье,Москва,Москва,4.9,7.0,55.744536,37.633459,branch
Даблби,кофейня,Кофейни; Продажа кофе; Продажа чая,"4-я Тверская-Ямская улица, 27",1 этаж,125047.0,Тверской,Москва,Москва,4.1,13.0,55.773261,37.595506,branch
Даблби,кофейня,Кофейни,"Страстной бульвар, 10/1",1 этаж,107031.0,Тверской,Москва,Москва,4.7,11.0,55.766689,37.610756,branch
Даблби,кофейня,Кофейни; Продажа кофе,"улица Тимура Фрунзе, 11 ст33",,119021.0,Хамовники,Москва,Москва,4.7,24.0,55.73529,37.587557,branch
Даблби,кофейня,Кофейни; Продажа кофе,"Смоленская площадь, 5",-1 этаж,121099.0,Арбат,Москва,Москва,4.0,8.0,55.748468,37.581079,branch
Даблби,кофейня,Кофейни; Продажа кофе; Продажа чая,"Большой Толмачёвский переулок, 4 ст1",,119017.0,Якиманка,Москва,Москва,4.3,22.0,55.740925,37.622817,branch
Даблби,кофейня,Кофейни; Продажа кофе,"Самарская улица, 1",1 этаж,129110.0,Мещанский,Москва,Москва,3.3,12.0,55.784563,37.626432,branch
Даблби,кофейня,Кофейни; Доставка еды; Интересные здания,"улица Большая Якиманка, 14",1 этаж,119180.0,Якиманка,Москва,Москва,4.5,19.0,55.739398,37.614775,branch
Даблби,кофейня,Кофейни; Продажа кофе,"улица Коровий Вал, 5",1 этаж,119049.0,Замоскворечье,Москва,Москва,4.4,21.0,55.728041,37.620094,branch
Даблби,кофейня,Кофейни,"Берсеневская набережная, 8 ст1",1 этаж,119072.0,Якиманка,Москва,Москва,4.4,27.0,55.741269,37.609335,branch
Даблби,кофейня,Кофейни; Продажа кофе,"Пресненская набережная, 10",1 этаж,123112.0,Пресненский,Москва,Москва,4.7,7.0,55.746503,37.537266,branch
