title,extension,content,address,address_comment,postal,district,city,region,rating,rating_cnt,lat,lon,type
Азбука daily,минимаркет,Супермаркеты; Доставка продуктов,"Олимпийский проспект, 30 ст1",1 этаж,129272.0,Мещанский,Москва,Москва,4.3,10.0,55.791036,37.622789,branch
Азбука daily,супермаркет,Супермаркеты; Доставка продуктов,"Никольская улица, 10",-1 этаж,109012.0,Тверской,Москва,Москва,,,55.758344,37.624462,branch
Азбука daily,супермаркет,Супермаркеты; Доставка продуктов,"Дубининская улица, 59а",1 этаж,115054.0,Даниловский,Москва,Москва,3.7,3.0,55.718945,37.635564,branch
Азбука daily,супермаркет,Супермаркеты; Доставка продуктов,"Мантулинская улица, 9 к3",1 этаж,123100.0,Пресненский,Москва,Москва,5.0,1.0,55.754229,37.544959,branch
Азбука daily,супермаркет,Супермаркеты; Доставка продуктов,"Кутузовский проспект, 32 к1",1 этаж,121170.0,Дорогомилово,Москва,Москва,4.7,13.0,55.741102,37.531104,branch
Азбука daily,супермаркет,Супермаркеты; Доставка продуктов,"улица Петровка, 19 ст1",1 этаж,107031.0,Тверской,Москва,Москва,4.4,28.0,55.765228,37.61607,branch
Азбука daily,супермаркет,Супермаркеты; Доставка продуктов,"Страстной бульвар, 6 ст1",1 этаж,125375.0,Тверской,Москва,Москва,4.1,21.0,55.765829,37.608716,branch
Азбука daily,супермаркет,Супермаркеты; Доставка продуктов,"улица Остоженка, 42/2",1 этаж,119034.0,Хамовники,Москва,Москва,4.4,18.0,55.737396,37.594859,branch
Азбука daily,супермаркет,Супермаркеты; Доставка продуктов,"улица Верхняя, 20 к1",1 этаж,125040.0,Беговой,Москва,Москва,4.1,13.0,55.77961,37.572724,branch
Азбука daily,супермаркет,Супермаркеты; Доставка продуктов,"Лялин переулок, 11-13/1 ст2",1 этаж,101000.0,Басманный,Москва,Москва,4.6,9.0,55.758383,37.652719,branch
Азбука daily,супермаркет,Супермаркеты; Доставка продуктов,"улица Сретенка, 1","цокольный, 1 этаж; вход с торца",107045.0,Мещанский,Москва,Москва,4.6,21.0,55.766623,37.631213,branch
Азбука daily,супермаркет,Супермаркеты; Доставка продуктов,"Долгоруковская улица, 40",1 этаж,127006.0,Тверской,Москва,Москва,4.5,17.0,55.779217,37.602684,branch
Азбука daily,супермаркет,Супермаркеты; Доставка продуктов,"Никольская улица, 10",1 этаж,109012.0,Тверской,Москва,Москва,4.6,22.0,55.758365,37.624467,branch
Азбука daily,супермаркет,Супермаркеты; Доставка продуктов; Доставка еды,"улица Пречистенка, 24/1",1 этаж,119034.0,Хамовники,Москва,Москва,4.9,9.0,55.742043,37.59354,branch
Азбука daily,супермаркет,Супермаркеты; Доставка продуктов,"Мытная улица, 7 ст1",1-2 этаж,119049.0,Замоскворечье,Москва,Москва,3.9,10.0,55.721645,37.617654,branch
Азбука daily,супермаркет,Супермаркеты; Доставка продуктов,"Малая Пироговская улица, 21",1 этаж,119435.0,Хамовники,Москва,Москва,4.2,9.0,55.727375,37.566742,branch
Азбука daily,супермаркет,Супермаркеты; Доставка продуктов,"улица Остоженка, 10",1 этаж,119034.0,Хамовники,Москва,Москва,4.7,15.0,55.742572,37.600065,branch
Азбука daily,супермаркет,Супермаркеты; Доставка продуктов,"улица Садовая-Триумфальная, 18-20",1 этаж,127006.0,Тверской,Москва,Москва,3.6,19.0,55.77167,37.602819,branch
Азбука daily,супермаркет,Супермаркеты; Доставка продуктов,"Большая Садовая улица, 5 к1",1 этаж,123001.0,Пресненский,Москва,Москва,4.2,14.0,55.769526,37.591574,branch
Азбука daily,супермаркет,Супермаркеты; Доставка продуктов,"Большая Грузинская улица, 16",1 этаж,123242.0,Пресненский,Москва,Москва,4.7,13.0,55.764708,37.578785,branch
Азбука daily,супермаркет,Супермаркеты; Доставка продуктов,"Большая Татарская улица, 30",1 этаж,115184.0,Замоскворечье,Москва,Москва,4.3,9.0,55.738672,37.633927,branch
Азбука daily,супермаркет,Супермаркеты; Доставка продуктов,"Кутузовский проспект, 18",,121151.0,Дорогомилово,Москва,Москва,3.9,5.0,55.746964,37.552866,branch
Азбука daily,супермаркет,Супермаркеты; Доставка продуктов,"улица Поликарпова, 17/2",1 этаж,125284.0,Хорошёвский,Москва,Москва,4.6,54.0,55.777887,37.549453,branch
Азбука daily,супермаркет,Супермаркеты; Доставка продуктов,"Новинский бульвар, 31",1 этаж,123242.0,Пресненский,Москва,Москва,4.5,20.0,55.757584,37.583323,branch
Азбука daily,супермаркет,Супермаркеты; Доставка продуктов,"улица Плющиха, 44/2",,119121.0,Хамовники,Москва,Москва,4.4,30.0,55.739624,37.5758,branch
Азбука daily,супермаркет,Супермаркеты; Доставка продуктов,"Тверская улица, 27 ст2",1 этаж,125009.0,Тверской,Москва,Москва,4.3,25.0,55.76894,37.597236,branch
Азбука daily,супермаркет,Супермаркеты; Доставка продуктов,"Кутузовский проспект, 36а",1 этаж,121170.0,Дорогомилово,Москва,Москва,4.5,30.0,55.738635,37.526069,branch
Азбука daily,супермаркет,Супермаркеты; Доставка продуктов,"Смоленская-Сенная площадь, 27 ст1а",,119121.0,Хамовники,Москва,Москва,4.6,17.0,55.745233,37.582649,branch
Азбука daily,супермаркет,Супермаркеты; Доставка продуктов,"Пятницкая улица, 13 ст1",1 этаж,115035.0,Замоскворечье,Москва,Москва,4.3,13.0,55.743762,37.628213,branch
Азбука daily,супермаркет,Супермаркеты; Доставка продуктов,"2-я Фрунзенская улица, 10",1 этаж,119146.0,Хамовники,Москва,Москва,3.3,2.0,55.723507,37.581513,branch
Азбука daily,супермаркет,Супермаркеты; Доставка продуктов,"Тверская улица, 5/6",1 этаж,125009.0,Тверской,Москва,Москва,4.6,44.0,55.758095,37.612365,branch
Азбука daily,супермаркет,Супермаркеты; Доставка продуктов,"Бауманская улица, 32 ст2",1 этаж,105005.0,Басманный,Москва,Москва,4.5,11.0,55.772368,37.677976,branch
Азбука daily,супермаркет,Супермаркеты; Доставка продуктов,"улица Покровка, 15/16 ст1",1 этаж,101000.0,Басманный,Москва,Москва,4.2,23.0,55.759472,37.644995,branch
Азбука daily,супермаркет,Супермаркеты; Доставка продуктов,"проспект Мира, 49",1 этаж,129110.0,Мещанский,Москва,Москва,2.8,12.0,55.783482,37.634043,branch
Азбука daily,супермаркет,Супермаркеты; Доставка продуктов,"Цветной бульвар, 25 ст1",1 этаж,127051.0,Тверской,Москва,Москва,4.5,17.0,55.773077,37.620828,branch
Азбука daily,супермаркет,Супермаркеты; Доставка продуктов,"Новокузнецкая улица, 1",1 этаж,115184.0,Замоскворечье,Москва,Москва,4.6,48.0,55.740728,37.629922,branch
Азбука daily,супермаркет,Супермаркеты; Доставка продуктов,"улица Бутырский Вал, 10",1 этаж,125196.0,Тверской,Москва,Москва,4.9,10.0,55.778441,37.585653,branch
Азбука Вкуса,супермаркет,Супермаркеты; Доставка продуктов,"проезд Шелихова, 1 к1",,111033.0,Лефортово,Москва,Москва,,,55.748979,37.689321,branch
Азбука Вкуса,супермаркет,Супермаркеты; Доставка продуктов,"улица Сергея Макеева, 9 к1",1 этаж,123100.0,Пресненский,Москва,Москва,4.0,29.0,55.760677,37.55032,branch
Азбука Вкуса,супермаркет,Супермаркеты; Доставка продуктов,"Пресненская набережная, 12",1 этаж,123112.0,Пресненский,Москва,Москва,4.0,51.0,55.749725,37.538208,branch
Азбука Вкуса,супермаркет,Супермаркеты; Доставка продуктов,"улица Арбат, 54/2 ст1",1 этаж,119002.0,Арбат,Москва,Москва,4.6,93.0,55.747144,37.583107,branch
Азбука Вкуса,супермаркет,Супермаркеты; Доставка продуктов,"Делегатская улица, 9 ст1",1 этаж,127473.0,Тверской,Москва,Москва,4.8,61.0,55.775689,37.613833,branch
Азбука Вкуса,супермаркет,Супермаркеты; Доставка продуктов,"Большая Грузинская улица, 63 ст1",,123056.0,Пресненский,Москва,Москва,4.8,60.0,55.772988,37.585176,branch
Азбука Вкуса,супермаркет,Супермаркеты; Доставка продуктов,"улица Серафимовича, 2",1 этаж,119072.0,Якиманка,Москва,Москва,4.6,67.0,55.744613,37.613061,branch
Азбука Вкуса,супермаркет,Супермаркеты; Доставка продуктов,"улица Симоновский Вал, 12 к2",1 этаж,115088.0,Даниловский,Москва,Москва,4.7,69.0,55.724615,37.662926,branch
Азбука Вкуса,супермаркет,Супермаркеты; Доставка продуктов,"Хорошёвское шоссе, 52 к1",,123007.0,Хорошёвский,Москва,Москва,4.8,89.0,55.776559,37.533105,branch
Азбука Вкуса,супермаркет,Супермаркеты; Доставка продуктов,"Марксистская улица, 38",-1 этаж,109147.0,Таганский,Москва,Москва,4.9,15.0,55.733862,37.667599,branch
Азбука Вкуса,супермаркет,Супермаркеты; Доставка продуктов,"Бакунинская улица, 26-30 ст1",1 этаж,105082.0,Басманный,Москва,Москва,4.7,72.0,55.775209,37.685137,branch
Азбука Вкуса,супермаркет,Супермаркеты; Доставка продуктов,"улица Красная Пресня, 14",1 этаж,123242.0,Пресненский,Москва,Москва,4.5,14.0,55.761666,37.572352,branch
Азбука Вкуса,супермаркет,Супермаркеты,"Нижегородская улица, 16",1 этаж,109029.0,Таганский,Москва,Москва,4.7,61.0,55.737709,37.683489,branch
Азбука Вкуса,супермаркет,Супермаркеты; Доставка продуктов,"Ленинский проспект, 21",,119071.0,Донской,Москва,Москва,4.7,60.0,55.717942,37.595922,branch
Азбука Вкуса,супермаркет,Супермаркеты; Доставка продуктов,"Проточный переулок, 11",цокольный этаж,121099.0,Арбат,Москва,Москва,4.8,21.0,55.750147,37.578408,branch
Азбука Вкуса,супермаркет,Супермаркеты; Доставка продуктов,"Таганская площадь, 12/4 ст5",1 этаж,109044.0,Таганский,Москва,Москва,4.8,107.0,55.740256,37.653899,branch
Азбука Вкуса,супермаркет,Супермаркеты; Доставка продуктов,"улица Большая Якиманка, 32",1 этаж,119049.0,Якиманка,Москва,Москва,4.2,32.0,55.735387,37.612858,branch
Азбука Вкуса,супермаркет,Супермаркеты; Доставка продуктов,"Ленинский проспект, 34/1",,119334.0,Гагаринский,Москва,Москва,4.6,68.0,55.707137,37.578178,branch
Азбука Вкуса,супермаркет,Супермаркеты; Доставка продуктов,"улица Чаянова, 14",1 этаж,125047.0,Тверской,Москва,Москва,4.5,21.0,55.776321,37.596412,branch
Азбука Вкуса,супермаркет,Супермаркеты; Доставка продуктов,"Трубная площадь, 2",1 этаж,107031.0,Мещанский,Москва,Москва,4.5,41.0,55.766103,37.622188,branch
Азбука Вкуса,супермаркет,Супермаркеты; Доставка продуктов,"2-я Тверская-Ямская улица, 54",1 этаж,125047.0,Тверской,Москва,Москва,4.4,33.0,55.775457,37.589409,branch
Азбука Вкуса,супермаркет,Супермаркеты; Доставка продуктов,"Садовая-Черногрязская улица, 13/3 ст1",1 этаж,105064.0,Басманный,Москва,Москва,4.6,105.0,55.76469,37.656013,branch
Азбука Вкуса,супермаркет,Супермаркеты; Доставка продуктов,"Русаковская улица, 22",1 этаж,107014.0,Сокольники,Москва,Москва,4.2,35.0,55.786353,37.678347,branch
Азбука Вкуса,супермаркет,Супермаркеты; Доставка продуктов,"проспект Мира, 58",1 этаж,129110.0,Мещанский,Москва,Москва,4.4,27.0,55.785661,37.636042,branch
Азбука Вкуса,супермаркет,Супермаркеты; Доставка продуктов,"Новинский бульвар, 8",-1 этаж,121099.0,Арбат,Москва,Москва,4.8,66.0,55.75134,37.584442,branch
Азбука Вкуса,супермаркет,Супермаркеты; Доставка продуктов,"Николоямский переулок, 2",1 этаж,109004.0,Таганский,Москва,Москва,4.4,20.0,55.749354,37.662617,branch
Азбука Вкуса,супермаркет,Супермаркеты; Доставка продуктов,"Люсиновская улица, 60",1 этаж,115162.0,Даниловский,Москва,Москва,4.4,14.0,55.718274,37.622063,branch
Азбука Вкуса,супермаркет,Супермаркеты; Доставка продуктов,"Большая Грузинская улица, 42",1 этаж,123056.0,Пресненский,Москва,Москва,4.8,71.0,55.768708,37.580885,branch
Азбука Вкуса,супермаркет,Супермаркеты; Доставка продуктов,"Старая Басманная улица, 28/2",1 этаж,105066.0,Басманный,Москва,Москва,4.7,54.0,55.768195,37.667614,branch
Азбука Вкуса,супермаркет,Супермаркеты; Доставка продуктов,"Комсомольский проспект, 34",1 этаж,119146.0,Хамовники,Москва,Москва,4.1,25.0,55.724404,37.577544,branch
Азбука Вкуса,супермаркет,Супермаркеты; Доставка продуктов,"Комсомольский проспект, 4",1 этаж,119021.0,Хамовники,Москва,Москва,4.3,20.0,55.733181,37.592479,branch
Азбука Вкуса,супермаркет,Супермаркеты; Доставка продуктов,"Валовая улица, 8/18",1 этаж,115054.0,Замоскворечье,Москва,Москва,4.3,30.0,55.730799,37.631242,branch
Азбука Вкуса,супермаркет,Супермаркеты; Доставка продуктов,"Большая Дорогомиловская улица, 16",1 этаж,121248.0,Дорогомилово,Москва,Москва,4.7,43.0,55.746738,37.557244,branch
ВкусВилл,микромаркет,Супермаркеты,"Вятская улица, 27 к3",1 этаж,127015.0,Савёловский,Москва,Москва,5.0,1.0,55.797003,37.581902,branch
ВкусВилл,склад,Супермаркеты; Доставка продуктов,"Центросоюзный переулок, 21а ст29",,105082.0,Басманный,Москва,Москва,,,55.781466,37.687598,branch
ВкусВилл,супермаркет,Супермаркеты,"площадь Киевского вокзала, 2",,121059.0,Дорогомилово,Москва,Москва,,,55.744298,37.566888,branch
ВкусВилл,супермаркет,Супермаркеты,"Береговой проезд, 1Б",,121087.0,Филёвский парк,Москва,Москва,5.0,1.0,55.755595,37.513655,branch
ВкусВилл,супермаркет,Супермаркеты,"Кудринская площадь, 1",,123242.0,Пресненский,Москва,Москва,3.2,2.0,55.759615,37.581603,branch
ВкусВилл,супермаркет,Супермаркеты,"Пресненская набережная, 2",,123112.0,Пресненский,Москва,Москва,5.0,3.0,55.749787,37.542484,branch
ВкусВилл,супермаркет,Супермаркеты,"Люсиновская улица, 4",,115093.0,Замоскворечье,Москва,Москва,3.0,2.0,55.727645,37.62256,branch
ВкусВилл,супермаркет,Супермаркеты,"Бауманская улица, 47",,105005.0,Басманный,Москва,Москва,3.1,2.0,55.768917,37.680555,branch
ВкусВилл,супермаркет,Супермаркеты,"Большой Саввинский переулок, 3",,119435.0,Хамовники,Москва,Москва,3.3,2.0,55.735786,37.56999,branch
ВкусВилл,супермаркет,Супермаркеты,"улица Сокольнический Вал, 3",1 этаж,107113.0,Сокольники,Москва,Москва,,,55.793985,37.654061,branch
ВкусВилл,супермаркет,Супермаркеты; Доставка продуктов,"улица Щипок, 2",цокольный этаж,115093.0,Замоскворечье,Москва,Москва,1.9,1.0,55.726759,37.628725,branch
ВкусВилл,супермаркет,Супермаркеты,"Стремянный переулок, 2",1 этаж,115054.0,Замоскворечье,Москва,Москва,4.0,1.0,55.728563,37.636147,branch
ВкусВилл,супермаркет,Супермаркеты,"улица Барболина, 2",,107014.0,Сокольники,Москва,Москва,5.0,1.0,55.787898,37.68537,branch
ВкусВилл,супермаркет,Супермаркеты,"улица Красная Пресня, 23 к Б ст1",1 этаж,123376.0,Пресненский,Москва,Москва,3.4,4.0,55.761781,37.568302,branch
ВкусВилл,супермаркет,Супермаркеты,"улица Шаболовка, 23 к1",,119049.0,Якиманка,Москва,Москва,5.0,1.0,55.722884,37.612899,branch
ВкусВилл,супермаркет,Супермаркеты; Доставка продуктов; Кулинарии; Доставка еды,"улица Коровий Вал, 1а ст1",1 этаж,119049.0,Замоскворечье,Москва,Москва,1.7,1.0,55.729399,37.622131,branch
ВкусВилл,супермаркет,Супермаркеты,"Кожевническая улица, 5 ст1",1 этаж,115114.0,Замоскворечье,Москва,Москва,5.0,2.0,55.730097,37.644388,branch
ВкусВилл,супермаркет,Супермаркеты; Доставка продуктов; Доставка еды; Кулинарии,"Рабочая улица, 13",1 этаж,109544.0,Таганский,Москва,Москва,1.9,1.0,55.744665,37.682737,branch
ВкусВилл,супермаркет,Супермаркеты; Доставка еды,"Маргелова улица, 3 к5",,125284.0,Хорошёвский,Москва,Москва,5.0,3.0,55.777694,37.542354,branch
ВкусВилл,супермаркет,Супермаркеты,"проспект Мира, 102 к2",1 этаж,129626.0,Алексеевский,Москва,Москва,4.8,12.0,55.801337,37.636551,branch
ВкусВилл,супермаркет,Супермаркеты,"улица 1905 года, 1",1 этаж,123100.0,Пресненский,Москва,Москва,4.8,3.0,55.757811,37.558039,branch
ВкусВилл,супермаркет,Супермаркеты,"Охотный Ряд улица, 2",1 этаж,103265.0,Тверской,Москва,Москва,4.5,34.0,55.757827,37.617788,branch
ВкусВилл,супермаркет,Супермаркеты; Кулинарии; Доставка продуктов; Доставка еды,"Рубцовская набережная, 4 к2",,105082.0,Басманный,Москва,Москва,1.4,1.0,55.775537,37.699058,branch
ВкусВилл,супермаркет,Супермаркеты; Кулинарии; Доставка продуктов; Доставка еды,"шоссе Энтузиастов, 1 к2",,111033.0,Лефортово,Москва,Москва,5.0,2.0,55.747664,37.68824,branch
ВкусВилл,супермаркет,Супермаркеты; Доставка продуктов,"Верхняя Радищевская улица, 17/2 ст2",1 этаж,109240.0,Таганский,Москва,Москва,4.2,5.0,55.743225,37.652741,branch
ВкусВилл,супермаркет,Супермаркеты,"Пресненская набережная, 10 ст2",-1 этаж,123112.0,Пресненский,Москва,Москва,4.0,6.0,55.747633,37.535388,branch
ВкусВилл,супермаркет,Супермаркеты; Доставка продуктов; Кулинарии; Доставка еды,"Мукомольный проезд, 2",,123290.0,Пресненский,Москва,Москва,4.0,6.0,55.750381,37.526661,branch
ВкусВилл,супермаркет,Супермаркеты; Доставка продуктов; Доставка еды; Кулинарии,"Плетешковский переулок, 10",1 этаж,105005.0,Басманный,Москва,Москва,4.9,3.0,55.770406,37.674954,branch
ВкусВилл,супермаркет,Супермаркеты; Кулинарии; Доставка продуктов; Доставка еды,"Большая Почтовая улица, 28",,105082.0,Басманный,Москва,Москва,5.0,3.0,55.77967,37.699075,branch
ВкусВилл,супермаркет,Супермаркеты; Доставка продуктов,"Русаковская улица, 25 ст1",,107113.0,Сокольники,Москва,Москва,4.0,2.0,55.786302,37.676396,branch
ВкусВилл,супермаркет,Супермаркеты; Доставка продуктов,"Протопоповский переулок, 16",,129090.0,Мещанский,Москва,Москва,4.4,7.0,55.779336,37.640958,branch
ВкусВилл,супермаркет,Супермаркеты,"Береговой проезд, 3",1 этаж,121087.0,Филёвский парк,Москва,Москва,,,55.75797,37.509752,branch
ВкусВилл,супермаркет,Супермаркеты; Доставка продуктов,"Ладожская улица, 11",1 этаж,105005.0,Басманный,Москва,Москва,4.9,16.0,55.771873,37.684034,branch
ВкусВилл,супермаркет,Супермаркеты; Доставка продуктов,"Мясницкая улица, 17 ст1",1 этаж,101000.0,Красносельский,Москва,Москва,4.8,57.0,55.763547,37.635606,branch
ВкусВилл,супермаркет,Супермаркеты; Доставка продуктов,"улица Большая Полянка, 9",1 этаж,119180.0,Якиманка,Москва,Москва,4.2,11.0,55.740175,37.617384,branch
ВкусВилл,супермаркет,Супермаркеты; Доставка продуктов; Кулинарии; Доставка еды,"Большая Филёвская улица, 3 к3",1 этаж,121087.0,Филёвский парк,Москва,Москва,5.0,8.0,55.748849,37.517134,branch
ВкусВилл,супермаркет,Супермаркеты; Доставка продуктов,"улица Верхняя, 20 к1",1 этаж,125040.0,Беговой,Москва,Москва,5.0,2.0,55.779008,37.574281,branch
ВкусВилл,супермаркет,Супермаркеты; Кулинарии; Доставка еды; Доставка продуктов,"Садовнический проезд, 6",1 этаж,115035.0,Замоскворечье,Москва,Москва,4.7,23.0,55.741611,37.629416,branch
ВкусВилл,супермаркет,Супермаркеты; Доставка еды,"улица Госпитальный Вал, 22/2",1 этаж,111020.0,Лефортово,Москва,Москва,4.4,9.0,55.773772,37.711902,branch
ВкусВилл,супермаркет,Супермаркеты; Кулинарии; Доставка продуктов; Доставка еды,"Шмитовский проезд, 39 к2",1 этаж,123290.0,Пресненский,Москва,Москва,4.4,22.0,55.753428,37.524886,branch
ВкусВилл,супермаркет,Супермаркеты; Доставка продуктов; Доставка еды,"улица 1905 года, 11 ст1",1 этаж,123022.0,Пресненский,Москва,Москва,4.7,21.0,55.764764,37.560619,branch
ВкусВилл,супермаркет,Супермаркеты; Доставка продуктов; Доставка еды; Кулинарии,"улица Мельникова, 3 к1",1 этаж,109316.0,Южнопортовый,Москва,Москва,4.8,26.0,55.726854,37.676953,branch
ВкусВилл,супермаркет,Супермаркеты; Доставка продуктов; Кулинарии; Доставка еды,"Лесная улица, 45",1 этаж,127055.0,Тверской,Москва,Москва,4.4,5.0,55.781083,37.592019,branch
ВкусВилл,супермаркет,Супермаркеты; Доставка продуктов; Доставка еды; Кулинарии,"Николоямская улица, 29 ст1",1 этаж,109004.0,Таганский,Москва,Москва,4.4,9.0,55.747312,37.656807,branch
ВкусВилл,супермаркет,Супермаркеты; Доставка продуктов,"Новозаводская улица, 8",1 этаж,121087.0,Филёвский парк,Москва,Москва,4.7,17.0,55.751734,37.50851,branch
ВкусВилл,супермаркет,Супермаркеты; Доставка продуктов; Доставка еды,"Фрунзенская набережная, 34",1 этаж,119146.0,Хамовники,Москва,Москва,4.8,26.0,55.722265,37.586077,branch
ВкусВилл,супермаркет,Супермаркеты; Доставка продуктов; Доставка еды; Кулинарии,"Октябрьская улица, 89",,127521.0,Марьина Роща,Москва,Москва,4.8,13.0,55.796444,37.612622,branch
ВкусВилл,супермаркет,Супермаркеты; Доставка продуктов; Кулинарии; Доставка еды,"Шелепихинская набережная, 34 к1",1 этаж,123290.0,Хорошёво-Мнёвники,Москва,Москва,3.8,11.0,55.760858,37.513479,branch
ВкусВилл,супермаркет,Супермаркеты; Доставка продуктов; Кулинарии; Доставка еды,"Шарикоподшипниковская улица, 6/14",1 этаж,115088.0,Южнопортовый,Москва,Москва,4.7,42.0,55.72028,37.673393,branch
ВкусВилл,супермаркет,Супермаркеты; Кулинарии; Доставка продуктов; Доставка еды,"Бутырская улица, 2/18",1 этаж,127015.0,Бутырский,Москва,Москва,4.5,34.0,55.794227,37.586853,branch
ВкусВилл,супермаркет,Супермаркеты; Доставка продуктов; Кулинарии; Доставка еды,"улица Арбат, 1",1 этаж,119019.0,Арбат,Москва,Москва,4.8,23.0,55.75204,37.599578,branch
ВкусВилл,супермаркет,Супермаркеты; Кулинарии; Доставка продуктов; Доставка еды,"переулок Сивцев Вражек, 20",1 этаж,119002.0,Арбат,Москва,Москва,4.6,10.0,55.747794,37.593793,branch
ВкусВилл,супермаркет,Супермаркеты; Кулинарии; Доставка продуктов; Доставка еды,"2-я Звенигородская улица, 11",,123022.0,Пресненский,Москва,Москва,4.6,42.0,55.761442,37.554685,branch
ВкусВилл,супермаркет,Супермаркеты; Кулинарии; Доставка продуктов; Доставка еды,"Новинский бульвар, 18 ст1",1 этаж,121069.0,Арбат,Москва,Москва,4.3,21.0,55.754651,37.584499,branch
ВкусВилл,супермаркет,Супермаркеты; Доставка продуктов; Кулинарии; Доставка еды,"Комсомольский проспект, 27 ст5",1 этаж,119146.0,Хамовники,Москва,Москва,4.2,9.0,55.725529,37.580732,branch
ВкусВилл,супермаркет,Супермаркеты; Доставка продуктов; Кулинарии; Доставка еды,"улица Пречистенка, 31/16",1 этаж,119034.0,Хамовники,Москва,Москва,2.7,11.0,55.740044,37.589989,branch
ВкусВилл,супермаркет,Супермаркеты; Доставка продуктов; Кулинарии; Доставка еды,"улица Сретенка, 26/1",1 этаж,107045.0,Красносельский,Москва,Москва,4.5,21.0,55.770466,37.63268,branch
ВкусВилл,супермаркет,Супермаркеты; Доставка продуктов; Кулинарии; Доставка еды,"Комсомольский проспект, 48/22",1 этаж,119048.0,Хамовники,Москва,Москва,4.8,20.0,55.719719,37.57119,branch
ВкусВилл,супермаркет,Супермаркеты; Доставка продуктов; Кулинарии; Доставка еды,"Люсиновская улица, 70 ст2",,115162.0,Даниловский,Москва,Москва,4.0,3.0,55.714935,37.620531,branch
ВкусВилл,супермаркет,Супермаркеты; Доставка продуктов; Кулинарии; Доставка еды,"Чистопрудный бульвар, 9 ст1",1 этаж,101000.0,Басманный,Москва,Москва,4.2,17.0,55.762643,37.644039,branch
ВкусВилл,супермаркет,Супермаркеты; Доставка продуктов; Кулинарии; Доставка еды,"Новорогожская улица, 6 ст1",1 этаж,109544.0,Таганский,Москва,Москва,4.4,29.0,55.741568,37.682488,branch
ВкусВилл,супермаркет,Супермаркеты; Кулинарии; Доставка продуктов; Доставка еды,"улица Зацепский Вал, 4 ст2",,115054.0,Замоскворечье,Москва,Москва,4.6,8.0,55.733031,37.639795,branch
ВкусВилл,супермаркет,Супермаркеты; Доставка продуктов; Кулинарии; Доставка еды,"Таганская улица, 26 ст1",1 этаж,109147.0,Таганский,Москва,Москва,3.3,7.0,55.739791,37.663602,branch
ВкусВилл,супермаркет,Супермаркеты; Доставка продуктов; Кулинарии; Доставка еды,"Валовая улица, 32/75 ст1",1 этаж,115054.0,Замоскворечье,Москва,Москва,4.6,12.0,55.73018,37.625743,branch
ВкусВилл,супермаркет,Супермаркеты; Доставка продуктов; Кулинарии; Доставка еды,"Садовническая улица, 51 ст1",1 этаж,115035.0,Замоскворечье,Москва,Москва,4.3,19.0,55.742926,37.639502,branch
ВкусВилл,супермаркет,Супермаркеты; Доставка продуктов; Кулинарии; Доставка еды,"Шелепихинское шоссе, 17 к1",,123290.0,Пресненский,Москва,Москва,4.2,9.0,55.75913,37.52119,branch
ВкусВилл,супермаркет,Супермаркеты; Доставка продуктов; Кулинарии; Доставка еды,"3-я улица Ямского Поля, 9",1 этаж; ресторан Lure Oyster Bar,125124.0,Беговой,Москва,Москва,4.1,10.0,55.781701,37.581283,branch
ВкусВилл,супермаркет,Супермаркеты; Доставка продуктов; Кулинарии; Доставка еды,"Кутузовский проспект, 35",1 этаж,121165.0,Дорогомилово,Москва,Москва,4.6,19.0,55.740482,37.537728,branch
ВкусВилл,супермаркет,Супермаркеты; Доставка продуктов; Кулинарии; Доставка еды,"проспект Мира, 56 ст2",1 этаж,129110.0,Мещанский,Москва,Москва,4.7,24.0,55.783992,37.635307,branch
ВкусВилл,супермаркет,Супермаркеты; Доставка продуктов; Кулинарии; Доставка еды,"Смоленский бульвар, 1",1 этаж; 1 этаж,119121.0,Хамовники,Москва,Москва,4.7,27.0,55.738993,37.585026,branch
ВкусВилл,супермаркет,Супермаркеты; Доставка продуктов; Кулинарии; Доставка еды,"Малый Палашёвский переулок, 6",1 этаж,123104.0,Тверской,Москва,Москва,4.5,20.0,55.765335,37.602665,branch
ВкусВилл,супермаркет,Супермаркеты; Доставка продуктов; Кулинарии; Доставка еды,"Верхняя Радищевская улица, 22",1 этаж,109240.0,Таганский,Москва,Москва,4.3,11.0,55.742784,37.653196,branch
ВкусВилл,супермаркет,Супермаркеты; Доставка продуктов; Кулинарии; Доставка еды,"Большая Садовая улица, 1",,123001.0,Пресненский,Москва,Москва,4.3,21.0,55.766172,37.59053,branch
ВкусВилл,супермаркет,Супермаркеты; Доставка продуктов; Кулинарии; Доставка еды,"Большая Серпуховская улица, 50/2 ст1",1 этаж,115093.0,Замоскворечье,Москва,Москва,4.6,8.0,55.721579,37.627141,branch
ВкусВилл,супермаркет,Супермаркеты; Доставка продуктов; Кулинарии; Доставка еды,"Большая Филёвская улица, 4",1 этаж,121087.0,Филёвский парк,Москва,Москва,4.4,6.0,55.75389,37.511563,branch
ВкусВилл,супермаркет,Супермаркеты; Доставка продуктов; Кулинарии; Доставка еды,"Багратионовский проезд, 1а к1",1 этаж,121087.0,Филёвский парк,Москва,Москва,3.0,7.0,55.745849,37.512845,branch
ВкусВилл,супермаркет,Супермаркеты; Доставка продуктов; Кулинарии; Доставка еды,"улица Остоженка, 20",1 этаж,119034.0,Хамовники,Москва,Москва,4.1,23.0,55.741215,37.598338,branch
ВкусВилл,супермаркет,Супермаркеты; Доставка продуктов; Кулинарии; Доставка еды,"Большой Кисловский переулок, 4",1 этаж,125009.0,Арбат,Москва,Москва,4.3,33.0,55.754324,37.606326,branch
ВкусВилл,супермаркет,Супермаркеты; Доставка продуктов; Кулинарии; Доставка еды,"Селезнёвская улица, 30 к Б-В",1 этаж,127473.0,Тверской,Москва,Москва,4.1,18.0,55.780844,37.611082,branch
ВкусВилл,супермаркет,Супермаркеты; Доставка продуктов; Кулинарии; Доставка еды,"Малая Пироговская улица, 21",1 этаж,119435.0,Хамовники,Москва,Москва,4.1,18.0,55.726808,37.567388,branch
ВкусВилл,супермаркет,Супермаркеты; Доставка продуктов; Кулинарии; Доставка еды,"Волгоградский проспект, 10-12-14 ст2",,109316.0,Таганский,Москва,Москва,4.9,14.0,55.730418,37.673484,branch
ВкусВилл,супермаркет,Супермаркеты; Доставка продуктов; Кулинарии; Доставка еды,"Ленинский проспект, 7",1 этаж,119049.0,Якиманка,Москва,Москва,4.6,32.0,55.724935,37.606234,branch
ВкусВилл,супермаркет,Супермаркеты; Доставка продуктов; Кулинарии; Доставка еды,"Беговая улица, 11",1 этаж,125284.0,Беговой,Москва,Москва,4.3,9.0,55.779267,37.556971,branch
ВкусВилл,супермаркет,Супермаркеты; Доставка продуктов,"Поварская улица, 8",1 этаж,121069.0,Арбат,Москва,Москва,4.4,17.0,55.754173,37.599026,branch
ВкусВилл,супермаркет,Супермаркеты; Доставка продуктов; Кулинарии; Доставка еды,"улица Покровка, 8",1 этаж,101000.0,Басманный,Москва,Москва,4.7,49.0,55.758879,37.642799,branch
ВкусВилл,супермаркет,Супермаркеты; Доставка продуктов; Доставка еды; Кулинарии,"Старая Басманная улица, 38",1 этаж,105066.0,Басманный,Москва,Москва,4.7,30.0,55.769246,37.669254,branch
ВкусВилл,супермаркет,Супермаркеты; Доставка продуктов; Кулинарии; Доставка еды,"улица Шаболовка, 20",1 этаж,119049.0,Якиманка,Москва,Москва,4.3,12.0,55.721532,37.609694,branch
ВкусВилл,супермаркет,Супермаркеты; Доставка продуктов; Кулинарии; Доставка еды,"1-й Смоленский переулок, 21",1 этаж,121099.0,Арбат,Москва,Москва,4.9,15.0,55.749665,37.579431,branch
ВкусВилл,супермаркет,Супермаркеты; Доставка продуктов; Кулинарии; Доставка еды,"Нижняя Красносельская улица, 35 ст48",1 этаж,105066.0,Басманный,Москва,Москва,4.5,17.0,55.774863,37.673066,branch
ВкусВилл,супермаркет,Супермаркеты; Доставка продуктов; Кулинарии; Доставка еды,"Зоологическая улица, 4",1 этаж,123242.0,Пресненский,Москва,Москва,3.4,8.0,55.765562,37.581609,branch
ВкусВилл,супермаркет,Супермаркеты; Доставка продуктов; Кулинарии; Доставка еды,"улица Бутырский Вал, 48",1 этаж,127055.0,Тверской,Москва,Москва,4.8,13.0,55.785288,37.587959,branch
ВкусВилл,супермаркет,Супермаркеты; Доставка продуктов; Кулинарии; Доставка еды,"Киевская улица, 20",1 этаж,121165.0,Дорогомилово,Москва,Москва,4.8,43.0,55.738953,37.547137,branch
ВкусВилл,супермаркет,Супермаркеты; Доставка продуктов; Доставка еды,"улица Щепкина, 5 ст2",1 этаж,129090.0,Мещанский,Москва,Москва,4.6,20.0,55.775003,37.627759,branch
ВкусВилл,супермаркет,Супермаркеты; Доставка продуктов; Кулинарии; Доставка еды,"Малая Грузинская улица, 29",1 этаж,123557.0,Пресненский,Москва,Москва,3.5,12.0,55.768123,37.572062,branch
ВкусВилл,супермаркет,Супермаркеты; Доставка продуктов; Кулинарии; Доставка еды,"Солдатская улица, 8 к1",1 этаж,111250.0,Лефортово,Москва,Москва,4.8,31.0,55.764782,37.702164,branch
ВкусВилл,супермаркет,Супермаркеты; Доставка продуктов; Доставка еды; Кулинарии,"Большой Факельный переулок, 3 ст2",1 этаж,109004.0,Таганский,Москва,Москва,5.0,5.0,55.742561,37.663193,branch
ВкусВилл,супермаркет,Супермаркеты; Доставка продуктов; Кулинарии; Доставка еды,"Денисовский переулок, 22",1 этаж,105005.0,Басманный,Москва,Москва,4.8,18.0,55.766612,37.675259,branch
ВкусВилл,супермаркет,Супермаркеты; Доставка продуктов; Кулинарии; Доставка еды,"улица Гиляровского, 40",1 этаж,129110.0,Мещанский,Москва,Москва,3.6,14.0,55.783096,37.632642,branch
ВкусВилл,супермаркет,Супермаркеты; Доставка продуктов; Кулинарии; Доставка еды,"Нижегородская улица, 13Б",1 этаж,109029.0,Таганский,Москва,Москва,4.8,36.0,55.737895,37.686554,branch
ВкусВилл,супермаркет,Супермаркеты; Доставка продуктов; Кулинарии; Доставка еды,"Оружейный переулок, 5",1 этаж,125047.0,Тверской,Москва,Москва,4.4,20.0,55.771169,37.597778,branch
ВкусВилл,супермаркет,Супермаркеты; Доставка продуктов; Кулинарии; Доставка еды,"улица Пресненский Вал, 5",1 этаж,123022.0,Пресненский,Москва,Москва,4.4,16.0,55.766021,37.564165,branch
ВкусВилл,супермаркет,Супермаркеты; Доставка продуктов; Кулинарии; Доставка еды,"1-я Квесисская улица, 18",1 этаж,127220.0,Савёловский,Москва,Москва,4.9,33.0,55.794707,37.57888,branch
ВкусВилл,супермаркет,Супермаркеты; Доставка продуктов; Кулинарии; Доставка еды,"Новокузнецкая улица, 13 ст1",1 этаж,115184.0,Замоскворечье,Москва,Москва,4.9,34.0,55.737059,37.631857,branch
ВкусВилл,супермаркет,Супермаркеты; Доставка продуктов; Кулинарии; Доставка еды,"Новослободская улица, 50/52 ст2",1 этаж,127055.0,Тверской,Москва,Москва,4.6,28.0,55.786677,37.594674,branch
ВкусВилл,супермаркет,Супермаркеты; Доставка продуктов; Кулинарии; Доставка еды,"улица Большая Полянка, 30",,119180.0,Якиманка,Москва,Москва,4.5,22.0,55.733719,37.61913,branch
ВкусВилл,супермаркет,Супермаркеты; Доставка продуктов; Кулинарии; Доставка еды,"улица Плющиха, 42 ст1",1 этаж,119121.0,Хамовники,Москва,Москва,4.4,14.0,55.741265,37.576477,branch
ВкусВилл,супермаркет,Супермаркеты; Доставка продуктов; Кулинарии; Доставка еды,"Зубовский бульвар, 17",1 этаж,119021.0,Хамовники,Москва,Москва,4.2,15.0,55.736453,37.590474,branch
ВкусВилл,супермаркет,Супермаркеты; Доставка продуктов; Кулинарии; Доставка еды,"проспект Мира, 76",1 этаж,129110.0,Мещанский,Москва,Москва,4.3,19.0,55.790329,37.635216,branch
ВкусВилл,супермаркет,Супермаркеты; Доставка продуктов; Кулинарии; Доставка еды,"Верхняя Красносельская улица, 38/19 ст1",1 этаж,107140.0,Красносельский,Москва,Москва,4.7,95.0,55.779654,37.665627,branch
ВкусВилл,супермаркет,Супермаркеты; Доставка продуктов; Кулинарии; Доставка еды,"Валовая улица, 11/19",1 этаж,115054.0,Замоскворечье,Москва,Москва,4.3,22.0,55.730349,37.632515,branch
ВкусВилл,супермаркет,Супермаркеты; Доставка продуктов; Кулинарии; Доставка еды,"Садовая-Кудринская улица, 8-10-12 ст1",1 этаж,123001.0,Пресненский,Москва,Москва,4.6,52.0,55.760761,37.586345,branch
ВкусВилл,супермаркет,Супермаркеты; Доставка продуктов; Кулинарии; Доставка еды,"Таганская улица, 31/22",1 этаж,109147.0,Таганский,Москва,Москва,3.4,9.0,55.739576,37.668898,branch
ВкусВилл,супермаркет,Супермаркеты; Доставка продуктов; Кулинарии; Доставка еды,"Волгоградский проспект, 3-5 ст2",,109316.0,Таганский,Москва,Москва,4.1,10.0,55.732204,37.671768,branch
ВкусВилл,супермаркет,Супермаркеты; Доставка продуктов; Кулинарии; Доставка еды,"улица Большие Каменщики, 6 ст1",1 этаж,115172.0,Таганский,Москва,Москва,4.3,14.0,55.737384,37.65393,branch
ВкусВилл,супермаркет,Супермаркеты; Доставка продуктов; Кулинарии; Доставка еды,"Кутузовский проспект, 24",1 этаж,121151.0,Дорогомилово,Москва,Москва,4.5,16.0,55.744841,37.546535,branch
ВкусВилл,супермаркет,Супермаркеты; Доставка продуктов; Кулинарии; Доставка еды,"Садовая-Спасская улица, 21/1",,107078.0,Красносельский,Москва,Москва,4.2,21.0,55.770113,37.650505,branch
ВкусВилл,супермаркет,Супермаркеты; Доставка продуктов; Кулинарии; Доставка еды,"улица Садовая-Триумфальная, 22/31",1 этаж,127006.0,Тверской,Москва,Москва,4.7,20.0,55.771925,37.60373,branch
ВкусВилл,супермаркет,Супермаркеты; Доставка продуктов; Кулинарии; Доставка еды,"улица Усачёва, 29 к1",1 этаж,119048.0,Хамовники,Москва,Москва,4.8,62.0,55.724245,37.564328,branch
ВкусВилл,супермаркет,Супермаркеты; Доставка продуктов; Кулинарии; Доставка еды,"Стрельбищенский переулок, 5",1 этаж,123317.0,Пресненский,Москва,Москва,4.9,34.0,55.75809,37.538682,branch
ВкусВилл,супермаркет,Супермаркеты; Доставка продуктов; Кулинарии; Доставка еды,"Большой Козловский переулок, 11 ст1",1 этаж,107078.0,Басманный,Москва,Москва,3.8,20.0,55.766514,37.647802,branch
ВкусВилл,супермаркет,Супермаркеты; Доставка продуктов; Кулинарии; Доставка еды,"улица Покровка, 35/17 ст1",1 этаж,101000.0,Басманный,Москва,Москва,4.4,20.0,55.761262,37.650587,branch
ВкусВилл,супермаркет,Супермаркеты; Доставка продуктов; Кулинарии; Доставка еды,"3-й Крутицкий переулок, 13 ст2",,109044.0,Южнопортовый,Москва,Москва,4.6,95.0,55.731092,37.664918,branch
ВкусВилл,супермаркет,Супермаркеты; Доставка продуктов; Кулинарии; Доставка еды,"Большая Грузинская улица, 57 ст1",,123056.0,Пресненский,Москва,Москва,4.8,71.0,55.77152,37.583593,branch
ВкусВилл,супермаркет,Супермаркеты; Доставка продуктов; Кулинарии; Доставка еды,"Шмитовский проезд, 19",1 этаж,123100.0,Пресненский,Москва,Москва,4.4,18.0,55.757212,37.547332,branch
ВкусВилл,супермаркет,Супермаркеты; Доставка продуктов; Доставка еды,"улица Петровка, 24 ст2",1 этаж,127051.0,Тверской,Москва,Москва,4.5,48.0,55.765238,37.616472,branch
ВкусВилл,супермаркет,Супермаркеты; Доставка продуктов; Кулинарии; Доставка еды,"улица Рогожский Вал, 5 ст9",1 этаж,109544.0,Таганский,Москва,Москва,3.7,10.0,55.744341,37.678666,branch
ВкусВилл,супермаркет,Супермаркеты; Доставка продуктов,"Ленинградский проспект, 2",,125124.0,Беговой,Москва,Москва,3.7,3.0,55.77856,37.582505,branch
ВкусВилл,супермаркет,Супермаркеты; Доставка продуктов; Кулинарии; Доставка еды,"Олимпийский проспект, 30 ст1",,129272.0,Мещанский,Москва,Москва,4.6,4.0,55.791209,37.622774,branch
ВкусВилл,супермаркет,Супермаркеты; Доставка продуктов; Кулинарии; Доставка еды,"Бакунинская улица, 38/42 ст1",1 этаж,105082.0,Басманный,Москва,Москва,4.7,30.0,55.77597,37.686597,branch
ВкусВилл,супермаркет,Супермаркеты; Доставка продуктов; Кулинарии; Доставка еды,"Шереметьевская улица, 6 к1",0 этаж,129594.0,Марьина Роща,Москва,Москва,4.4,22.0,55.795655,37.616716,branch
ВкусВилл,супермаркет,Супермаркеты; Доставка продуктов; Кулинарии; Доставка еды,"улица Александра Невского, 1",1 этаж,125047.0,Тверской,Москва,Москва,4.4,13.0,55.774816,37.592922,branch
ВкусВилл,супермаркет,Супермаркеты; Доставка продуктов; Доставка еды,"Октябрьская улица, 33",1 этаж,127018.0,Марьина Роща,Москва,Москва,4.4,6.0,55.788777,37.613326,branch
ВкусВилл,супермаркет,Супермаркеты,"Большая Бронная улица, 17",цокольный этаж,123104.0,Пресненский,Москва,Москва,4.3,8.0,55.762724,37.60049,branch
ВкусВилл,супермаркет,Супермаркеты; Доставка продуктов; Кулинарии; Доставка еды,"Студенческая улица, 20",1 этаж,121151.0,Дорогомилово,Москва,Москва,4.3,7.0,55.74323,37.550089,branch
ВкусВилл,супермаркет,Супермаркеты; Доставка продуктов; Кулинарии; Доставка еды,"Мытная улица, 52",1 этаж,115162.0,Даниловский,Москва,Москва,5.0,3.0,55.717206,37.61896,branch
ВкусВилл,супермаркет,Супермаркеты; Доставка продуктов; Кулинарии; Доставка еды,"улица Земляной Вал, 38-40/15 ст9",,105064.0,Басманный,Москва,Москва,4.4,37.0,55.755391,37.656778,branch
ВкусВилл,супермаркет,Супермаркеты; Доставка продуктов; Кулинарии; Доставка еды,"Воронцовская улица, 46 ст1",1 этаж,109044.0,Таганский,Москва,Москва,4.7,26.0,55.733157,37.663052,branch
ВкусВилл,супермаркет,Супермаркеты; Доставка продуктов; Доставка еды,"Малая Грузинская улица, 12",1 этаж,123242.0,Пресненский,Москва,Москва,4.4,5.0,55.764017,37.572108,branch
ВкусВилл,супермаркет,Супермаркеты; Доставка продуктов; Кулинарии; Доставка еды,"Комсомольский проспект, 38/16",1 этаж,119146.0,Хамовники,Москва,Москва,4.7,31.0,55.722893,37.575495,branch
ВкусВилл,супермаркет,Супермаркеты; Доставка продуктов; Кулинарии; Доставка еды,"Оболенский переулок, 9 к1",,119021.0,Хамовники,Москва,Москва,3.7,6.0,55.730206,37.579346,branch
ВкусВилл,супермаркет,Супермаркеты; Доставка продуктов; Кулинарии; Доставка еды,"улица Лестева, 21/61",1 этаж,115419.0,Даниловский,Москва,Москва,4.7,7.0,55.714492,37.607977,branch
ВкусВилл,супермаркет,Супермаркеты; Кулинарии; Доставка продуктов; Доставка еды,"проспект Мира, 40",1 этаж,129090.0,Мещанский,Москва,Москва,4.5,18.0,55.780252,37.634313,branch
ВкусВилл,супермаркет,Супермаркеты; Доставка продуктов; Кулинарии; Доставка еды,"Долгоруковская улица, 39/6",1 этаж,127006.0,Тверской,Москва,Москва,4.3,27.0,55.778696,37.600281,branch
ВкусВилл,супермаркет,Супермаркеты; Доставка продуктов; Кулинарии; Доставка еды,"Украинский бульвар, 6",1 этаж,121059.0,Дорогомилово,Москва,Москва,4.5,12.0,55.747917,37.564969,branch
ВкусВилл,супермаркет,Супермаркеты; Доставка продуктов; Кулинарии; Доставка еды,"Ленинский проспект, 37а",1 этаж,119334.0,Донской,Москва,Москва,4.7,94.0,55.708434,37.587093,branch
ВкусВилл,супермаркет,Супермаркеты; Доставка продуктов; Доставка еды,"Сокольническая площадь, 4а",1 этаж,107113.0,Сокольники,Москва,Москва,4.2,18.0,55.790182,37.678552,branch
ВкусВилл,супермаркет,Супермаркеты; Доставка продуктов; Кулинарии; Доставка еды,"улица Большая Якиманка, 54",1 этаж,119049.0,Якиманка,Москва,Москва,4.2,40.0,55.731494,37.611746,branch
ВкусВилл,супермаркет,Супермаркеты; Доставка продуктов; Кулинарии; Доставка еды,"Большая Спасская улица, 8 ст1а",,129090.0,Красносельский,Москва,Москва,4.5,26.0,55.77586,37.643261,branch
ВкусВилл,супермаркет,Супермаркеты; Доставка продуктов; Кулинарии; Доставка еды,"Люсиновская улица, 36/50",1 этаж,115093.0,Замоскворечье,Москва,Москва,2.5,14.0,55.722672,37.621656,branch
ВкусВилл,управляющая компания,Супермаркеты,"улица Щепкина, 42 ст2а",7 этаж,129110.0,Мещанский,Москва,Москва,2.0,9.0,55.782718,37.62974,branch
Азбука daily,супермаркет,Супермаркеты; Доставка продуктов,"Ленинградский проспект, 76 к1",1 этаж,125315.0,Аэропорт,Москва,Москва,4.4,10.0,55.805984,37.515536,branch
Азбука daily,супермаркет,Супермаркеты; Доставка продуктов,"Ленинградский проспект, 36 ст36",1 этаж,125167.0,Аэропорт,Москва,Москва,5.0,12.0,55.78873,37.568342,branch
Азбука daily,супермаркет,Супермаркеты; Доставка продуктов,"улица Маршала Рыбалко, 2 к6",1 этаж,123060.0,Щукино,Москва,Москва,4.4,22.0,55.797282,37.496472,branch
Азбука daily,супермаркет,Супермаркеты; Доставка продуктов,"улица Народного Ополчения, 46 ст1",1 этаж,123298.0,Щукино,Москва,Москва,4.6,15.0,55.793027,37.49356,branch
Азбука daily,супермаркет,Супермаркеты; Доставка продуктов,"Ленинградский проспект, 69",1 этаж,125057.0,Сокол,Москва,Москва,4.9,18.0,55.803654,37.517664,branch
Азбука daily,супермаркет,Супермаркеты; Доставка продуктов,"проезд Аэропорта, 8",1 этаж,125167.0,Хорошёвский,Москва,Москва,4.3,8.0,55.797173,37.52232,branch
Азбука Вкуса,супермаркет,Супермаркеты; Доставка продуктов,"Ленинградское шоссе, 68",1 этаж,125565.0,Головинский,Москва,Москва,4.7,19.0,55.845741,37.477547,branch
Азбука Вкуса,супермаркет,Супермаркеты; Доставка продуктов,"Чапаевский переулок, 18/1",,125252.0,Сокол,Москва,Москва,4.5,28.0,55.795977,37.517937,branch
Азбука Вкуса,супермаркет,Супермаркеты; Доставка продуктов,"Ленинградское шоссе, 112/1",1 этаж,125445.0,Левобережный,Москва,Москва,5.0,17.0,55.863688,37.465368,branch
Азбука Вкуса,супермаркет,Супермаркеты; Доставка продуктов,"Ленинградская улица, 16Б",1 этаж,141402.0,,Химки,Московская область,4.3,19.0,55.88805,37.438499,branch
Азбука Вкуса,супермаркет,Супермаркеты; Доставка продуктов,"улица Свободы, 42",1 этаж,125364.0,Южное Тушино,Москва,Москва,4.5,26.0,55.845113,37.455311,branch
Азбука Вкуса,супермаркет,Супермаркеты; Доставка продуктов,"улица Алабяна, 7",1 этаж,125057.0,Сокол,Москва,Москва,4.5,24.0,55.80184,37.507864,branch
Азбука Вкуса,супермаркет,Супермаркеты; Доставка продуктов,"Ленинградское шоссе, 46",1 этаж,125212.0,Войковский,Москва,Москва,4.5,23.0,55.833388,37.486611,branch
Азбука Вкуса,супермаркет,Супермаркеты; Доставка продуктов,"Ленинградский проспект, 52",1 этаж,125167.0,Аэропорт,Москва,Москва,4.7,101.0,55.796996,37.541441,branch
Азбука Вкуса,супермаркет,Супермаркеты; Доставка продуктов,"Дмитровское шоссе, 108Б ст1",1 этаж,127591.0,Восточное Дегунино,Москва,Москва,4.8,83.0,55.886807,37.543588,branch
Азбука Вкуса,супермаркет,Супермаркеты; Доставка продуктов,"улица Гризодубовой, 1а",1 этаж,123007.0,Хорошёвский,Москва,Москва,4.6,117.0,55.781939,37.534369,branch
ВкусВилл,мини,Супермаркеты; Доставка продуктов; Кулинарии; Доставка еды,"улица Дыбенко, 14 к2",,125475.0,Ховрино,Москва,Москва,4.7,22.0,55.870593,37.485675,branch
ВкусВилл,супермаркет,Супермаркеты,"микрорайон ИКЕА, к4",,141501.0,,Химки,Московская область,,,55.911509,37.397123,branch
ВкусВилл,супермаркет,Супермаркеты,,,125252.0,Хорошёвский,Москва,Москва,,,55.78556,37.52943,branch
ВкусВилл,супермаркет,Супермаркеты; Доставка продуктов; Доставка еды,"микрорайон ИКЕА, к2",,141501.0,,Химки,Московская область,,,55.911509,37.397123,branch
ВкусВилл,супермаркет,Супермаркеты,"Ленинградское шоссе, 58 ст26",1 этаж,125212.0,Головинский,Москва,Москва,3.0,2.0,55.842524,37.484418,branch
ВкусВилл,супермаркет,Супермаркеты; Доставка еды; Кулинарии; Доставка продуктов,"улица Лётчика Осканова, 6",,125504.0,Западное Дегунино,Москва,Москва,5.0,2.0,55.854701,37.557652,branch
ВкусВилл,супермаркет,Супермаркеты,"Железнодорожная улица, 2",,141431.0,,Химки,Московская область,,,55.938526,37.350771,branch
ВкусВилл,супермаркет,Супермаркеты,"Ленинградское шоссе, 228 к3",,141431.0,Молжаниновский,Москва,Москва,2.7,2.0,55.932789,37.381874,branch
ВкусВилл,супермаркет,Супермаркеты,"Ленинградский проспект, 34а",1 этаж,125040.0,Беговой,Москва,Москва,4.5,4.0,55.785331,37.567719,branch
ВкусВилл,супермаркет,Супермаркеты; Доставка продуктов,"Бескудниковский бульвар, 30 к2",,127474.0,Бескудниковский,Москва,Москва,2.2,2.0,55.870587,37.555856,branch
ВкусВилл,супермаркет,Супермаркеты,"Щукинская улица, 3",,123182.0,Щукино,Москва,Москва,,,55.808651,37.480677,branch
ВкусВилл,супермаркет,Супермаркеты,"улица Дыбенко, 36 к3",,125475.0,Ховрино,Москва,Москва,,,55.87656,37.485894,branch
ВкусВилл,супермаркет,Супермаркеты; Доставка продуктов; Доставка еды; Кулинарии,"Базовская улица, 15Б к2",,125412.0,Западное Дегунино,Москва,Москва,5.0,1.0,55.880205,37.507232,branch
ВкусВилл,супермаркет,Супермаркеты,,,125252.0,Хорошёвский,Москва,Москва,,,55.787275,37.52676,branch
ВкусВилл,супермаркет,Супермаркеты,"Бескудниковский бульвар, 12 ст1",1 этаж,127474.0,Бескудниковский,Москва,Москва,3.2,1.0,55.861819,37.562727,branch
ВкусВилл,супермаркет,Супермаркеты,"1-й Войковский проезд, 16 к1",,125171.0,Войковский,Москва,Москва,2.1,1.0,55.816793,37.489748,branch
ВкусВилл,супермаркет,Супермаркеты; Доставка продуктов; Доставка еды,"Дмитровское шоссе, 107а к5",,127247.0,Дмитровский,Москва,Москва,5.0,3.0,55.877455,37.538763,branch
ВкусВилл,супермаркет,Супермаркеты,"Хорошёвское шоссе, 58",,125284.0,Хорошёвский,Москва,Москва,5.0,1.0,55.779026,37.532639,branch
ВкусВилл,супермаркет,Супермаркеты,"Старопетровский проезд, 1",1 этаж,125130.0,Войковский,Москва,Москва,5.0,2.0,55.823233,37.501328,branch
ВкусВилл,супермаркет,Супермаркеты,"улица Верхняя Масловка, 15",,127083.0,Аэропорт,Москва,Москва,,,55.794217,37.561758,branch
ВкусВилл,супермаркет,Супермаркеты,"Волоколамское шоссе, 24 к1",1 этаж,123182.0,Щукино,Москва,Москва,5.0,4.0,55.811845,37.485648,branch
ВкусВилл,супермаркет,Супермаркеты,"Ленинградское шоссе, 130 к1",,125445.0,Левобережный,Москва,Москва,5.0,1.0,55.869748,37.462503,branch
ВкусВилл,супермаркет,Супермаркеты,,,141410.0,,Химки,Московская область,,,55.907398,37.394767,branch
ВкусВилл,супермаркет,Супермаркеты,"Ленинградское шоссе, 94 к2",,125565.0,Левобережный,Москва,Москва,1.2,3.0,55.85573,37.471737,branch
ВкусВилл,супермаркет,Супермаркеты,"Кочновский проезд, 4 к1",2 этаж; 8 подъезд,125319.0,Аэропорт,Москва,Москва,4.5,2.0,55.806521,37.54441,branch
ВкусВилл,супермаркет,Супермаркеты,"Дмитровский проезд, 1",,127422.0,Тимирязевский,Москва,Москва,2.5,2.0,55.808986,37.578244,branch
ВкусВилл,супермаркет,Супермаркеты,"1-й Нижнелихоборский проезд, 1",,127238.0,Тимирязевский,Москва,Москва,4.8,5.0,55.847057,37.563955,branch
ВкусВилл,супермаркет,Супермаркеты,"Ижорская улица, 6 к2",,125599.0,Западное Дегунино,Москва,Москва,,,55.8821,37.50311,branch
ВкусВилл,супермаркет,Супермаркеты,"Шелепихинская набережная, 42 к3",1 этаж,123308.0,Хорошёво-Мнёвники,Москва,Москва,3.8,3.0,55.768171,37.49968,branch
ВкусВилл,супермаркет,Супермаркеты,"улица Зорге, 9а к1",1 этаж,125252.0,Хорошёвский,Москва,Москва,,,55.78339,37.50948,branch
ВкусВилл,супермаркет,Супермаркеты,"Петровско-Разумовский проезд, 24 к4",1 этаж,127287.0,Савёловский,Москва,Москва,2.8,3.0,55.803163,37.563529,branch
ВкусВилл,супермаркет,Супермаркеты,"Ботаническая улица, 33в ст1",1 этаж,127276.0,Марфино,Москва,Москва,3.9,7.0,55.840425,37.583156,branch
ВкусВилл,супермаркет,Супермаркеты,"улица Юннатов, 4",,127083.0,Савёловский,Москва,Москва,4.0,4.0,55.798265,37.563849,branch
ВкусВилл,супермаркет,Супермаркеты; Доставка продуктов,"улица 8 Марта, 8 к1",1 этаж,127083.0,Савёловский,Москва,Москва,3.3,2.0,55.802314,37.554337,branch
ВкусВилл,супермаркет,Супермаркеты; Доставка продуктов; Доставка еды; Кулинарии,"Ленинградское шоссе, 69 к2",1 этаж,125445.0,Левобережный,Москва,Москва,3.2,1.0,55.868102,37.456466,branch
ВкусВилл,супермаркет,Супермаркеты; Кулинарии; Доставка продуктов; Доставка еды,"3-я Хорошёвская улица, вл7 к7",1 этаж,123298.0,Хорошёво-Мнёвники,Москва,Москва,5.0,1.0,55.785875,37.492624,branch
ВкусВилл,супермаркет,Супермаркеты; Кулинарии; Доставка продуктов; Доставка еды,"Московская улица, ст1а",,141431.0,,Химки,Московская область,4.0,2.0,55.943761,37.345882,branch
ВкусВилл,супермаркет,Супермаркеты; Доставка продуктов; Доставка еды; Кулинарии,"Зеленоградская улица, 17 к1",1 этаж,125475.0,Ховрино,Москва,Москва,4.8,3.0,55.870236,37.500011,branch
ВкусВилл,супермаркет,Супермаркеты; Кулинарии; Доставка продуктов; Доставка еды,"улица Дыбенко, 7/1 ст1",1 этаж,125475.0,Ховрино,Москва,Москва,4.2,13.0,55.877856,37.47981,branch
ВкусВилл,супермаркет,Супермаркеты; Доставка продуктов; Доставка еды; Кулинарии,"улица Викторенко, 11",1 этаж,125167.0,Хорошёвский,Москва,Москва,4.3,4.0,55.795244,37.527109,branch
ВкусВилл,супермаркет,Супермаркеты; Кулинарии; Доставка продуктов; Доставка еды,"Нарвская улица, 5а",1 этаж,125130.0,Войковский,Москва,Москва,5.0,5.0,55.832401,37.504328,branch
ВкусВилл,супермаркет,Супермаркеты; Доставка продуктов,"Фестивальная улица, 29",1 этаж,125195.0,Левобережный,Москва,Москва,4.9,5.0,55.85796,37.479627,branch
ВкусВилл,супермаркет,Супермаркеты,"Коптевская улица, 22",,125239.0,Коптево,Москва,Москва,4.8,11.0,55.831794,37.519786,branch
ВкусВилл,супермаркет,Супермаркеты,"Лобненская улица, 13 к3",1 этаж,127644.0,Дмитровский,Москва,Москва,4.8,20.0,55.88771,37.526406,branch
ВкусВилл,супермаркет,Супермаркеты,"улица Викторенко, 3",,125167.0,Хорошёвский,Москва,Москва,4.3,8.0,55.798765,37.529196,branch
ВкусВилл,супермаркет,Супермаркеты; Доставка продуктов; Кулинарии; Доставка еды,"Беломорская улица, 23",1 этаж,125445.0,Ховрино,Москва,Москва,4.7,23.0,55.867566,37.483852,branch
ВкусВилл,супермаркет,Супермаркеты; Доставка продуктов,"Ильменский проезд, 17 к3",1 этаж,125504.0,Западное Дегунино,Москва,Москва,4.8,8.0,55.861582,37.541287,branch
ВкусВилл,супермаркет,Супермаркеты; Доставка продуктов; Кулинарии; Доставка еды,"Большой Волоколамский проезд, 1",,123060.0,Щукино,Москва,Москва,1.5,2.0,55.799894,37.495714,branch
ВкусВилл,супермаркет,Супермаркеты; Доставка продуктов; Кулинарии; Доставка еды,"улица Адмирала Макарова, 6",1 этаж,125212.0,Войковский,Москва,Москва,4.6,17.0,55.835304,37.490625,branch
ВкусВилл,супермаркет,Супермаркеты; Доставка еды,"4-й Вятский переулок, 37",1 этаж,127287.0,Савёловский,Москва,Москва,4.9,7.0,55.800228,37.570654,branch
ВкусВилл,супермаркет,Супермаркеты,"Ленинградский проспект, 74 к4",1 этаж,125315.0,Аэропорт,Москва,Москва,1.2,2.0,55.805756,37.518924,branch
ВкусВилл,супермаркет,Супермаркеты; Доставка продуктов; Доставка еды; Кулинарии,"Нововладыкинский проезд, 1 к2",,127106.0,Отрадное,Москва,Москва,4.5,32.0,55.850656,37.578322,branch
ВкусВилл,супермаркет,Супермаркеты; Доставка продуктов; Доставка еды,"Московская улица, 32",,141402.0,,Химки,Московская область,3.8,8.0,55.888791,37.443978,branch
ВкусВилл,супермаркет,Супермаркеты; Доставка продуктов; Кулинарии; Доставка еды,"Головинское шоссе, 10Б",,125212.0,Войковский,Москва,Москва,4.7,37.0,55.83692,37.496771,branch
ВкусВилл,супермаркет,Супермаркеты; Доставка продуктов; Доставка еды,"3-я Хорошёвская улица, 21а",1 этаж,123298.0,Хорошёво-Мнёвники,Москва,Москва,4.5,19.0,55.786013,37.498938,branch
ВкусВилл,супермаркет,Супермаркеты; Доставка продуктов; Кулинарии; Доставка еды,"Новодмитровская улица, 2 к4",1 этаж,127015.0,Бутырский,Москва,Москва,4.1,12.0,55.803971,37.590379,branch
ВкусВилл,супермаркет,Супермаркеты; Доставка продуктов; Доставка еды,"микрорайон ИКЕА, к2",1 этаж,141501.0,,Химки,Московская область,4.3,5.0,55.910584,37.394574,branch
ВкусВилл,супермаркет,Супермаркеты; Доставка продуктов; Кулинарии; Доставка еды,"Библиотечная улица, 20",,141406.0,,Химки,Московская область,5.0,2.0,55.894776,37.479335,branch
ВкусВилл,супермаркет,Супермаркеты; Доставка продуктов; Кулинарии; Доставка еды,"Ленинградский проспект, 29 к2",1 этаж,125284.0,Беговой,Москва,Москва,3.9,9.0,55.786346,37.561999,branch
ВкусВилл,супермаркет,Супермаркеты; Доставка продуктов; Кулинарии; Доставка еды,"улица Черняховского, 17а",1 этаж,125319.0,Аэропорт,Москва,Москва,4.6,5.0,55.807904,37.539307,branch
ВкусВилл,супермаркет,Супермаркеты; Доставка продуктов; Кулинарии; Доставка еды,"Дмитровское шоссе, 50 к1",1 этаж,127238.0,Тимирязевский,Москва,Москва,4.5,23.0,55.846074,37.569653,branch
ВкусВилл,супермаркет,Супермаркеты; Кулинарии; Доставка продуктов; Доставка еды,"Ходынский бульвар, 20а",1 этаж,125252.0,Хорошёвский,Москва,Москва,3.0,12.0,55.791277,37.524686,branch
ВкусВилл,супермаркет,Супермаркеты; Доставка продуктов; Кулинарии; Доставка еды,"Дмитровское шоссе, 13а",1 этаж,127434.0,Тимирязевский,Москва,Москва,4.6,13.0,55.818993,37.573855,branch
ВкусВилл,супермаркет,Супермаркеты; Кулинарии; Доставка продуктов; Доставка еды,"Дмитровское шоссе, 107 к2",1 этаж,127247.0,Дмитровский,Москва,Москва,4.8,47.0,55.879542,37.541161,branch
ВкусВилл,супермаркет,Супермаркеты; Доставка продуктов; Кулинарии; Доставка еды,"Ленинградское шоссе, 9 к1",1 этаж,125171.0,Войковский,Москва,Москва,4.8,70.0,55.817332,37.498188,branch
ВкусВилл,супермаркет,Супермаркеты; Кулинарии; Доставка продуктов; Доставка еды,"улица Кирова, 18 ст1",,141402.0,,Химки,Московская область,3.8,6.0,55.889407,37.451581,branch
ВкусВилл,супермаркет,Супермаркеты; Доставка продуктов; Кулинарии; Доставка еды,"Смольная улица, 35 ст1",1 этаж,125195.0,Левобережный,Москва,Москва,4.7,3.0,55.86087,37.481499,branch
ВкусВилл,супермаркет,Супермаркеты; Доставка продуктов; Кулинарии; Доставка еды,"улица Куусинена, 4а к1",,123308.0,Хорошёвский,Москва,Москва,4.7,6.0,55.780501,37.516403,branch
ВкусВилл,супермаркет,Супермаркеты; Доставка продуктов; Кулинарии; Доставка еды,"Кронштадтский бульвар, 7",1 этаж,125212.0,Головинский,Москва,Москва,2.6,8.0,55.840866,37.487424,branch
ВкусВилл,супермаркет,Супермаркеты; Доставка продуктов; Кулинарии; Доставка еды,"Базовская улица, 15 к8",1 этаж,125635.0,Западное Дегунино,Москва,Москва,4.8,19.0,55.878247,37.508139,branch
ВкусВилл,супермаркет,Супермаркеты; Доставка продуктов; Кулинарии; Доставка еды,"улица Маршала Рыбалко, 5",1 этаж,123060.0,Щукино,Москва,Москва,4.2,16.0,55.796379,37.493521,branch
ВкусВилл,супермаркет,Супермаркеты; Доставка продуктов; Кулинарии; Доставка еды,"Новопетровская улица, 3",,125239.0,Коптево,Москва,Москва,3.4,4.0,55.827072,37.52022,branch
ВкусВилл,супермаркет,Супермаркеты; Доставка продуктов; Кулинарии; Доставка еды,"Дубнинская улица, 16 к1",,127540.0,Восточное Дегунино,Москва,Москва,3.7,8.0,55.868362,37.563182,branch
ВкусВилл,супермаркет,Супермаркеты; Доставка продуктов; Кулинарии; Доставка еды,"улица Алабяна, 10 к1",1 этаж,125080.0,Сокол,Москва,Москва,4.8,41.0,55.800583,37.504292,branch
ВкусВилл,супермаркет,Супермаркеты; Доставка продуктов; Кулинарии; Доставка еды,"Новая улица, 10",1 этаж,125635.0,Западное Дегунино,Москва,Москва,2.1,3.0,55.875349,37.51239,branch
ВкусВилл,супермаркет,Супермаркеты; Доставка продуктов; Кулинарии; Доставка еды,"Дубнинская улица, 2 к2",1 этаж,127540.0,Восточное Дегунино,Москва,Москва,4.1,9.0,55.856202,37.56718,branch
ВкусВилл,супермаркет,Супермаркеты; Доставка продуктов; Кулинарии; Доставка еды,"улица Фонвизина, 17",1 этаж,127322.0,Бутырский,Москва,Москва,4.7,54.0,55.821071,37.586984,branch
ВкусВилл,супермаркет,Супермаркеты; Доставка продуктов; Кулинарии; Доставка еды,"Дегунинская улица, 10 к1",1 этаж,127486.0,Западное Дегунино,Москва,Москва,4.8,33.0,55.865323,37.53754,branch
ВкусВилл,супермаркет,Супермаркеты; Доставка продуктов; Кулинарии; Доставка еды,"Дмитровское шоссе, 68",1 этаж,127474.0,Бескудниковский,Москва,Москва,4.7,60.0,55.858326,37.560191,branch
ВкусВилл,супермаркет,Супермаркеты; Доставка продуктов; Кулинарии; Доставка еды,"Рогачёвский переулок, 4 к1",,127474.0,Бескудниковский,Москва,Москва,4.4,37.0,55.867774,37.552514,branch
ВкусВилл,супермаркет,Супермаркеты; Доставка продуктов; Кулинарии; Доставка еды,"улица Софьи Ковалевской, 4",1 этаж,127247.0,Дмитровский,Москва,Москва,2.6,11.0,55.880198,37.533262,branch
ВкусВилл,супермаркет,Супермаркеты; Доставка продуктов; Кулинарии; Доставка еды,"Кронштадтский бульвар, 47",1 этаж,125499.0,Головинский,Москва,Москва,4.8,32.0,55.851668,37.511885,branch
ВкусВилл,супермаркет,Супермаркеты; Доставка продуктов; Кулинарии; Доставка еды,"улица Гризодубовой, 2",,125252.0,Хорошёвский,Москва,Москва,4.9,29.0,55.782539,37.531789,branch
ВкусВилл,супермаркет,Супермаркеты; Доставка продуктов; Кулинарии; Доставка еды,"улица Костякова, 9",1 этаж,127422.0,Тимирязевский,Москва,Москва,4.3,7.0,55.812327,37.571629,branch
ВкусВилл,супермаркет,Супермаркеты; Доставка продуктов; Кулинарии; Доставка еды,"Солнечногорская улица, 15 к1",1 этаж,125413.0,Головинский,Москва,Москва,4.9,20.0,55.860702,37.519395,branch
ВкусВилл,супермаркет,Супермаркеты; Доставка продуктов; Кулинарии; Доставка еды,"Беломорская улица, 26 ст2",1 этаж,125195.0,Левобережный,Москва,Москва,4.5,26.0,55.864285,37.474439,branch
ВкусВилл,супермаркет,Супермаркеты; Доставка продуктов; Кулинарии; Доставка еды,"2-й Новоподмосковный переулок, 3",1 этаж,127299.0,Войковский,Москва,Москва,4.6,30.0,55.817935,37.509577,branch
ВкусВилл,супермаркет,Супермаркеты; Доставка продуктов; Кулинарии; Доставка еды,"улица Зои и Александра Космодемьянских, 17/2",1 этаж,125130.0,Войковский,Москва,Москва,4.9,18.0,55.822268,37.514773,branch
ВкусВилл,супермаркет,Супермаркеты; Доставка продуктов; Кулинарии; Доставка еды,"Псковская улица, 9 к1",1 этаж,127253.0,Лианозово,Москва,Москва,4.8,10.0,55.905498,37.552037,branch
ВкусВилл,супермаркет,Супермаркеты; Доставка продуктов; Кулинарии; Доставка еды,"улица Лавочкина, 34",1 этаж,125581.0,Ховрино,Москва,Москва,4.7,42.0,55.856152,37.494053,branch
ВкусВилл,супермаркет,Супермаркеты; Доставка продуктов; Кулинарии; Доставка еды,"улица Маршала Бирюзова, 16",1 этаж,123060.0,Щукино,Москва,Москва,4.2,10.0,55.794838,37.491775,branch
ВкусВилл,супермаркет,Супермаркеты; Доставка продуктов; Доставка еды,"Михалковская улица, 20",1 этаж,125008.0,Коптево,Москва,Москва,4.4,6.0,55.839029,37.530272,branch
ВкусВилл,супермаркет,Супермаркеты; Доставка продуктов; Кулинарии; Доставка еды,"Большая Академическая улица, 24 к2",1 этаж,127299.0,Коптево,Москва,Москва,4.7,10.0,55.824513,37.529561,branch
ВкусВилл,супермаркет,Супермаркеты; Доставка продуктов; Кулинарии; Доставка еды,"Фестивальная улица, 28 ст1",,125414.0,Ховрино,Москва,Москва,5.0,3.0,55.861212,37.503052,branch
ВкусВилл,супермаркет,Супермаркеты; Доставка продуктов; Кулинарии; Доставка еды,"Авангардная улица, 16",1 этаж,125493.0,Головинский,Москва,Москва,4.7,33.0,55.847257,37.489455,branch
ВкусВилл,супермаркет,Супермаркеты; Доставка продуктов; Кулинарии; Доставка еды,"Онежская улица, 11/11",,125438.0,Головинский,Москва,Москва,4.6,9.0,55.849107,37.520491,branch
ВкусВилл,супермаркет,Супермаркеты; Доставка продуктов; Кулинарии; Доставка еды,"Петровско-Разумовский проезд, 18",1 этаж,127287.0,Савёловский,Москва,Москва,4.9,19.0,55.798863,37.56776,branch
ВкусВилл,супермаркет,Супермаркеты; Доставка продуктов; Кулинарии; Доставка еды,"улица Руставели, 6 к6",,127254.0,Бутырский,Москва,Москва,4.3,10.0,55.812441,37.588393,branch
ВкусВилл,супермаркет,Супермаркеты; Доставка продуктов; Кулинарии; Доставка еды,"Новозаводская улица, 10Б",1 этаж,141431.0,,Химки,Московская область,4.7,7.0,55.9418,37.346801,branch
ВкусВилл,супермаркет,Супермаркеты; Доставка продуктов; Кулинарии; Доставка еды,"улица Маршала Малиновского, 8",1 этаж,123298.0,Щукино,Москва,Москва,4.1,17.0,55.792645,37.494217,branch
ВкусВилл,супермаркет,Супермаркеты; Доставка продуктов; Кулинарии; Доставка еды,"улица Вучетича, 22",1 этаж,127206.0,Тимирязевский,Москва,Москва,4.1,17.0,55.811893,37.558004,branch
ВкусВилл,супермаркет,Супермаркеты; Доставка продуктов; Кулинарии; Доставка еды,"Новопесчаная улица, 21 к1",1 этаж,125252.0,Сокол,Москва,Москва,4.7,23.0,55.794585,37.511773,branch
ВкусВилл,супермаркет,Супермаркеты; Доставка продуктов; Кулинарии; Доставка еды,"Ленинградское шоссе, 36 к1",1 этаж,125212.0,Войковский,Москва,Москва,4.2,25.0,55.830214,37.48926,branch
ВкусВилл,супермаркет,Супермаркеты; Доставка продуктов; Кулинарии; Доставка еды,"Красностуденческий проезд, 2",1 этаж,127434.0,Тимирязевский,Москва,Москва,4.6,7.0,55.825441,37.566184,branch
ВкусВилл,супермаркет,Супермаркеты; Доставка продуктов; Кулинарии,"улица Лихоборские Бугры, 6",1 этаж,125183.0,Коптево,Москва,Москва,4.7,12.0,55.842349,37.547979,branch
ВкусВилл,супермаркет,Супермаркеты; Доставка продуктов; Кулинарии; Доставка еды,"Чапаевский переулок, 10/2",,125057.0,Сокол,Москва,Москва,5.0,7.0,55.799897,37.519171,branch
ВкусВилл,супермаркет,Супермаркеты; Доставка продуктов; Кулинарии; Доставка еды,"улица Свободы, 34",1 этаж,125364.0,Южное Тушино,Москва,Москва,4.8,49.0,55.843399,37.45576,branch
ВкусВилл,супермаркет,Супермаркеты; Доставка продуктов; Кулинарии; Доставка еды,"Талдомская улица, 15",1 этаж,125412.0,Западное Дегунино,Москва,Москва,5.0,3.0,55.873612,37.521886,branch
ВкусВилл,супермаркет,Супермаркеты; Доставка продуктов; Кулинарии; Доставка еды,"улица Верхняя Масловка, 21",1 этаж,127083.0,Аэропорт,Москва,Москва,4.1,14.0,55.795728,37.560366,branch
ВкусВилл,супермаркет,Супермаркеты; Доставка продуктов; Кулинарии; Доставка еды,"улица Калинина, 7",1 этаж,141402.0,,Химки,Московская область,4.3,9.0,55.886516,37.447107,branch
ВкусВилл,супермаркет,Супермаркеты; Доставка продуктов; Кулинарии; Доставка еды,"Бутырская улица, 95",1 этаж,127015.0,Савёловский,Москва,Москва,4.7,112.0,55.807281,37.580741,branch
ВкусВилл,супермаркет,Супермаркеты; Доставка продуктов; Кулинарии; Доставка еды,"Ленинградский проспект, 54/1",1 этаж,125167.0,Аэропорт,Москва,Москва,4.4,35.0,55.798019,37.539125,branch
ВкусВилл,супермаркет,Супермаркеты; Доставка продуктов; Кулинарии; Доставка еды,"Абрамцевская улица, 3",1 этаж,127576.0,Лианозово,Москва,Москва,4.5,6.0,55.895814,37.573558,branch
ВкусВилл,супермаркет,Супермаркеты; Доставка продуктов; Кулинарии; Доставка еды,"Волоколамское шоссе, 14",1 этаж,125080.0,Сокол,Москва,Москва,4.2,11.0,55.809646,37.493302,branch
ВкусВилл,супермаркет,Супермаркеты; Доставка продуктов; Кулинарии; Доставка еды,"Дегунинская улица, 17",1 этаж,127486.0,Западное Дегунино,Москва,Москва,4.7,39.0,55.867432,37.531004,branch
ВкусВилл,супермаркет,Супермаркеты; Доставка продуктов; Кулинарии; Доставка еды,"Фестивальная улица, 13 к1",43 павильон; 1 этаж,125565.0,Левобережный,Москва,Москва,4.4,18.0,55.855378,37.476733,branch
ВкусВилл,супермаркет,Супермаркеты; Доставка продуктов; Кулинарии; Доставка еды,"Ходынский бульвар, 4",1 этаж,125252.0,Хорошёвский,Москва,Москва,3.5,14.0,55.789582,37.532895,branch
ВкусВилл,супермаркет,Супермаркеты; Доставка продуктов; Кулинарии; Доставка еды,"Дубнинская улица, 10 к4",1 этаж,127540.0,Восточное Дегунино,Москва,Москва,4.7,24.0,55.864374,37.572151,branch
ВкусВилл,супермаркет,Супермаркеты; Доставка продуктов; Кулинарии; Доставка еды,"Флотская улица, 46",,125499.0,Головинский,Москва,Москва,4.5,2.0,55.853233,37.50084,branch
ВкусВилл,супермаркет,Супермаркеты; Доставка продуктов; Кулинарии; Доставка еды,"улица Яблочкова, 37",1 этаж,127322.0,Бутырский,Москва,Москва,4.8,6.0,55.826693,37.57912,branch
ВкусВилл,супермаркет,Супермаркеты; Доставка продуктов; Кулинарии; Доставка еды,"улица Гризодубовой, 4 к3",,125252.0,Хорошёвский,Москва,Москва,4.4,28.0,55.784924,37.5224,branch
ВкусВилл,супермаркет,Супермаркеты; Доставка продуктов; Кулинарии; Доставка еды,"Тимирязевская улица, 19",1 этаж,127422.0,Тимирязевский,Москва,Москва,3.3,1.0,55.813039,37.566458,branch
ВкусВилл,супермаркет,Супермаркеты; Доставка продуктов; Доставка еды,"Хорошёвское шоссе, 68",,123007.0,Хорошёвский,Москва,Москва,4.8,9.0,55.778091,37.526156,branch
ВкусВилл,супермаркет,Супермаркеты; Доставка продуктов; Кулинарии; Доставка еды,"Центральная улица, 6 к2",1 этаж,141446.0,,Химки,Московская область,4.4,11.0,55.948881,37.331158,branch
ВкусВилл,супермаркет,Супермаркеты; Доставка продуктов; Доставка еды,"Ленинградский проспект, 74а",1 этаж,125315.0,Аэропорт,Москва,Москва,3.9,22.0,55.806895,37.516919,branch
ВкусВилл,супермаркет,Супермаркеты; Доставка продуктов; Кулинарии; Доставка еды,"улица 800-летия Москвы, 22 к2",,127247.0,Восточное Дегунино,Москва,Москва,4.8,6.0,55.879206,37.5569,branch
ВкусВилл,супермаркет,Супермаркеты; Доставка продуктов; Кулинарии; Доставка еды,"улица Расковой, 12",цокольный этаж,125040.0,Беговой,Москва,Москва,4.1,7.0,55.786609,37.571478,branch
ВкусВилл,супермаркет,Супермаркеты; Доставка продуктов; Кулинарии; Доставка еды,"улица Зои и Александра Космодемьянских, 4 к1",1 этаж,125171.0,Войковский,Москва,Москва,3.2,8.0,55.818374,37.501942,branch
ВкусВилл,супермаркет,Супермаркеты; Доставка продуктов; Кулинарии; Доставка еды,"Петрозаводская улица, 24а ст1",1 этаж,125414.0,Ховрино,Москва,Москва,4.6,11.0,55.867266,37.493089,branch
ВкусВилл,супермаркет,Супермаркеты; Доставка продуктов; Кулинарии; Доставка еды,"улица Пожарского, вл2",,141406.0,,Химки,Московская область,3.0,2.0,55.891394,37.473496,branch
ВкусВилл,супермаркет,Супермаркеты; Доставка продуктов; Доставка еды,"Головинское шоссе, 5 к1",1 этаж,125212.0,Головинский,Москва,Москва,3.5,12.0,55.839899,37.491224,branch
ВкусВилл,супермаркет,Супермаркеты; Доставка продуктов; Кулинарии; Доставка еды,"Ленинградский проспект, 75 к1",1 этаж,125057.0,Сокол,Москва,Москва,3.6,9.0,55.805198,37.511681,branch
ВкусВилл,супермаркет,Супермаркеты; Доставка продуктов; Кулинарии; Доставка еды,"улица Зои и Александра Космодемьянских, 35/1",1 этаж,125130.0,Коптево,Москва,Москва,4.5,32.0,55.825057,37.525783,branch
ВкусВилл,супермаркет,Супермаркеты; Доставка продуктов; Кулинарии; Доставка еды,"улица Маршала Бирюзова, 19",1 этаж,123060.0,Щукино,Москва,Москва,3.7,11.0,55.794424,37.491096,branch
ВкусВилл,супермаркет,Супермаркеты; Доставка продуктов; Кулинарии; Доставка еды,"улица Черняховского, 6",,125319.0,Аэропорт,Москва,Москва,4.6,22.0,55.804107,37.535217,branch
Азбука daily,супермаркет,Супермаркеты; Доставка продуктов,"проспект Мира, 112а",,129626.0,Алексеевский,Москва,Москва,4.4,19.0,55.807682,37.638069,branch
Азбука Вкуса,супермаркет,Супермаркеты; Доставка продуктов,"улица Космонавтов, 4",,129366.0,Алексеевский,Москва,Москва,4.7,150.0,55.820911,37.645709,branch
Азбука Вкуса,супермаркет,Супермаркеты; Доставка продуктов,"проспект Мира, 97",1 этаж,129085.0,Останкинский,Москва,Москва,4.5,31.0,55.80988,37.636708,branch
ВкусВилл,супермаркет,Супермаркеты,"улица Добролюбова, 8 к2",,127254.0,Бутырский,Москва,Москва,,,55.811093,37.595595,branch
ВкусВилл,супермаркет,Супермаркеты,"Огородный проезд, 16/1 ст3",,127254.0,Бутырский,Москва,Москва,,,55.815954,37.603322,branch
ВкусВилл,супермаркет,Супермаркеты,"улица Годовикова, 11 к1",,129085.0,Останкинский,Москва,Москва,5.0,1.0,55.810219,37.627256,branch
ВкусВилл,супермаркет,Супермаркеты,"Полковника Романова улица, 11",,141031.0,,,Московская область,5.0,1.0,55.903733,37.640152,branch
ВкусВилл,супермаркет,Супермаркеты; Доставка продуктов,"Лазоревый проезд, 1а к2",1 этаж,129323.0,Свиблово,Москва,Москва,,,55.847193,37.638787,branch
ВкусВилл,супермаркет,Супермаркеты; Доставка продуктов,"Новоалексеевская улица, 16 к3",1 этаж,129626.0,Алексеевский,Москва,Москва,,,55.807706,37.648179,branch
ВкусВилл,супермаркет,Супермаркеты,"Октябрьская улица, ст2",,141011.0,,Мытищи,Московская область,5.0,1.0,55.885028,37.741151,branch
ВкусВилл,супермаркет,Супермаркеты,"Сигнальный проезд, 16 к1 ст1",,127273.0,Отрадное,Москва,Москва,5.0,2.0,55.85069,37.601845,branch
ВкусВилл,супермаркет,Супермаркеты,"Осташковская улица, 9 к2",,129345.0,Бабушкинский,Москва,Москва,,,55.877682,37.676663,branch
ВкусВилл,супермаркет,Супермаркеты; Доставка продуктов,"улица Фонвизина, 18",1 этаж,127322.0,Бутырский,Москва,Москва,,,55.821537,37.591832,branch
ВкусВилл,супермаркет,Супермаркеты,"Олонецкая улица, 4",1 этаж,127273.0,Останкинский,Москва,Москва,4.0,5.0,55.852955,37.621292,branch
ВкусВилл,супермаркет,Супермаркеты; Доставка продуктов,"Первомайская улица, 3а",1 этаж,141701.0,,Долгопрудный,Московская область,5.0,3.0,55.926542,37.522418,branch
ВкусВилл,супермаркет,Супермаркеты,"Аргуновская улица, 4",,129075.0,Останкинский,Москва,Москва,4.5,2.0,55.814053,37.620338,branch
ВкусВилл,супермаркет,Супермаркеты,"Полярная улица, 25 к2",,127081.0,Южное Медведково,Москва,Москва,3.3,1.0,55.881645,37.634962,branch
ВкусВилл,супермаркет,Супермаркеты; Доставка продуктов,"Юрловский проезд, 14 к4",,127566.0,Отрадное,Москва,Москва,,,55.878433,37.610658,branch
ВкусВилл,супермаркет,Супермаркеты,"Староалексеевская улица, вл3",1 этаж,129626.0,Алексеевский,Москва,Москва,4.2,3.0,55.810487,37.644101,branch
ВкусВилл,супермаркет,Супермаркеты,"улица Кашёнкин Луг, 8 к2",,127427.0,Марфино,Москва,Москва,2.1,1.0,55.825316,37.59651,branch
ВкусВилл,супермаркет,Супермаркеты,"Ярославское шоссе, 51",1 этаж,129337.0,Ярославский,Москва,Москва,3.7,3.0,55.860807,37.690029,branch
ВкусВилл,супермаркет,Супермаркеты; Кулинарии; Доставка продуктов; Доставка еды,"Заповедная улица, 18 к2",,127081.0,Южное Медведково,Москва,Москва,3.6,1.0,55.867836,37.638881,branch
ВкусВилл,супермаркет,Супермаркеты; Доставка продуктов,"Сельскохозяйственная улица, вл35 к6",1 этаж,129323.0,Останкинский,Москва,Москва,2.7,3.0,55.853831,37.625104,branch
ВкусВилл,супермаркет,Супермаркеты; Доставка продуктов,"Челюскинская улица, 11 ст1",,129336.0,Лосиноостровский,Москва,Москва,5.0,2.0,55.883394,37.706249,branch
ВкусВилл,супермаркет,Супермаркеты; Доставка продуктов,"проезд Серебрякова, 11 к1",,129343.0,Свиблово,Москва,Москва,,,55.847931,37.652718,branch
ВкусВилл,супермаркет,Супермаркеты; Доставка продуктов,"улица Амундсена, 15 к1",,129343.0,Свиблово,Москва,Москва,3.7,3.0,55.854043,37.65573,branch
ВкусВилл,супермаркет,Супермаркеты; Доставка продуктов,"улица Красная Сосна, 3",1 этаж,129337.0,Ярославский,Москва,Москва,4.9,8.0,55.849925,37.683226,branch
ВкусВилл,супермаркет,Супермаркеты,"1-й Трудовой переулок, 4",1 этаж,141014.0,,Мытищи,Московская область,5.0,2.0,55.889695,37.719303,branch
ВкусВилл,супермаркет,Супермаркеты,"9-я Северная линия, 3а",1 этаж,127204.0,Северный,Москва,Москва,5.0,2.0,55.936762,37.552596,branch
ВкусВилл,супермаркет,Супермаркеты,"Складочная улица, 6 к1",1 этаж,127018.0,Марьина Роща,Москва,Москва,3.2,4.0,55.802241,37.596672,branch
ВкусВилл,супермаркет,Супермаркеты,"Полярная улица, 27 к5",,127081.0,Южное Медведково,Москва,Москва,3.5,2.0,55.882985,37.639181,branch
ВкусВилл,супермаркет,Супермаркеты; Доставка продуктов,"Сельскохозяйственная улица, 38 к2",1 этаж,129323.0,Свиблово,Москва,Москва,5.0,7.0,55.847124,37.63164,branch
ВкусВилл,супермаркет,Супермаркеты; Доставка продуктов; Кулинарии; Доставка еды,"улица Коминтерна, 15",1 этаж,129327.0,Лосиноостровский,Москва,Москва,4.5,4.0,55.871243,37.68975,branch
ВкусВилл,супермаркет,Супермаркеты,"Отрадная улица, 7",1 этаж,127273.0,Отрадное,Москва,Москва,3.3,2.0,55.857422,37.609841,branch
ВкусВилл,супермаркет,Супермаркеты; Доставка продуктов; Кулинарии; Доставка еды,"проспект Мира, 95",1 этаж,129085.0,Останкинский,Москва,Москва,4.1,22.0,55.807727,37.635941,branch
ВкусВилл,супермаркет,Супермаркеты; Доставка продуктов; Доставка еды; Кулинарии,"Долгопрудная аллея, 14 к3",1 этаж,127204.0,Северный,Москва,Москва,2.7,3.0,55.941542,37.525028,branch
ВкусВилл,супермаркет,Супермаркеты; Доставка продуктов; Доставка еды,"улица Римского-Корсакова, 11 к5",1 этаж,127566.0,Отрадное,Москва,Москва,5.0,2.0,55.875085,37.603344,branch
ВкусВилл,супермаркет,Супермаркеты; Доставка продуктов; Доставка еды; Кулинарии,"Маломосковская улица, вл14",1 этаж,129164.0,Алексеевский,Москва,Москва,3.1,6.0,55.812836,37.648769,branch
ВкусВилл,супермаркет,Супермаркеты; Доставка продуктов; Доставка еды,"улица Малыгина, 7 ст2",,129345.0,Лосиноостровский,Москва,Москва,4.7,6.0,55.880661,37.694272,branch
ВкусВилл,супермаркет,Супермаркеты; Кулинарии; Доставка продуктов; Доставка еды,"Дмитровское шоссе, 169 к6",,127204.0,Северный,Москва,Москва,4.7,36.0,55.929099,37.542025,branch
ВкусВилл,супермаркет,Супермаркеты; Доставка продуктов,"Ярославское шоссе, 122 к1",1 этаж,129337.0,Ярославский,Москва,Москва,5.0,3.0,55.870337,37.712548,branch
ВкусВилл,супермаркет,Супермаркеты; Доставка продуктов; Кулинарии; Доставка еды,"Первомайская улица, 13/3",1 этаж,141701.0,,Долгопрудный,Московская область,4.5,8.0,55.933795,37.518799,branch
ВкусВилл,супермаркет,Супермаркеты; Доставка продуктов; Кулинарии; Доставка еды,"проспект Мира, 188Б к4",1 этаж,129128.0,Ростокино,Москва,Москва,4.8,20.0,55.834353,37.659293,branch
ВкусВилл,супермаркет,Супермаркеты; Доставка продуктов; Кулинарии; Доставка еды,"улица Цандера, 8",1 этаж,129515.0,Останкинский,Москва,Москва,4.7,14.0,55.818224,37.630913,branch
ВкусВилл,супермаркет,Супермаркеты; Кулинарии; Доставка продуктов; Доставка еды,"Сухонская улица, 15 ст2",,127642.0,Северное Медведково,Москва,Москва,4.8,21.0,55.881411,37.655437,branch
ВкусВилл,супермаркет,Супермаркеты; Доставка продуктов; Кулинарии; Доставка еды,"бульвар Академика Ландау, 1",1 этаж,127495.0,Северный,Москва,Москва,4.8,32.0,55.920219,37.550325,branch
ВкусВилл,супермаркет,Супермаркеты; Кулинарии; Доставка продуктов; Доставка еды,"улица Егора Абакумова, 15а",,129347.0,Ярославский,Москва,Москва,4.7,33.0,55.880189,37.712401,branch
ВкусВилл,супермаркет,Супермаркеты; Кулинарии; Доставка продуктов; Доставка еды,"Рижский проезд, 7",1 этаж,129626.0,Алексеевский,Москва,Москва,4.2,3.0,55.81412,37.660561,branch
ВкусВилл,супермаркет,Супермаркеты; Доставка продуктов; Кулинарии; Доставка еды,"улица Лётчика Бабушкина, 31",,129281.0,Бабушкинский,Москва,Москва,4.8,23.0,55.869914,37.674831,branch
ВкусВилл,супермаркет,Супермаркеты; Доставка продуктов; Кулинарии; Доставка еды,"улица Академика Комарова, 5а",,127276.0,Марфино,Москва,Москва,4.3,4.0,55.829294,37.594937,branch
ВкусВилл,супермаркет,Супермаркеты; Доставка продуктов; Кулинарии; Доставка еды,"Енисейская улица, 11",1 этаж,129327.0,Бабушкинский,Москва,Москва,4.5,7.0,55.865382,37.661549,branch
ВкусВилл,супермаркет,Супермаркеты; Доставка продуктов; Кулинарии; Доставка еды,"Берёзовая аллея, 17 к1",1 этаж,127273.0,Останкинский,Москва,Москва,3.4,9.0,55.850239,37.617086,branch
ВкусВилл,супермаркет,Супермаркеты; Доставка продуктов; Кулинарии; Доставка еды,"1-я Останкинская улица, 23",,129515.0,Останкинский,Москва,Москва,4.7,51.0,55.824305,37.622452,branch
ВкусВилл,супермаркет,Супермаркеты; Доставка продуктов; Кулинарии; Доставка еды,"улица Космонавтов, 12",1 этаж,129366.0,Алексеевский,Москва,Москва,4.7,20.0,55.821002,37.653169,branch
ВкусВилл,супермаркет,Супермаркеты; Доставка продуктов; Кулинарии; Доставка еды,"проезд Русанова, 35",,129323.0,Свиблово,Москва,Москва,4.7,22.0,55.857248,37.637416,branch
ВкусВилл,супермаркет,Супермаркеты; Доставка продуктов; Кулинарии; Доставка еды,"Изумрудная улица, 24",,129346.0,Лосиноостровский,Москва,Москва,4.3,8.0,55.872265,37.684646,branch
ВкусВилл,супермаркет,Супермаркеты; Доставка продуктов; Доставка еды,"Кибальчича улица, 4/6",1 этаж,129164.0,Алексеевский,Москва,Москва,4.8,14.0,55.816005,37.647363,branch
ВкусВилл,супермаркет,Супермаркеты; Доставка продуктов; Кулинарии; Доставка еды,"Широкая улица, 27",,127224.0,Северное Медведково,Москва,Москва,3.9,11.0,55.887651,37.675461,branch
ВкусВилл,супермаркет,Супермаркеты; Доставка продуктов; Кулинарии; Доставка еды,"улица Лескова, 19а ст2",1 этаж,127543.0,Бибирево,Москва,Москва,4.9,17.0,55.894085,37.616457,branch
ВкусВилл,супермаркет,Супермаркеты; Доставка продуктов; Кулинарии; Доставка еды,"Алтуфьевское шоссе, 58",,127549.0,Алтуфьевский,Москва,Москва,4.8,33.0,55.881905,37.587595,branch
ВкусВилл,супермаркет,Супермаркеты; Доставка продуктов; Кулинарии; Доставка еды,"улица Веры Волошиной, 22",1 этаж,141014.0,,Мытищи,Московская область,4.1,2.0,55.89513,37.716911,branch
ВкусВилл,супермаркет,Супермаркеты; Доставка продуктов; Кулинарии; Доставка еды,"улица Декабристов, 15",1 этаж,127566.0,Отрадное,Москва,Москва,4.7,9.0,55.865371,37.602805,branch
ВкусВилл,супермаркет,Супермаркеты; Доставка продуктов; Кулинарии; Доставка еды,"проезд Шокальского, 2",,127642.0,Южное Медведково,Москва,Москва,5.0,45.0,55.872159,37.647201,branch
ВкусВилл,супермаркет,Супермаркеты; Доставка продуктов; Кулинарии; Доставка еды,"улица Лётчика Бабушкина, 11/2 к1",1 этаж; около магазина Красное&Белое,129344.0,Бабушкинский,Москва,Москва,4.7,25.0,55.861006,37.673559,branch
ВкусВилл,супермаркет,Супермаркеты; Доставка продуктов; Кулинарии; Доставка еды,"Ботаническая улица, 27",1 этаж,127276.0,Марфино,Москва,Москва,3.7,18.0,55.833148,37.595064,branch
ВкусВилл,супермаркет,Супермаркеты; Доставка продуктов; Кулинарии; Доставка еды,"улица Римского-Корсакова, 18",,127566.0,Отрадное,Москва,Москва,4.8,37.0,55.874388,37.608238,branch
ВкусВилл,супермаркет,Супермаркеты; Доставка продуктов; Кулинарии; Доставка еды,"Абрамцевская улица, 24а",,127572.0,Лианозово,Москва,Москва,4.4,7.0,55.904166,37.574436,branch
ВкусВилл,супермаркет,Супермаркеты; Доставка продуктов; Кулинарии; Доставка еды,"Тайнинская улица, 16 к1",1 этаж,129345.0,Лосиноостровский,Москва,Москва,5.0,2.0,55.880999,37.684298,branch
ВкусВилл,супермаркет,Супермаркеты; Доставка продуктов; Кулинарии; Доставка еды,"Первомайская улица, 56Б",,141701.0,,Долгопрудный,Московская область,4.0,19.0,55.939604,37.517076,branch
ВкусВилл,супермаркет,Супермаркеты; Доставка продуктов; Кулинарии; Доставка еды,"проезд Дежнёва, 27 к1",1 этаж,127081.0,Южное Медведково,Москва,Москва,4.6,25.0,55.870281,37.633804,branch
ВкусВилл,супермаркет,Супермаркеты; Доставка продуктов; Кулинарии; Доставка еды,"Ясный проезд, 10",1 этаж,127081.0,Южное Медведково,Москва,Москва,4.0,5.0,55.873771,37.629227,branch
ВкусВилл,супермаркет,Супермаркеты; Доставка продуктов; Кулинарии; Доставка еды,"Полярная улица, 10 ст1",1 этаж,127221.0,Южное Медведково,Москва,Москва,4.5,15.0,55.874751,37.637938,branch
ВкусВилл,супермаркет,Супермаркеты; Доставка продуктов; Кулинарии; Доставка еды,"Енисейская улица, 22 к2",1 этаж,129327.0,Бабушкинский,Москва,Москва,4.6,38.0,55.8689,37.664624,branch
ВкусВилл,супермаркет,Супермаркеты; Доставка продуктов; Кулинарии; Доставка еды,"улица Академика Королёва, 5",,129515.0,Останкинский,Москва,Москва,4.6,10.0,55.820949,37.629362,branch
ВкусВилл,супермаркет,Супермаркеты; Доставка продуктов; Кулинарии; Доставка еды,"улица Веры Волошиной, 10",1 этаж,141014.0,,Мытищи,Московская область,5.0,2.0,55.892744,37.725902,branch
ВкусВилл,супермаркет,Супермаркеты; Доставка продуктов; Кулинарии; Доставка еды,"проспект Мира, 182",1 этаж,129366.0,Алексеевский,Москва,Москва,4.5,17.0,55.825497,37.647046,branch
ВкусВилл,супермаркет,Супермаркеты; Доставка продуктов; Кулинарии; Доставка еды,"улица Хачатуряна, 18а",,127273.0,Отрадное,Москва,Москва,3.9,17.0,55.861344,37.603663,branch
ВкусВилл,супермаркет,Супермаркеты; Доставка продуктов; Кулинарии; Доставка еды,"МКАД 87 километр, 8",1 этаж,127543.0,Бибирево,Москва,Москва,4.8,17.0,55.898254,37.629652,branch
ВкусВилл,супермаркет,Супермаркеты; Доставка продуктов; Кулинарии; Доставка еды,"Алтуфьевское шоссе, 93",,127572.0,Лианозово,Москва,Москва,3.6,4.0,55.900147,37.585857,branch
ВкусВилл,супермаркет,Супермаркеты; Доставка продуктов; Кулинарии; Доставка еды,"Ботаническая улица, 19",1 этаж,127427.0,Марфино,Москва,Москва,4.5,7.0,55.828297,37.601143,branch
ВкусВилл,супермаркет,Супермаркеты; Доставка продуктов; Кулинарии; Доставка еды,"улица Лескова, 2",,127349.0,Бибирево,Москва,Москва,4.0,14.0,55.897883,37.590444,branch
ВкусВилл,супермаркет,Супермаркеты; Доставка продуктов; Кулинарии; Доставка еды,"Ярославская улица, 11 ст2",,129366.0,Алексеевский,Москва,Москва,4.5,65.0,55.818156,37.646693,branch
ВкусВилл,супермаркет,Супермаркеты; Доставка продуктов; Кулинарии; Доставка еды,"улица Грекова, 22",1 этаж,127224.0,Северное Медведково,Москва,Москва,4.2,14.0,55.89231,37.662711,branch
ВкусВилл,супермаркет,Супермаркеты; Доставка продуктов; Кулинарии; Доставка еды,"улица Бажова, 8",1 этаж,129128.0,Ростокино,Москва,Москва,4.4,11.0,55.833114,37.662293,branch
ВкусВилл,супермаркет,Супермаркеты; Доставка продуктов; Кулинарии; Доставка еды,"улица Менжинского, 23 к1",1 этаж,129327.0,Бабушкинский,Москва,Москва,4.6,17.0,55.870117,37.659321,branch
ВкусВилл,супермаркет,Супермаркеты; Доставка продуктов; Кулинарии; Доставка еды,"Каргопольская улица, 18 ст1",1 этаж,127562.0,Отрадное,Москва,Москва,4.7,12.0,55.864586,37.593655,branch
ВкусВилл,супермаркет,Супермаркеты; Доставка продуктов; Кулинарии; Доставка еды,"улица Пришвина, 26",1 этаж,127560.0,Бибирево,Москва,Москва,4.2,8.0,55.884912,37.602913,branch
ВкусВилл,супермаркет,Супермаркеты; Доставка продуктов; Кулинарии; Доставка еды,"Ярославское шоссе, 2 к2",1 этаж,129337.0,Ярославский,Москва,Москва,4.7,6.0,55.852786,37.680442,branch
ВкусВилл,супермаркет,Супермаркеты; Доставка продуктов; Кулинарии; Доставка еды,"проспект Мира, 116",1 этаж,129626.0,Алексеевский,Москва,Москва,4.1,11.0,55.80882,37.637869,branch
ВкусВилл,супермаркет,Супермаркеты; Доставка продуктов; Кулинарии; Доставка еды,"Широкая улица, 12",1 этаж,127282.0,Северное Медведково,Москва,Москва,4.5,14.0,55.886436,37.659106,branch
ВкусВилл,супермаркет,Супермаркеты; Доставка продуктов; Кулинарии; Доставка еды,"улица Бориса Галушкина, 16",1 этаж,129301.0,Алексеевский,Москва,Москва,4.1,8.0,55.823519,37.65615,branch
ВкусВилл,супермаркет,Супермаркеты; Доставка продуктов; Кулинарии; Доставка еды,"Снежная улица, 21",,129323.0,Свиблово,Москва,Москва,4.4,12.0,55.854911,37.650981,branch
ВкусВилл мини,супермаркет,Супермаркеты; Доставка продуктов; Доставка еды; Кулинарии,"Дмитровское шоссе, 124а",,127495.0,Северный,Москва,Москва,3.1,4.0,55.926072,37.54997,branch
Азбука Вкуса,супермаркет,Супермаркеты; Доставка продуктов,"Щёлковское шоссе, 8",1 этаж,105122.0,Северное Измайлово,Москва,Москва,4.5,95.0,55.804448,37.761416,branch
Азбука Вкуса,супермаркет,Супермаркеты; Доставка продуктов,"Жулебинский бульвар, 16",1 этаж,109153.0,Выхино-Жулебино,Москва,Москва,4.8,127.0,55.696644,37.852886,branch
ВкусВилл,супермаркет,Супермаркеты,"улица Лапина, 1",1 этаж,111116.0,Лефортово,Москва,Москва,3.2,1.0,55.757513,37.713033,branch
ВкусВилл,супермаркет,Супермаркеты; Доставка продуктов,"Реутовская улица, 20",1 этаж,143908.0,,Балашиха,Московская область,5.0,1.0,55.785822,37.849631,branch
ВкусВилл,супермаркет,Супермаркеты,"Первомайская улица, 107",1 этаж,105077.0,Восточное Измайлово,Москва,Москва,5.0,1.0,55.793641,37.810855,branch
ВкусВилл,супермаркет,Супермаркеты,"Мирской проезд, 3",1 этаж,143930.0,,Балашиха,Московская область,5.0,2.0,55.740927,37.882741,branch
ВкусВилл,супермаркет,Супермаркеты; Доставка еды; Доставка продуктов,"проспект Будённого, 39 к1",,105275.0,Соколиная Гора,Москва,Москва,3.0,2.0,55.763577,37.734926,branch
ВкусВилл,супермаркет,Супермаркеты,"15-я Парковая улица, 10",1 этаж,105203.0,Восточное Измайлово,Москва,Москва,5.0,2.0,55.79291,37.819416,branch
ВкусВилл,супермаркет,Супермаркеты,"Перовское шоссе, 2 к3",,109202.0,Нижегородский,Москва,Москва,4.5,2.0,55.734343,37.742282,branch
ВкусВилл,супермаркет,Супермаркеты; Доставка продуктов,"Пронская улица, 5а",,109145.0,Выхино-Жулебино,Москва,Москва,3.6,2.0,55.701706,37.846137,branch
ВкусВилл,супермаркет,Супермаркеты; Доставка продуктов,"2-я Владимирская улица, 3",1 этаж,111123.0,Перово,Москва,Москва,,,55.761845,37.778639,branch
ВкусВилл,супермаркет,Супермаркеты,"Иркутская улица, 7 ст9",,107497.0,Гольяново,Москва,Москва,5.0,1.0,55.818222,37.78253,branch
ВкусВилл,супермаркет,Супермаркеты,"Перовская улица, 66 к2",1 этаж,111394.0,Новогиреево,Москва,Москва,1.8,4.0,55.743261,37.800754,branch
ВкусВилл,супермаркет,Супермаркеты,"Суворовская улица, 20",1 этаж,107023.0,Преображенское,Москва,Москва,5.0,3.0,55.792973,37.711483,branch
ВкусВилл,супермаркет,Супермаркеты,"улица Недорубова, 30",1 этаж,111677.0,Некрасовка,Москва,Москва,5.0,2.0,55.707582,37.934621,branch
ВкусВилл,супермаркет,Супермаркеты; Доставка продуктов; Доставка еды; Кулинарии,"Святоозёрская улица, 18",,111675.0,Косино-Ухтомский,Москва,Москва,4.7,6.0,55.712334,37.890785,branch
ВкусВилл,супермаркет,Супермаркеты,"улица Наташи Качуевской, вл3",,111675.0,Косино-Ухтомский,Москва,Москва,,,55.712543,37.878647,branch
ВкусВилл,супермаркет,Супермаркеты; Доставка продуктов,"Реутовская улица, 26",1 этаж,143908.0,,Балашиха,Московская область,,,55.787013,37.852444,branch
ВкусВилл,супермаркет,Супермаркеты; Доставка продуктов; Доставка еды; Кулинарии,"улица Дмитриевского, 23 к1",,111675.0,Косино-Ухтомский,Москва,Москва,,,55.710784,37.896806,branch
ВкусВилл,супермаркет,Супермаркеты,"улица Юности, 4",1 этаж,140013.0,,Люберцы,Московская область,3.3,2.0,55.702818,37.910924,branch
ВкусВилл,супермаркет,Супермаркеты; Доставка продуктов; Кулинарии; Доставка еды,"Красноказарменная улица, 14а к6",1 этаж,111250.0,Лефортово,Москва,Москва,5.0,5.0,55.752218,37.711318,branch
ВкусВилл,супермаркет,Супермаркеты; Доставка продуктов,"Лухмановская улица, 15 к2",,111675.0,Косино-Ухтомский,Москва,Москва,5.0,2.0,55.721706,37.89245,branch
ВкусВилл,супермаркет,Супермаркеты; Доставка продуктов,"Реутовская улица, 11",1 этаж,143908.0,,Балашиха,Московская область,5.0,3.0,55.783819,37.851932,branch
ВкусВилл,супермаркет,Супермаркеты,"улица Октября, 42",1 этаж,143962.0,,Реутов,Московская область,5.0,1.0,55.755242,37.88027,branch
ВкусВилл,супермаркет,Супермаркеты; Кулинарии; Доставка продуктов; Доставка еды,"Измайловский проезд, 5а",1 этаж,105037.0,Измайлово,Москва,Москва,4.4,14.0,55.795806,37.765487,branch
ВкусВилл,супермаркет,Супермаркеты; Доставка продуктов,"Носовихинское шоссе, 37",,143962.0,,Реутов,Московская область,5.0,3.0,55.75127,37.882963,branch
ВкусВилл,супермаркет,Супермаркеты; Кулинарии; Доставка продуктов; Доставка еды,"улица Октября, 52",1 этаж,143962.0,,Реутов,Московская область,,,55.755994,37.886723,branch
ВкусВилл,супермаркет,Супермаркеты,"Измайловский проезд, 9 к3",,105037.0,Измайлово,Москва,Москва,5.0,1.0,55.798295,37.76891,branch
ВкусВилл,супермаркет,Супермаркеты; Доставка продуктов; Доставка еды,"Тюменский проезд, 3 к5",,107370.0,Богородское,Москва,Москва,4.8,10.0,55.811083,37.739883,branch
ВкусВилл,супермаркет,Супермаркеты; Доставка продуктов,"Вольная улица, 28/4 к2",1 этаж,105187.0,Соколиная Гора,Москва,Москва,4.8,10.0,55.775284,37.738085,branch
ВкусВилл,супермаркет,Супермаркеты; Кулинарии; Доставка продуктов; Доставка еды,"улица 8 Марта, 14 к2",,140007.0,,Люберцы,Московская область,3.6,3.0,55.699761,37.879936,branch
ВкусВилл,супермаркет,Супермаркеты; Кулинарии; Доставка продуктов; Доставка еды,"Тагильская улица, 4а",1 этаж,107143.0,Метрогородок,Москва,Москва,4.6,11.0,55.817603,37.753919,branch
ВкусВилл,супермаркет,Супермаркеты; Кулинарии; Доставка продуктов; Доставка еды,"улица Михайлова, 30а к4",1 этаж,109428.0,Рязанский,Москва,Москва,4.6,30.0,55.724018,37.776903,branch
ВкусВилл,супермаркет,Супермаркеты; Доставка продуктов; Кулинарии; Доставка еды,"проспект Будённого, 51 к5",,105275.0,Соколиная Гора,Москва,Москва,4.3,10.0,55.759249,37.738855,branch
ВкусВилл,супермаркет,Супермаркеты; Доставка продуктов; Кулинарии; Доставка еды,"Лухмановская улица, 24а",1 этаж,111675.0,Косино-Ухтомский,Москва,Москва,5.0,3.0,55.722384,37.905533,branch
ВкусВилл,супермаркет,Супермаркеты; Доставка продуктов; Кулинарии,"Открытое шоссе, 5а",1 этаж,107370.0,Богородское,Москва,Москва,4.4,3.0,55.814285,37.733446,branch
ВкусВилл,супермаркет,Супермаркеты; Доставка продуктов; Доставка еды; Кулинарии,"Амурская улица, 1а к3",1 этаж,107553.0,Гольяново,Москва,Москва,4.4,17.0,55.808048,37.760488,branch
ВкусВилл,супермаркет,Супермаркеты; Доставка продуктов; Кулинарии; Доставка еды,"Авиамоторная улица, 12",,111024.0,Лефортово,Москва,Москва,4.7,20.0,55.753263,37.715889,branch
ВкусВилл,супермаркет,Супермаркеты; Доставка продуктов; Доставка еды; Кулинарии,"Краснобогатырская улица, 90",1 этаж,107076.0,Преображенское,Москва,Москва,4.2,5.0,55.801038,37.70862,branch
ВкусВилл,супермаркет,Супермаркеты; Доставка продуктов; Доставка еды,"Измайловский бульвар, 11",1 этаж,105264.0,Измайлово,Москва,Москва,4.8,23.0,55.797076,37.787301,branch
ВкусВилл,супермаркет,Супермаркеты; Доставка продуктов; Доставка еды; Кулинарии,"улица Академика Скрябина, 1/58",1 этаж,109377.0,Выхино-Жулебино,Москва,Москва,4.4,11.0,55.714584,37.797195,branch
ВкусВилл,супермаркет,Супермаркеты; Доставка продуктов; Доставка еды; Кулинарии,"Рождественская улица, 29",1 этаж,111677.0,Некрасовка,Москва,Москва,4.5,7.0,55.70702,37.92991,branch
ВкусВилл,супермаркет,Супермаркеты; Доставка продуктов; Доставка еды; Кулинарии,"Реутовская улица, 15",1 этаж,143908.0,,Балашиха,Московская область,4.8,10.0,55.784199,37.846722,branch
ВкусВилл,супермаркет,Супермаркеты; Доставка продуктов; Кулинарии; Доставка еды,"Сиреневый бульвар, 59 ст1",,105484.0,Северное Измайлово,Москва,Москва,4.9,14.0,55.803611,37.817548,branch
ВкусВилл,супермаркет,Супермаркеты; Доставка продуктов; Кулинарии; Доставка еды,"Вешняковская улица, 15а",1 этаж,111539.0,Вешняки,Москва,Москва,4.8,63.0,55.735405,37.829673,branch
ВкусВилл,супермаркет,Супермаркеты; Доставка продуктов; Кулинарии; Доставка еды,"Юбилейный проспект, 33",,143965.0,,Реутов,Московская область,5.0,1.0,55.751228,37.869964,branch
ВкусВилл,супермаркет,Супермаркеты; Доставка продуктов; Доставка еды; Кулинарии,"Юрьевский переулок, 22 к1",1 этаж,111020.0,Лефортово,Москва,Москва,4.6,31.0,55.762773,37.717674,branch
ВкусВилл,супермаркет,Супермаркеты; Доставка продуктов; Кулинарии; Доставка еды,"2-я Карачаровская улица, 1 ст1",1 этаж,109202.0,Нижегородский,Москва,Москва,5.0,14.0,55.734639,37.752718,branch
ВкусВилл,супермаркет,Супермаркеты; Доставка продуктов; Кулинарии; Доставка еды,"Снайперская улица, 8",,111395.0,Вешняки,Москва,Москва,4.7,31.0,55.722249,37.812285,branch
ВкусВилл,супермаркет,Супермаркеты; Доставка продуктов; Кулинарии; Доставка еды,"9-я Парковая улица, 59 к2",1 этаж,105215.0,Северное Измайлово,Москва,Москва,4.6,36.0,55.807937,37.798109,branch
ВкусВилл,супермаркет,Супермаркеты; Доставка продуктов; Кулинарии; Доставка еды,"Щербаковская улица, 3",1 этаж,105318.0,Соколиная Гора,Москва,Москва,4.4,4.0,55.782667,37.723804,branch
ВкусВилл,супермаркет,Супермаркеты; Доставка продуктов; Кулинарии; Доставка еды,"Фортунатовская улица, 33/44",1 этаж,105187.0,Соколиная Гора,Москва,Москва,4.4,8.0,55.784461,37.738841,branch
ВкусВилл,супермаркет,Супермаркеты; Доставка продуктов; Кулинарии; Доставка еды,"Лечебная улица, 14",1 этаж,105187.0,Соколиная Гора,Москва,Москва,4.7,27.0,55.790077,37.736835,branch
ВкусВилл,супермаркет,Супермаркеты; Доставка продуктов; Кулинарии; Доставка еды,"Погонный проезд, 3а",1 этаж,107564.0,Богородское,Москва,Москва,4.7,3.0,55.819237,37.702003,branch
ВкусВилл,супермаркет,Супермаркеты; Кулинарии; Доставка продуктов; Доставка еды,"Магнитогорская улица, 7",1 этаж,105568.0,Ивановское,Москва,Москва,4.7,35.0,55.77443,37.825579,branch
ВкусВилл,супермаркет,Супермаркеты; Кулинарии,"Зелёный проспект, 54а",,111396.0,Новогиреево,Москва,Москва,,,55.751918,37.812574,branch
ВкусВилл,супермаркет,Супермаркеты; Доставка продуктов; Кулинарии; Доставка еды,"Носовихинское шоссе, 27",1 этаж,143962.0,,Реутов,Московская область,3.8,7.0,55.748807,37.877505,branch
ВкусВилл,супермаркет,Супермаркеты; Кулинарии; Доставка продуктов; Доставка еды,"Новокосинская улица, 15а ст1",,111673.0,Новокосино,Москва,Москва,4.6,32.0,55.737642,37.854679,branch
ВкусВилл,супермаркет,Супермаркеты; Доставка продуктов; Кулинарии; Доставка еды,"проспект Будённого, 29/1",,105275.0,Соколиная Гора,Москва,Москва,4.5,35.0,55.767963,37.730701,branch
ВкусВилл,супермаркет,Супермаркеты; Доставка продуктов; Кулинарии; Доставка еды,"11-я Парковая улица, 9/35",1 этаж,105554.0,Восточное Измайлово,Москва,Москва,4.5,15.0,55.791402,37.805407,branch
ВкусВилл,супермаркет,Супермаркеты; Доставка продуктов; Кулинарии; Доставка еды,"улица Урицкого, 14",1 этаж,140007.0,,Люберцы,Московская область,4.5,12.0,55.700194,37.892644,branch
ВкусВилл,супермаркет,Супермаркеты; Доставка продуктов; Кулинарии; Доставка еды,"Авиамоторная улица, 47",1 этаж,111024.0,Лефортово,Москва,Москва,4.2,7.0,55.750062,37.718556,branch
ВкусВилл,супермаркет,Супермаркеты; Доставка продуктов; Кулинарии; Доставка еды,"Юбилейный проспект, 55",1 этаж,143962.0,,Реутов,Московская область,4.6,10.0,55.753358,37.881284,branch
ВкусВилл,супермаркет,Супермаркеты; Доставка продуктов; Кулинарии; Доставка еды,"улица Победы, 18",,143960.0,,Реутов,Московская область,5.0,10.0,55.764365,37.853847,branch
ВкусВилл,супермаркет,Супермаркеты; Доставка продуктов; Кулинарии; Доставка еды,"микрорайон 1 Мая, 17",1 этаж,143911.0,,Балашиха,Московская область,3.8,3.0,55.806438,37.84343,branch
ВкусВилл,супермаркет,Супермаркеты; Доставка продуктов; Кулинарии; Доставка еды,"улица Реутовских ополченцев, 2",1 этаж,143968.0,,Реутов,Московская область,4.5,4.0,55.771153,37.846656,branch
ВкусВилл,супермаркет,Супермаркеты; Доставка продуктов; Кулинарии; Доставка еды,"Сиреневый бульвар, 69 к1",1 этаж,105484.0,Северное Измайлово,Москва,Москва,4.8,36.0,55.803633,37.825697,branch
ВкусВилл,супермаркет,Супермаркеты; Доставка продуктов; Кулинарии; Доставка еды,"Мироновская улица, 18",1 этаж,105187.0,Соколиная Гора,Москва,Москва,5.0,11.0,55.787255,37.73357,branch
ВкусВилл,супермаркет,Супермаркеты; Доставка продуктов; Кулинарии; Доставка еды,"Изумрудный квартал, 12",1 этаж,143906.0,,Балашиха,Московская область,4.2,4.0,55.824004,37.888443,branch
ВкусВилл,супермаркет,Супермаркеты; Доставка продуктов; Кулинарии; Доставка еды,"Игральная улица, 10",1 этаж,107258.0,Богородское,Москва,Москва,4.7,7.0,55.816116,37.715186,branch
ВкусВилл,супермаркет,Супермаркеты; Доставка продуктов; Кулинарии; Доставка еды,"2-я Прядильная улица, 4",1 этаж,105037.0,Измайлово,Москва,Москва,4.8,17.0,55.79526,37.776854,branch
ВкусВилл,супермаркет,Супермаркеты; Доставка продуктов; Кулинарии; Доставка еды,"бульвар Маршала Рокоссовского, 4",1 этаж,107370.0,Богородское,Москва,Москва,4.6,37.0,55.810944,37.730238,branch
ВкусВилл,супермаркет,Супермаркеты; Доставка продуктов; Кулинарии; Доставка еды,"Кольцевая улица, 20",1 этаж,143906.0,,Балашиха,Московская область,4.8,4.0,55.820594,37.873981,branch
ВкусВилл,супермаркет,Супермаркеты; Доставка продуктов; Кулинарии; Доставка еды,"улица Плеханова, 24 к1",1 этаж,111398.0,Перово,Москва,Москва,4.7,37.0,55.741448,37.767704,branch
ВкусВилл,супермаркет,Супермаркеты; Доставка продуктов; Кулинарии; Доставка еды,"Первомайская улица, 74",1 этаж,105554.0,Восточное Измайлово,Москва,Москва,4.4,16.0,55.793104,37.800414,branch
ВкусВилл,супермаркет,Супермаркеты; Доставка продуктов; Кулинарии; Доставка еды,"Новокосинская улица, 18",1 этаж,111672.0,Новокосино,Москва,Москва,5.0,2.0,55.739399,37.859192,branch
ВкусВилл,супермаркет,Супермаркеты; Доставка продуктов; Кулинарии; Доставка еды,"3-я Владимирская улица, 25 к1",,111397.0,Перово,Москва,Москва,4.6,20.0,55.754723,37.790602,branch
ВкусВилл,супермаркет,Супермаркеты; Доставка продуктов; Кулинарии; Доставка еды,"Просторная улица, 6",1 этаж,107392.0,Преображенское,Москва,Москва,4.2,8.0,55.804824,37.715756,branch
ВкусВилл,супермаркет,Супермаркеты; Доставка продуктов; Кулинарии; Доставка еды,"3-я Владимирская улица, 4",1 этаж,111123.0,Перово,Москва,Москва,4.8,20.0,55.763289,37.784599,branch
ВкусВилл,супермаркет,Супермаркеты; Доставка продуктов; Кулинарии; Доставка еды,"Уральская улица, 11",1 этаж,107241.0,Гольяново,Москва,Москва,5.0,6.0,55.81761,37.797705,branch
ВкусВилл,супермаркет,Супермаркеты; Доставка продуктов; Кулинарии; Доставка еды,"Саянская улица, 6а",,111555.0,Ивановское,Москва,Москва,4.8,55.0,55.767273,37.82702,branch
ВкусВилл,супермаркет,Супермаркеты; Доставка продуктов; Кулинарии; Доставка еды,"Измайловский бульвар, 58",1 этаж,105077.0,Восточное Измайлово,Москва,Москва,4.3,9.0,55.796474,37.812265,branch
ВкусВилл,супермаркет,Супермаркеты; Доставка продуктов; Кулинарии,"Рязанский проспект, 66",,109542.0,Выхино-Жулебино,Москва,Москва,4.7,19.0,55.714557,37.804873,branch
ВкусВилл,супермаркет,Супермаркеты; Доставка продуктов; Кулинарии; Доставка еды,"Мартеновская улица, 9",1 этаж,111399.0,Перово,Москва,Москва,3.0,2.0,55.756814,37.80488,branch
ВкусВилл,супермаркет,Супермаркеты; Доставка продуктов; Кулинарии; Доставка еды,"улица Стромынка, 14 к1",1 этаж,107076.0,Сокольники,Москва,Москва,4.5,17.0,55.793261,37.692207,branch
ВкусВилл,супермаркет,Супермаркеты; Доставка продуктов; Кулинарии; Доставка еды,"Перовская улица, 33 к1",1 этаж,111141.0,Перово,Москва,Москва,4.8,25.0,55.74749,37.775725,branch
ВкусВилл,супермаркет,Супермаркеты; Доставка продуктов; Кулинарии; Доставка еды,"Чусовская улица, 15",1 этаж,107207.0,Гольяново,Москва,Москва,5.0,6.0,55.816429,37.81143,branch
ВкусВилл,супермаркет,Супермаркеты; Доставка продуктов; Кулинарии; Доставка еды,"Рязанский проспект, 75Б ст2",1 этаж,109456.0,Рязанский,Москва,Москва,4.1,8.0,55.717778,37.793332,branch
ВкусВилл,супермаркет,Супермаркеты; Доставка продуктов; Кулинарии; Доставка еды,"Новокосинская улица, 47",1 этаж,111672.0,Новокосино,Москва,Москва,4.7,6.0,55.743657,37.874035,branch
ВкусВилл,супермаркет,Супермаркеты; Доставка продуктов; Кулинарии; Доставка еды,"1-я Мясниковская улица, 2",,107564.0,Богородское,Москва,Москва,4.8,19.0,55.816281,37.702026,branch
ВкусВилл,супермаркет,Супермаркеты; Доставка продуктов; Кулинарии; Доставка еды,"улица Михайлова, 22 к1",1 этаж,109428.0,Рязанский,Москва,Москва,4.7,34.0,55.726739,37.768906,branch
ВкусВилл,супермаркет,Супермаркеты; Доставка продуктов; Кулинарии; Доставка еды,"Первомайская улица, 34/16",1 этаж,105043.0,Измайлово,Москва,Москва,4.9,43.0,55.792737,37.783661,branch
ВкусВилл,супермаркет,Супермаркеты; Доставка продуктов; Кулинарии; Доставка еды,"2-я Владимирская улица, 55",1 этаж,111394.0,Новогиреево,Москва,Москва,3.6,11.0,55.745224,37.788609,branch
ВкусВилл,супермаркет,Супермаркеты; Доставка продуктов; Доставка еды; Кулинарии,"Сиреневый бульвар, 28",1 этаж,105264.0,Измайлово,Москва,Москва,4.6,31.0,55.802512,37.800135,branch
ВкусВилл,супермаркет,Супермаркеты; Доставка продуктов; Кулинарии; Доставка еды,"Открытое шоссе, 24 к11",1 этаж,107143.0,Метрогородок,Москва,Москва,4.7,7.0,55.823355,37.757011,branch
ВкусВилл,супермаркет,Супермаркеты; Доставка продуктов; Кулинарии; Доставка еды,"Преображенская площадь, 6",1 этаж,107061.0,Преображенское,Москва,Москва,4.8,19.0,55.795047,37.710906,branch
ВкусВилл,супермаркет,Супермаркеты; Доставка продуктов; Кулинарии; Доставка еды,"Суздальская улица, 30/2",,111673.0,Новокосино,Москва,Москва,4.3,23.0,55.743693,37.863173,branch
ВкусВилл,супермаркет,Супермаркеты; Доставка продуктов; Кулинарии; Доставка еды,"1-я Владимирская улица, 21",1 этаж,111401.0,Перово,Москва,Москва,4.5,4.0,55.756187,37.77672,branch
ВкусВилл,супермаркет,Супермаркеты; Доставка продуктов; Кулинарии; Доставка еды,"Большая Черкизовская улица, 6",1 этаж,107061.0,Преображенское,Москва,Москва,3.9,9.0,55.796466,37.71939,branch
ВкусВилл,супермаркет,Супермаркеты; Доставка продуктов; Кулинарии; Доставка еды,"Щёлковское шоссе, 12 к1",1 этаж,105122.0,Северное Измайлово,Москва,Москва,4.8,40.0,55.806476,37.769788,branch
ВкусВилл,супермаркет,Супермаркеты; Доставка продуктов; Кулинарии; Доставка еды,"Краснобогатырская улица, 29",,107564.0,Богородское,Москва,Москва,4.1,9.0,55.810239,37.704257,branch
ВкусВилл,супермаркет,Супермаркеты; Доставка продуктов; Кулинарии; Доставка еды,"Халтуринская улица, 17",1 этаж,107392.0,Преображенское,Москва,Москва,4.3,10.0,55.80346,37.725758,branch
ВкусВилл,супермаркет,Супермаркеты; Доставка продуктов; Кулинарии; Доставка еды,"Первомайская улица, 46",1 этаж,105043.0,Измайлово,Москва,Москва,4.5,26.0,55.792936,37.789596,branch
ВкусВилл,супермаркет,Супермаркеты; Доставка продуктов; Кулинарии; Доставка еды,"Зелёный проспект, 60а",,111396.0,Новогиреево,Москва,Москва,4.4,40.0,55.751044,37.81773,branch
ВкусВилл,супермаркет,Супермаркеты; Доставка продуктов; Кулинарии; Доставка еды,"Носовихинское шоссе, 9",1 этаж,143965.0,,Реутов,Московская область,3.0,5.0,55.745509,37.861105,branch
ВкусВилл,супермаркет,Супермаркеты; Доставка продуктов; Кулинарии; Доставка еды,"Вешняковская улица, 29",1 этаж,111538.0,Вешняки,Москва,Москва,3.8,8.0,55.724049,37.827756,branch
ВкусВилл,супермаркет,Супермаркеты; Доставка продуктов; Доставка еды; Кулинарии,"улица Молостовых, 14 к1",1 этаж,111558.0,Ивановское,Москва,Москва,4.4,6.0,55.754834,37.831725,branch
ВкусВилл,супермаркет,Супермаркеты; Доставка продуктов; Кулинарии; Доставка еды,"Хабаровская улица, 8",1 этаж,107589.0,Гольяново,Москва,Москва,4.6,8.0,55.819594,37.827349,branch
ВкусВилл,супермаркет,Супермаркеты; Доставка продуктов; Кулинарии; Доставка еды,"Юбилейный проспект, 47",,143962.0,,Реутов,Московская область,4.7,3.0,55.75233,37.875584,branch
ВкусВилл,супермаркет,Супермаркеты; Доставка продуктов; Кулинарии; Доставка еды,"Новогиреевская улица, 20/34 к2",1 этаж,111399.0,Перово,Москва,Москва,4.8,15.0,55.758534,37.794992,branch
ВкусВилл,супермаркет,Супермаркеты; Доставка продуктов; Кулинарии; Доставка еды,"Комсомольская улица, 18/2",1 этаж,143964.0,,Реутов,Московская область,3.6,7.0,55.756603,37.851217,branch
ВкусВилл,супермаркет,Супермаркеты; Доставка продуктов; Кулинарии; Доставка еды,"улица Г.И. Котовского, 12",,143965.0,,Реутов,Московская область,5.0,2.0,55.746635,37.867502,branch
ВкусВилл,супермаркет,Супермаркеты; Доставка продуктов; Кулинарии; Доставка еды,"улица Кирова, 1",1 этаж,140002.0,,Люберцы,Московская область,5.0,7.0,55.691497,37.861694,branch
ВкусВилл,супермаркет,Супермаркеты; Доставка продуктов; Кулинарии; Доставка еды,"Уссурийская улица, 9",1 этаж,107065.0,Гольяново,Москва,Москва,4.8,31.0,55.823712,37.819005,branch
ВкусВилл,супермаркет,Супермаркеты; Доставка продуктов; Доставка еды,"Святоозёрская улица, 1а",1 этаж,111675.0,Косино-Ухтомский,Москва,Москва,4.7,8.0,55.714763,37.883177,branch
ВкусВилл,супермаркет,Супермаркеты; Доставка продуктов; Кулинарии; Доставка еды,"Зелёный проспект, 24г",,111397.0,Новогиреево,Москва,Москва,4.5,25.0,55.751216,37.789606,branch
ВкусВилл,супермаркет,Супермаркеты; Доставка продуктов; Кулинарии; Доставка еды,"Щербаковская улица, 35",1 этаж,105318.0,Соколиная Гора,Москва,Москва,3.6,12.0,55.782848,37.728962,branch
ВкусВилл,супермаркет,Супермаркеты; Доставка продуктов; Доставка еды,"Большая Черкизовская улица, 5 к1",1 этаж,107061.0,Преображенское,Москва,Москва,3.1,5.0,55.797628,37.72173,branch
ВкусВилл,супермаркет,Супермаркеты; Доставка продуктов; Кулинарии; Доставка еды,"Измайловский бульвар, 38",1 этаж,105077.0,Измайлово,Москва,Москва,4.8,34.0,55.796494,37.799862,branch
ВкусВилл,супермаркет,Супермаркеты; Доставка еды,"Жулебинский бульвар, 9",,109145.0,Выхино-Жулебино,Москва,Москва,4.5,6.0,55.697973,37.848556,branch
Азбука Вкуса,супермаркет,Супермаркеты; Доставка продуктов,"Люблинская улица, 96",1 этаж,109651.0,Марьино,Москва,Москва,4.8,40.0,55.657297,37.739651,branch
Азбука Вкуса,супермаркет,Супермаркеты; Доставка продуктов,"Каширское шоссе, 78 к1а",,115409.0,Москворечье-Сабурово,Москва,Москва,4.7,107.0,55.640992,37.682474,branch
ВкусВилл,супермаркет,Супермаркеты; Доставка продуктов,"1-й Грайвороновский проезд, 13 к1",1 этаж,109518.0,Текстильщики,Москва,Москва,5.0,2.0,55.721456,37.721373,branch
ВкусВилл,супермаркет,Супермаркеты,"Косинское шоссе, 7",,143916.0,,Балашиха,Московская область,,,55.719703,37.973203,branch
ВкусВилл,супермаркет,Супермаркеты,"Нижегородская улица, 76 к1",,109052.0,Нижегородский,Москва,Москва,1.0,2.0,55.732446,37.713628,branch
ВкусВилл,супермаркет,Супермаркеты; Доставка продуктов,"Комсомольский проспект, 22",,140010.0,,Люберцы,Московская область,5.0,2.0,55.692809,37.911582,branch
ВкусВилл,супермаркет,Супермаркеты,"Жулебинский бульвар, 28/1",,109156.0,Выхино-Жулебино,Москва,Москва,5.0,1.0,55.689756,37.854252,branch
ВкусВилл,супермаркет,Супермаркеты,"Сосновая улица, 2 к4",1 этаж,140056.0,,Котельники,Московская область,,,55.674576,37.854452,branch
