title,extension,content,address,address_comment,postal,district,city,region,rating,rating_cnt,lat,lon,type
Префектура Восточного административного округа,,Администрации районов / округов городской власти,"Преображенская площадь, 9",,107076.0,Преображенское,Москва,Москва,,,55.796948,37.708881,branch
Соколиный дворик,бизнес-парк,Аренда помещений; Бизнес-центры,"Большая Семёновская улица, 11 ст3",2 этаж,107023.0,Соколиная Гора,Москва,Москва,4.7,4.0,55.7831,37.702759,branch
Префектура Восточного административного округа,управление торговли и услуг,Администрации районов / округов городской власти,"Преображенская площадь, 9",607 офис; 6 этаж,107076.0,Преображенское,Москва,Москва,,,55.796845,37.70931,branch
Префектура Восточного административного округа,организационное управление,Администрации районов / округов городской власти,"Преображенская площадь, 9",612 офис; 6 этаж,107076.0,Преображенское,Москва,Москва,,,55.796845,37.70931,branch
Синица плаза,бизнес-центр,Аренда помещений; Бизнес-центры,"2-я Синичкина улица, 9а ст4",,111020.0,Лефортово,Москва,Москва,4.7,5.0,55.760845,37.718461,branch
На Бауманской,бизнес-центр,Аренда помещений; Бизнес-центры,"улица Фридриха Энгельса, 75 ст21",,105082.0,Басманный,Москва,Москва,4.4,6.0,55.779165,37.692955,branch
Префектура Восточного административного округа,управление развития социальной сферы,Администрации районов / округов городской власти,"Преображенская площадь, 9",616 офис; 6 этаж,107076.0,Преображенское,Москва,Москва,,,55.796845,37.70931,branch
Префектура Восточного административного округа,"управление строительства, реконструкции и землепользования",Администрации районов / округов городской власти,"Преображенская площадь, 9",507 офис; 5 этаж,107076.0,Преображенское,Москва,Москва,,,55.796845,37.70931,branch
Префектура Восточного административного округа,управление бухгалтерского учёта и отчётности,Администрации районов / округов городской власти,"Преображенская площадь, 9",806 офис; 8 этаж,107076.0,Преображенское,Москва,Москва,,,55.796845,37.70931,branch
Префектура Восточного административного округа,управление государственной службы и кадров,Администрации районов / округов городской власти,"Преображенская площадь, 9",207 офис; 2 этаж,107076.0,Преображенское,Москва,Москва,,,55.796845,37.70931,branch
Префектура Восточного административного округа,"управление экономики, перспективного развития",Администрации районов / округов городской власти,"Преображенская площадь, 9",706 офис; 7 этаж,107076.0,Преображенское,Москва,Москва,,,55.796845,37.70931,branch
Префектура Восточного административного округа,управление ЖКХ и благоустройства,Администрации районов / округов городской власти,"Преображенская площадь, 9",408 офис; 4 этаж,107076.0,Преображенское,Москва,Москва,,,55.796845,37.70931,branch
Префектура Восточного административного округа,управление реновации жилищного фонда,Администрации районов / округов городской власти,"Преображенская площадь, 9",514 офис; 5 этаж,107076.0,Преображенское,Москва,Москва,,,55.796845,37.70931,branch
Префектура Восточного административного округа,управление по работе с документами,Администрации районов / округов городской власти,"Преображенская площадь, 9",212 офис; 2 этаж,107076.0,Преображенское,Москва,Москва,,,55.796845,37.70931,branch
Префектура Восточного административного округа,управление делами,Администрации районов / округов городской власти,"Преображенская площадь, 9",322 офис; 3 этаж,107076.0,Преображенское,Москва,Москва,,,55.796845,37.70931,branch
Семёновский,бизнес-центр,Аренда помещений; Бизнес-центры,"улица Ибрагимова, 31",,105318.0,Соколиная Гора,Москва,Москва,5.0,2.0,55.788991,37.729352,branch
Банный 9,бизнес-центр,Аренда помещений; Бизнес-центры,"Банный переулок, 9",,129110.0,Мещанский,Москва,Москва,4.7,4.0,55.786399,37.63921,branch
На Парковой,бизнес-центр,Аренда помещений; Бизнес-центры,"3-я Парковая улица, 41а",,105425.0,Измайлово,Москва,Москва,2.1,2.0,55.800839,37.781307,branch
Офисный центр,,Аренда помещений; Бизнес-центры,"Большая Переяславская улица, 46 ст2",,129110.0,Мещанский,Москва,Москва,4.8,2.0,55.786899,37.641066,branch
Весна,бизнес-парк,Аренда помещений; Бизнес-центры,"Колодезный переулок, 3 ст25",,107076.0,Сокольники,Москва,Москва,3.5,4.0,55.796286,37.700896,branch
Холидей Инн Москва Сокольники,отель,Бизнес-центры; Гостиницы; Конференц-залы; Организация праздников,"Русаковская улица, 24",,107014.0,Сокольники,Москва,Москва,4.8,2629.0,55.787199,37.681833,branch
Пальмира,бизнес-центр,Аренда помещений; Бизнес-центры,"улица Фридриха Энгельса, 75 ст11",,105082.0,Басманный,Москва,Москва,4.7,1.0,55.778369,37.694077,branch
РТС,бизнес-центр,Аренда помещений; Бизнес-центры; Памятники и скульптуры,"улица Ибрагимова, 31 к47",,105318.0,Соколиная Гора,Москва,Москва,4.9,1.0,55.788411,37.729677,branch
Лефорт,деловой центр,Аренда помещений; Бизнес-центры,"улица Электрозаводская, 27 ст1а",,107023.0,Преображенское,Москва,Москва,4.8,7.0,55.791097,37.705701,branch
Соколиная нора,антикафе,Коворкинг; Антикафе,"Щербаковская улица, 53 к2",2 этаж,105187.0,Соколиная Гора,Москва,Москва,5.0,17.0,55.783249,37.738092,branch
Бизнес-Недвижимость,Компания,Аренда помещений; Бизнес-центры,"Знаменская улица, 4",,107392.0,Преображенское,Москва,Москва,,,55.801803,37.715183,branch
Smart Yard,сервисный офис,Коворкинг; Конференц-залы,"Спартаковская площадь, 16/15 ст6",3 этаж,105082.0,Басманный,Москва,Москва,5.0,78.0,55.776521,37.679504,branch
Бизнес сквер,бизнес-центр,Аренда помещений; Бизнес-центры,"Колодезный переулок, 3 ст26",,107076.0,Сокольники,Москва,Москва,5.0,2.0,55.795875,37.700402,branch
ОКБ Деловой центр,,Аренда помещений; Бизнес-центры,"9-я Парковая улица, 39",102 офис; 1 этаж,105264.0,Измайлово,Москва,Москва,4.9,1.0,55.800511,37.798535,branch
Сударыня,бизнес-центр,Аренда помещений; Бизнес-центры,"Новогиреевская улица, 28а",,111397.0,Перово,Москва,Москва,2.6,4.0,55.755852,37.795111,branch
Сторожевая,бизнес-центр,Аренда помещений; Бизнес-центры,"Сторожевая улица, 4 ст7",,111020.0,Лефортово,Москва,Москва,5.0,1.0,55.76597,37.710294,branch
Инар,офисный центр,Аренда помещений; Бизнес-центры,"Большая Почтовая улица, 26в ст1",213 офис; 2 этаж,105082.0,Басманный,Москва,Москва,3.3,3.0,55.778512,37.698478,branch
Лефорт,деловой центр,Аренда помещений; Бизнес-центры,"улица Электрозаводская, 27 ст2",,107023.0,Преображенское,Москва,Москва,5.0,1.0,55.790557,37.70633,branch
Платформа,отдел аренды и продаж,Бизнес-центры; Аренда помещений; Интересные здания,"Спартаковский переулок, 2 ст1",4 этаж,105082.0,Красносельский,Москва,Москва,4.7,10.0,55.778919,37.673636,branch
Прео8,бизнес-центр,Бизнес-центры,"Преображенская площадь, 8",,107061.0,Преображенское,Москва,Москва,4.7,32.0,55.795024,37.712745,branch
Прокуратура Восточного административного округа,,Прокуратура,"улица Стромынка, 3",4 этаж,107014.0,Сокольники,Москва,Москва,,,55.790694,37.683508,branch
Лефорт,деловой центр,Аренда помещений; Бизнес-центры,"улица Электрозаводская, 27 ст5",,107023.0,Преображенское,Москва,Москва,,,55.789992,37.706697,branch
Санторини-сервис,бизнес-центр,Аренда помещений; Бизнес-центры,"Большая Почтовая улица, 36 ст1",,105082.0,Басманный,Москва,Москва,2.3,1.0,55.781022,37.696956,branch
Красный дом,офисно-складской комплекс,Аренда помещений; Бизнес-центры,"Колодезный переулок, 3 ст17",,107076.0,Сокольники,Москва,Москва,5.0,1.0,55.796723,37.699904,branch
Grape,лофт-фотостудия,Коворкинг; Аренда лофтов; Фотостудии,"Малая Семёновская улица, 5 ст10",-1 этаж,107023.0,Преображенское,Москва,Москва,,,55.784915,37.706732,branch
ОТП Банк,офис,Банки; Обмен валюты,"Преображенская площадь, 6",1 этаж,107061.0,Преображенское,Москва,Москва,3.2,13.0,55.795027,37.711782,branch
Loft YesNot,,Коворкинг; Аренда лофтов; Конференц-залы,"3-й Красносельский переулок, 19 ст1","1, 2 этаж",107140.0,Красносельский,Москва,Москва,5.0,53.0,55.785014,37.655494,branch
Лермонтовский,бизнес-центр,Коворкинг; Конференц-залы; Бизнес-центры,"Октябрьский проспект, 1",1 этаж,140002.0,,Люберцы,Московская область,1.9,2.0,55.700049,37.858648,branch
Boiler,,Коворкинг; Аренда лофтов,"Щербаковская улица, 16",1 этаж,105318.0,Соколиная Гора,Москва,Москва,5.0,12.0,55.781143,37.72489,branch
Бизнес-комплекс на Русаковской,офисно-деловой центр,Аренда помещений; Бизнес-центры,"Русаковская улица, 13 ст5",,107140.0,Красносельский,Москва,Москва,,,55.784771,37.672214,branch
На Новой,бизнес-центр,Аренда помещений; Конференц-залы; Бизнес-центры,"Новая улица, ст9а",,140002.0,,Люберцы,Московская область,2.4,4.0,55.693405,37.872996,branch
Красносельский,бизнес-центр,Бизнес-центры,"Верхняя Красносельская улица, 3 ст2",,107140.0,Красносельский,Москва,Москва,4.9,16.0,55.785784,37.660603,branch
Кусково,бизнес-центр,Бизнес-центры; Конференц-залы,"Кусковская улица, 20а к Г",306 офис; 3 этаж,111141.0,Новогиреево,Москва,Москва,4.6,3.0,55.740013,37.784908,branch
Лессор,бизнес-центр,Аренда помещений; Бизнес-центры,"Нижняя Красносельская улица, 5 ст6",,107140.0,Красносельский,Москва,Москва,,,55.779148,37.668152,branch
Zoloto,бизнес-центр,Бизнес-центры; Перманентный макияж,"Золотая улица, 11",,105094.0,Соколиная Гора,Москва,Москва,4.7,13.0,55.779596,37.711305,branch
Central Yard,деловой центр,Бизнес-центры,"Бауманская улица, 7",224-1 офис; 2 этаж,105005.0,Басманный,Москва,Москва,4.6,8.0,55.776983,37.676452,branch
Преображенский 7,бизнес-центр,Бизнес-центры,"Преображенская площадь, 7а",цокольный этаж,107076.0,Преображенское,Москва,Москва,4.9,12.0,55.795738,37.709084,branch
Щербаковский,деловой центр,Бизнес-центры,"Щербаковская улица, 3",,105318.0,Соколиная Гора,Москва,Москва,4.6,14.0,55.782724,37.723404,branch
Мосрентсервис,бизнес-центр,Аренда помещений; Бизнес-центры,"Краснобогатырская улица, 89",,107076.0,Преображенское,Москва,Москва,5.0,1.0,55.800575,37.71499,branch
Союз,многофункциональный комплекс,Бизнес-центры,"Переведеновский переулок, 13 ст18",,105082.0,Басманный,Москва,Москва,4.9,1.0,55.781107,37.689193,branch
РТС,бизнес-центр,Аренда помещений; Бизнес-центры,"Мироновская улица, 25",,105318.0,Соколиная Гора,Москва,Москва,1.4,1.0,55.787782,37.732808,branch
СберБанк,,Банки; Обмен валюты; Ипотечные кредиты; Инвестиционные драгоценные металлы; Операции на фондовом рынке; Регистрация и ликвидация предприятий; Электронные подписи,"Рождественская улица, 31",1 этаж,111677.0,Некрасовка,Москва,Москва,4.5,19.0,55.706528,37.930816,branch
Вэронд,бизнес-центр,Бизнес-центры,"площадь Семёновская, 7",5 этаж,105318.0,Соколиная Гора,Москва,Москва,4.4,9.0,55.783566,37.720275,branch
Семёновский 15,бизнес-центр,Бизнес-центры,"Семёновский переулок, 15",110 офис; 1 этаж,107023.0,Соколиная Гора,Москва,Москва,4.7,17.0,55.783014,37.715979,branch
Красный богатырь,бизнес-центр,Бизнес-центры; Интересные здания,"Краснобогатырская улица, 2 к2",,107564.0,Богородское,Москва,Москва,4.0,16.0,55.814662,37.693761,branch
Streamline plaza,бизнес-центр,Бизнес-центры; Конференц-залы,"шоссе Энтузиастов, 34",,105118.0,Перово,Москва,Москва,4.4,6.0,55.754502,37.735425,branch
Platforma#1,центр коворкинга,Коворкинг; Конференц-залы,"Электродная улица, 2 ст34",3 этаж,111524.0,Перово,Москва,Москва,5.0,1.0,55.754717,37.751761,branch
Константинова 11А,бизнес-центр,Бизнес-центры,"улица Константинова, 11а",1 этаж,129164.0,Алексеевский,Москва,Москва,3.7,61.0,55.81701,37.655416,branch
Алексеевская башня,бизнес-центр,Бизнес-центры,"Ракетный бульвар, 16",,129164.0,Алексеевский,Москва,Москва,4.6,8.0,55.817548,37.655793,branch
Солидарность,дополнительный офис-центр обслуживания иностранных граждан,Банки; Обмен валюты,"Краснопрудная улица, 13",1 этаж,107140.0,Красносельский,Москва,Москва,2.6,8.0,55.781348,37.668023,branch
Лефортово,деловой центр,Бизнес-центры,"Авиамоторная улица, 12",,111024.0,Лефортово,Москва,Москва,4.6,8.0,55.75333,37.715646,branch
Лефорт,деловой центр,Бизнес-центры; Аренда помещений,"улица Электрозаводская, 27 ст8",,107023.0,Преображенское,Москва,Москва,5.0,5.0,55.791577,37.705527,branch
Палладиум,бизнес-центр,Бизнес-центры,"улица Лобачика, 11",1 этаж,107113.0,Сокольники,Москва,Москва,4.8,5.0,55.788388,37.662296,branch
Соколиная Гора,бизнес-центр,Бизнес-центры,"площадь Семёновская, 1а",,107023.0,Соколиная Гора,Москва,Москва,4.2,37.0,55.783038,37.71737,branch
Буревестник,бизнес-центр,Бизнес-центры,"3-я Рыбинская улица, 18 ст22",,107113.0,Сокольники,Москва,Москва,4.4,9.0,55.78965,37.659505,branch
СберБанк,,Банки; Обмен валюты; Ипотечные кредиты; Операции на фондовом рынке; Регистрация и ликвидация предприятий; Электронные подписи,"Щёлковское шоссе, 75",0 этаж,107207.0,Гольяново,Москва,Москва,2.8,46.0,55.810801,37.800945,branch
Штаб-квартира,коворкинг-центр,Коворкинг,"Бакунинская улица, 73 ст2",5 этаж,105082.0,Басманный,Москва,Москва,5.0,2.0,55.780322,37.692103,branch
Сокол,бизнес-центр,Бизнес-центры,"Щёлковское шоссе, 5 ст1",,105122.0,Гольяново,Москва,Москва,4.6,7.0,55.804203,37.755876,branch
Альфа-банк,,Банки,"Свободный проспект, 20а",1 этаж,111396.0,Новогиреево,Москва,Москва,4.2,144.0,55.751422,37.816497,branch
Гелиос Сити,деловой центр,Бизнес-центры,"1-й Перова Поля проезд, 9 ст1",,111141.0,Перово,Москва,Москва,4.8,6.0,55.749944,37.770608,branch
Преображенский,административно-деловой центр,Бизнес-центры,"улица Электрозаводская, 24",,107023.0,Преображенское,Москва,Москва,4.9,4.0,55.789112,37.707624,branch
Post&Plaza,бизнес-центр,Бизнес-центры,"Большая Почтовая улица, 26в ст2",,105082.0,Басманный,Москва,Москва,4.9,1.0,55.778335,37.699695,branch
You working,коворкинг,Коворкинг; Аренда лофтов; Конференц-залы,"Амурская улица, 1а к4",3н помещение; 1 этаж,107553.0,Гольяново,Москва,Москва,5.0,11.0,55.809352,37.758448,branch
Альфа-банк,,Банки,"Вельяминовская улица, 6 ст2",,105318.0,Соколиная Гора,Москва,Москва,4.7,106.0,55.781861,37.722914,branch
Зеленый 20,бизнес-центр,Бизнес-центры; Интересные здания,"Зелёный проспект, 20",,111397.0,Новогиреево,Москва,Москва,4.0,1.0,55.750433,37.786885,branch
Электродная,бизнес-парк,Бизнес-центры,"Электродная улица, 2 ст12",,111524.0,Перово,Москва,Москва,4.7,4.0,55.75396,37.749244,branch
Штерн Эстейт,коворкинг,Коворкинг,"Электродная улица, 11",2 этаж,111524.0,Перово,Москва,Москва,,,55.750379,37.755857,branch
S-Office,компания по аренде помещений,Аренда помещений; Коворкинг,"Привольная улица, 2 к5",4 этаж; 2 подъезд; правое крыло,109145.0,Выхино-Жулебино,Москва,Москва,,,55.703154,37.839043,branch
Бизнес-центр,,Аренда помещений; Бизнес-центры,"улица Короленко, 3а",,107076.0,Сокольники,Москва,Москва,,,55.797938,37.693911,branch
Московоркинг,коворкинг-центр,Коворкинг,"Сокольническая площадь, 4а",309 офис; 3 этаж,107113.0,Сокольники,Москва,Москва,,,55.790188,37.678586,branch
Юникон,бизнес-центр,Бизнес-центры,"улица Плеханова, 4а",,111123.0,Перово,Москва,Москва,4.3,16.0,55.754721,37.756781,branch
Synergy space,коворкинг-центр,Коворкинг,"площадь Семёновская, 7 к8",2 этаж,105318.0,Соколиная Гора,Москва,Москва,1.0,1.0,55.78398,37.719601,branch
ВТБ Банк,банк,Банки,"улица Вертолётчиков, 21 к5",1 этаж,111677.0,Некрасовка,Москва,Москва,4.0,9.0,55.712834,37.927926,branch
На Заре,офисный центр,Аренда помещений; Бизнес-центры,"Малая Семёновская улица, 30 ст6",,107023.0,Соколиная Гора,Москва,Москва,5.0,1.0,55.783882,37.717243,branch
Технопарк Сапфир,бизнес-центр,Бизнес-центры,"Щербаковская улица, 53 к15",,105187.0,Соколиная Гора,Москва,Москва,3.7,3.0,55.783325,37.734103,branch
Андроновка,бизнес-центр,Бизнес-центры,"1-я Фрезерная улица, 2/1 к2",801 офис; 8 этаж,109202.0,Нижегородский,Москва,Москва,4.7,3.0,55.744244,37.738815,branch
Станция,бизнес-центр,Бизнес-центры,"Переведеновский переулок, 13 ст16",,105082.0,Басманный,Москва,Москва,4.3,3.0,55.779854,37.688524,branch
Central Street,бизнес-центр,Бизнес-центры,"Спартаковская площадь, 14 ст4",,105082.0,Басманный,Москва,Москва,4.8,6.0,55.776517,37.678131,branch
Гараж,техно-парк,Бизнес-центры,"Маломосковская улица, 22 ст1",1 этаж,129626.0,Алексеевский,Москва,Москва,4.5,4.0,55.8118,37.652633,branch
СберБанк,,Банки; Ипотечные кредиты; Обмен валюты; Инвестиционные драгоценные металлы; Операции на фондовом рынке; Регистрация и ликвидация предприятий; Электронные подписи,"Свободный проспект, 33",1 этаж,111558.0,Новогиреево,Москва,Москва,4.5,21.0,55.752483,37.818983,branch
Прожектор,технопарк,Бизнес-центры; Аренда помещений,"шоссе Энтузиастов, 56",,111123.0,Перово,Москва,Москва,5.0,1.0,55.760722,37.766512,branch
Альфа-банк,,Банки; Обмен валюты,"Ярославское шоссе, 36",,129337.0,Ярославский,Москва,Москва,1.0,2.0,55.862538,37.697092,branch
Косино,бизнес-центр,Бизнес-центры,"Салтыковская улица, 8",,111673.0,Косино-Ухтомский,Москва,Москва,3.6,1.0,55.727569,37.860552,branch
Альфа-банк,,Банки,"Уральская улица, 1",1 этаж,107241.0,Гольяново,Москва,Москва,4.7,120.0,55.811658,37.798128,branch
На Барабанном,офисный комплекс,Бизнес-центры,"Барабанный переулок, 4",,107023.0,Соколиная Гора,Москва,Москва,4.7,7.0,55.783326,37.708262,branch
Альфа-банк,,Банки,"9-я Парковая улица, 23",1 этаж,105043.0,Измайлово,Москва,Москва,4.8,155.0,55.794885,37.798758,branch
СберБанк,,Банки; Обмен валюты; Ипотечные кредиты; Электронные подписи; ПИФы; Операции на фондовом рынке; Регистрация и ликвидация предприятий; Инвестиционные драгоценные металлы,"Преображенская площадь, 7а ст1",1 этаж,107076.0,Преображенское,Москва,Москва,3.6,24.0,55.795468,37.709191,branch
Кусково,бизнес-центр,Бизнес-центры,"Кусковская улица, 20а",,111141.0,Новогиреево,Москва,Москва,4.5,8.0,55.740924,37.785288,branch
СберБанк,,Банки; Обмен валюты; Ипотечные кредиты; Электронные подписи; Операции на фондовом рынке; Регистрация и ликвидация предприятий,"бульвар Маршала Рокоссовского, 18",1 этаж,107150.0,Богородское,Москва,Москва,4.3,8.0,55.813354,37.722992,branch
ВТБ Банк,банк,Банки,"Авиамоторная улица, 10 к1",1 этаж,111024.0,Лефортово,Москва,Москва,3.8,62.0,55.754421,37.715605,branch
Кусково,бизнес-центр,Бизнес-центры,"Кусковская улица, 20а к А",,111141.0,Новогиреево,Москва,Москва,4.5,3.0,55.740001,37.783377,branch
Резиденция архитекторов,бизнес-центр,Бизнес-центры; Интересные здания,"Большая Почтовая улица, 34 ст6",,105082.0,Басманный,Москва,Москва,4.9,5.0,55.780233,37.700815,branch
ВТБ Банк,банк,Банки,"Свободный проспект, 20",1 этаж,111396.0,Новогиреево,Москва,Москва,4.7,32.0,55.750882,37.816284,branch
Улей Плаза,бизнес-центр,Бизнес-центры; Интересные здания,"Медовый переулок, 5 ст1",,107023.0,Соколиная Гора,Москва,Москва,4.3,6.0,55.784695,37.70987,branch
Плеханова 7,бизнес-центр,Бизнес-центры,"улица Плеханова, 7",,111141.0,Перово,Москва,Москва,4.5,9.0,55.755418,37.759632,branch
Вариатор,бизнес-центр,Аренда помещений; Бизнес-центры,"Графский переулок, 9 ст3",,129626.0,Алексеевский,Москва,Москва,,,55.804252,37.642745,branch
Коворкинг-центр,,Коворкинг,"Московско-Казанский переулок, 11-15",,107140.0,Красносельский,Москва,Москва,,,55.781263,37.673735,branch
Dелиspace,сервис почасовой аренды,Аренда помещений; Конференц-залы; Коворкинг,"Малая Семёновская улица, 3а ст1",4 этаж,107023.0,Преображенское,Москва,Москва,,,55.785313,37.706167,branch
Независимость,компания,Коворкинг,"Малая Семёновская улица, 3а ст1",8 этаж,107023.0,Преображенское,Москва,Москва,,,55.785583,37.705062,branch
СберБанк,,Банки; Обмен валюты; Ипотечные кредиты; Электронные подписи; Инвестиционные драгоценные металлы; Операции на фондовом рынке; Регистрация и ликвидация предприятий,"Большая Черкизовская улица, 5 к1",1 этаж,107061.0,Преображенское,Москва,Москва,2.6,13.0,55.79735,37.720127,branch
Штерн Эстейт,бизнес-парк,Бизнес-центры,"Электродная улица, 11 ст1",1-5 этаж,111524.0,Перово,Москва,Москва,4.8,11.0,55.750398,37.755954,branch
КНК,бизнес-центр,Бизнес-центры,"Большая Почтовая улица, 55/59",,105082.0,Басманный,Москва,Москва,4.9,2.0,55.778737,37.696612,branch
СберБанк,,Банки; Обмен валюты; Ипотечные кредиты; Инвестиционные драгоценные металлы; Операции на фондовом рынке; Регистрация и ликвидация предприятий; Электронные подписи,"Краснопрудная улица, 11",1 этаж,107140.0,Красносельский,Москва,Москва,4.2,4.0,55.779293,37.664733,branch
Стромынка сити,бизнес-центр поддержки и развития малого бизнеса,Бизнес-центры,"улица Стромынка, 19 к2",,107076.0,Сокольники,Москва,Москва,4.9,1.0,55.795584,37.698062,branch
Камкомбанк,,Банки; Ипотечные кредиты; Обмен валюты,"Свободный проспект, 37/18",,111396.0,Новогиреево,Москва,Москва,5.0,172.0,55.748703,37.816632,branch
СберБанк,,Банки; Обмен валюты; Ипотечные кредиты; Электронные подписи; ПИФы; Инвестиционные драгоценные металлы; Операции на фондовом рынке; Регистрация и ликвидация предприятий,"шоссе Энтузиастов, 14",1 этаж,111024.0,Лефортово,Москва,Москва,4.2,18.0,55.749762,37.710967,branch
СберБанк,,Банки; Обмен валюты; Ипотечные кредиты; Операции на фондовом рынке; Регистрация и ликвидация предприятий; Электронные подписи,"Щербаковская улица, 53 ст1",,105187.0,Соколиная Гора,Москва,Москва,4.3,12.0,55.78308,37.735065,branch
ВТБ Банк,банк,Банки,"площадь Семёновская, 1а",1 этаж,107023.0,Соколиная Гора,Москва,Москва,5.0,9.0,55.782622,37.717703,branch
СберБанк,,Банки; Обмен валюты; Ипотечные кредиты; Электронные подписи; ПИФы; Инвестиционные драгоценные металлы; Операции на фондовом рынке; Регистрация и ликвидация предприятий,"Юбилейный проспект, 24/7",1 этаж,143965.0,,Реутов,Московская область,3.5,12.0,55.749117,37.862968,branch
СберБанк,,Банки; Обмен валюты; Ипотечные кредиты; Электронные подписи; Инвестиционные драгоценные металлы; Операции на фондовом рынке; Регистрация и ликвидация предприятий,"2-я Владимирская улица, 40",1 этаж,111141.0,Перово,Москва,Москва,3.6,25.0,55.750008,37.784765,branch
ВТБ Банк,банк,Банки,"9-я Парковая улица, 59 к1",1 этаж,105215.0,Северное Измайлово,Москва,Москва,3.8,44.0,55.807754,37.798357,branch
Альфа-банк,,Банки,"Носовихинское шоссе, 7",1 этаж,143965.0,,Реутов,Московская область,4.8,163.0,55.745319,37.858487,branch
Альфа-банк,,Банки,"Лермонтовский проспект, 10 к1",,109145.0,Выхино-Жулебино,Москва,Москва,4.7,167.0,55.700389,37.852468,branch
Перово Поле,бизнес-центр,Бизнес-центры,"3-й Перова Поля проезд, 8 ст11",,111141.0,Перово,Москва,Москва,4.3,4.0,55.752548,37.771599,branch
Первомайский,бизнес-центр,Бизнес-центры,"Нижняя Первомайская улица, 43а",1 этаж,105203.0,Восточное Измайлово,Москва,Москва,,,55.79151,37.80747,branch
Маяк,торгово-деловой комплекс,Бизнес-центры; Торговые центры,"Новая улица, 3",,143960.0,,Реутов,Московская область,4.7,6.0,55.757531,37.851931,branch
СберБанк,,Банки; Обмен валюты; Ипотечные кредиты; ПИФы; Инвестиционные драгоценные металлы; Операции на фондовом рынке; Регистрация и ликвидация предприятий; Электронные подписи,"Новогиреевская улица, 31/45",1 этаж,111397.0,Перово,Москва,Москва,4.7,20.0,55.753959,37.799572,branch
Сокольники,бизнес-центр,Бизнес-центры,"Бабаевская улица, 6",,107014.0,Сокольники,Москва,Москва,4.6,2.0,55.79039,37.688548,branch
Альфа-банк,,Банки,"Сокольническая площадь, 9",,107014.0,Сокольники,Москва,Москва,2.0,7.0,55.789949,37.680499,branch
Буракова 29,бизнес-центр,Бизнес-центры,"улица Буракова, 29",,105118.0,Соколиная Гора,Москва,Москва,5.0,3.0,55.757201,37.735596,branch
На Шумкина,бизнес-центр,Бизнес-центры,"улица Шумкина, 20 ст1",,107113.0,Сокольники,Москва,Москва,4.5,7.0,55.787311,37.670904,branch
Aбс,бизнес-центр,Бизнес-центры,"Семёновский переулок, 6",,107023.0,Соколиная Гора,Москва,Москва,4.5,7.0,55.78332,37.714022,branch
Ханой-Москва,торгово-деловой центр,Бизнес-центры,"Ярославское шоссе, 146 к2",,129347.0,Ярославский,Москва,Москва,4.6,12.0,55.878903,37.729688,branch
СберБанк,,Банки; Обмен валюты; Ипотечные кредиты; ПИФы; Инвестиционные драгоценные металлы; Операции на фондовом рынке; Регистрация и ликвидация предприятий; Электронные подписи,"улица Дмитриевского, 21",1 этаж,111675.0,Косино-Ухтомский,Москва,Москва,3.9,11.0,55.709389,37.894673,branch
СберБанк,,Банки; Обмен валюты; Ипотечные кредиты; Электронные подписи; ПИФы; Инвестиционные драгоценные металлы; Операции на фондовом рынке; Регистрация и ликвидация предприятий,"Рязанский проспект, 69",,109456.0,Рязанский,Москва,Москва,4.0,7.0,55.718612,37.786906,branch
СберБанк,,Банки; Обмен валюты; Ипотечные кредиты; Инвестиционные драгоценные металлы; Операции на фондовом рынке; Регистрация и ликвидация предприятий; Электронные подписи,"Рязанский проспект, 58/1",1 этаж,109377.0,Выхино-Жулебино,Москва,Москва,3.9,22.0,55.715016,37.797327,branch
Газпромбанк,,Банки,"Лермонтовский проспект, 6",,109145.0,Выхино-Жулебино,Москва,Москва,2.5,30.0,55.702427,37.848614,branch
СберБанк,,Банки; Обмен валюты; Ипотечные кредиты; Электронные подписи; Факторинг; ПИФы; Инвестиционные драгоценные металлы; Операции на фондовом рынке; Регистрация и ликвидация предприятий,"Щёлковское шоссе, 34","1, 2 этаж",105425.0,Северное Измайлово,Москва,Москва,3.4,8.0,55.809505,37.785538,branch
Банк Казани,коммерческий банк экономического развития,Банки,"улица Стромынка, 5",1 этаж,107014.0,Сокольники,Москва,Москва,5.0,4.0,55.791094,37.68454,branch
СберБанк,,Банки; Ипотечные кредиты; ПИФы; Инвестиционные драгоценные металлы; Операции на фондовом рынке; Регистрация и ликвидация предприятий; Электронные подписи; Обмен валюты,"Сокольническая площадь, 9",1 этаж,107014.0,Сокольники,Москва,Москва,3.9,16.0,55.789899,37.68108,branch
СберБанк,,Банки; Обмен валюты; Ипотечные кредиты; ПИФы; Инвестиционные драгоценные металлы; Операции на фондовом рынке; Регистрация и ликвидация предприятий; Электронные подписи,"Измайловский проспект, 61 ст1",1 этаж,105037.0,Измайлово,Москва,Москва,4.2,6.0,55.788784,37.783719,branch
ВТБ Банк,банк,Банки,"Носовихинское шоссе, 17в",1 этаж,143965.0,,Реутов,Московская область,3.3,12.0,55.747296,37.871809,branch
СберБанк,,Банки; Обмен валюты; Ипотечные кредиты; Инвестиционные драгоценные металлы; Операции на фондовом рынке; Регистрация и ликвидация предприятий; Электронные подписи,"Ташкентская улица, 9",,109444.0,Выхино-Жулебино,Москва,Москва,4.5,4.0,55.707852,37.818836,branch
Совкомбанк,,Банки,"Рождественская улица, 31",1 этаж,111677.0,Некрасовка,Москва,Москва,5.0,13.0,55.705369,37.931943,branch
Villa riva,бизнес-центр,Бизнес-центры,"Краснобогатырская улица, 6 ст1",,107564.0,Богородское,Москва,Москва,4.0,4.0,55.813313,37.694988,branch
СберБанк,,Банки; Обмен валюты; Ипотечные кредиты; Электронные подписи; Инвестиционные драгоценные металлы; Операции на фондовом рынке; Регистрация и ликвидация предприятий,"Большая Семёновская улица, 16",1 этаж,107023.0,Соколиная Гора,Москва,Москва,4.1,9.0,55.781958,37.704546,branch
Флеш Ланж,бизнес-центр,Бизнес-центры,"Спартаковская площадь, 10 ст12",,105082.0,Басманный,Москва,Москва,5.0,1.0,55.777375,37.677662,branch
ВТБ Банк,банк,Банки,"Большая Черкизовская улица, 5а",1 этаж,107061.0,Преображенское,Москва,Москва,3.8,27.0,55.797193,37.719072,branch
На Бакунинской,бизнес-центр,Бизнес-центры,"Бакунинская улица, 71 ст10",,105082.0,Басманный,Москва,Москва,4.5,4.0,55.77993,37.691118,branch
Триангл Хаус,бизнес-центр,Бизнес-центры,"Верхняя Красносельская улица, 3г",,107140.0,Красносельский,Москва,Москва,4.8,1.0,55.78544,37.664653,branch
ВТБ Банк,банк,Банки,"Измайловский бульвар, 46",1 этаж,105077.0,Восточное Измайлово,Москва,Москва,3.7,43.0,55.796337,37.805815,branch
СберБанк,,Банки; Обмен валюты; Ипотечные кредиты; ПИФы; Инвестиционные драгоценные металлы; Операции на фондовом рынке; Регистрация и ликвидация предприятий; Электронные подписи,"улица Измайловский Вал, 20",1 этаж,105318.0,Соколиная Гора,Москва,Москва,4.2,6.0,55.784502,37.718869,branch
Камкомбанк,,Банки; Ипотечные кредиты; Обмен валюты,"Краснопрудная улица, 13",1 этаж,107140.0,Красносельский,Москва,Москва,4.9,71.0,55.781016,37.667118,branch
ВТБ Банк,банк,Банки,"Сокольническая площадь, 4 к1-2",1 этаж,107113.0,Сокольники,Москва,Москва,2.6,16.0,55.789435,37.678528,branch
Россельхозбанк,,Банки; Обмен валюты; Ипотечные кредиты,"Октябрьский проспект, 49",1 этаж,140002.0,,Люберцы,Московская область,4.8,99.0,55.691967,37.868096,branch
Россельхозбанк,,Банки; Обмен валюты; Ипотечные кредиты,"Свободный проспект, 20а",1 этаж,111396.0,Новогиреево,Москва,Москва,4.8,113.0,55.751257,37.816584,branch
Россельхозбанк,,Банки; Обмен валюты; Ипотечные кредиты,"Преображенская улица, 2 к1",,107076.0,Преображенское,Москва,Москва,4.9,86.0,55.794996,37.70731,branch
Совкомбанк,дополнительный офис,Банки; Обмен валюты,"Верхняя Красносельская улица, 3г",1 этаж,107140.0,Красносельский,Москва,Москва,5.0,30.0,55.785392,37.664512,branch
ВТБ Банк,банк,Банки,"Ивантеевская улица, 23",1 этаж,107150.0,Богородское,Москва,Москва,4.1,17.0,55.815626,37.732131,branch
Бородино Плаза,многофункциональный комплекс,Бизнес-центры,"Русаковская улица, 13",,107140.0,Красносельский,Москва,Москва,4.7,3.0,55.784399,37.673392,branch
Sorus Hall,бизнес-центр,Бизнес-центры,"Монтажная улица, 3",,107497.0,Гольяново,Москва,Москва,,,55.818417,37.770317,branch
Камкомбанк,,Банки; Обмен валюты; Ипотечные кредиты,"Бакунинская улица, 50 ст1",1 этаж,105082.0,Басманный,Москва,Москва,4.8,128.0,55.776832,37.688251,branch
Юнистрим,система денежных переводов,Банки; Обмен валюты,"9-я Парковая улица, 68 к4",2 этаж,105215.0,Северное Измайлово,Москва,Москва,4.2,2.0,55.80837,37.799136,branch
Совкомбанк,,Банки; Обмен валюты,"Лермонтовский проспект, 10 к1",,109145.0,Выхино-Жулебино,Москва,Москва,4.7,40.0,55.700317,37.852598,branch
Амвп,бизнес-центр,Бизнес-центры,"Малая Семёновская улица, 3а ст2",,107023.0,Преображенское,Москва,Москва,4.7,3.0,55.785605,37.706166,branch
Камкомбанк,,Банки; Ипотечные кредиты; Обмен валюты,"Первомайская улица, 5",2/1 помещение,105037.0,Измайлово,Москва,Москва,4.9,50.0,55.790978,37.772954,branch
МСК,бизнес-центр,Бизнес-центры,"3-й Красносельский переулок, 21 ст1",,107140.0,Красносельский,Москва,Москва,5.0,2.0,55.783683,37.656786,branch
СберБанк,,Банки; Обмен валюты; Ипотечные кредиты; Операции на фондовом рынке; Регистрация и ликвидация предприятий; Электронные подписи,"улица Павла Корчагина, 11",1 этаж,129626.0,Алексеевский,Москва,Москва,4.6,5.0,55.81765,37.66045,branch
East Gate,бизнес-центр,Бизнес-центры,"Щёлковское шоссе, 100 к5",,105523.0,Северное Измайлово,Москва,Москва,3.6,16.0,55.81287,37.834882,branch
СберБанк,,Банки; Обмен валюты; Ипотечные кредиты; ПИФы; Инвестиционные драгоценные металлы; Операции на фондовом рынке; Регистрация и ликвидация предприятий; Электронные подписи,"Октябрьский проспект, 9",1 этаж,140002.0,,Люберцы,Московская область,4.0,10.0,55.696638,37.860851,branch
СберБанк,,Банки; Обмен валюты; Ипотечные кредиты; Операции на фондовом рынке; Регистрация и ликвидация предприятий; Электронные подписи,"1-я Мясниковская улица, 2",,107564.0,Богородское,Москва,Москва,3.5,11.0,55.816706,37.702702,branch
Уралсиб,банк,Банки; Ипотечные кредиты; Обмен валюты,"Русаковская улица, 28 ст1Б",,107014.0,Сокольники,Москва,Москва,4.0,10.0,55.788412,37.681478,branch
Бэнк оф Чайна,акционерный коммерческий банк,Банки; Обмен валюты,"проспект Мира, 72",1-3 этаж,129110.0,Мещанский,Москва,Москва,3.0,7.0,55.78921,37.636158,branch
Акибанк,дополнительный офис,Банки; Обмен валюты,"Большая Переяславская улица, 46 ст2",1 этаж,129110.0,Мещанский,Москва,Москва,,,55.786681,37.640991,branch
ВТБ Банк,дополнительный офис Рязанский проспект,Банки,"улица Академика Скрябина, 1/58",1 этаж,109377.0,Выхино-Жулебино,Москва,Москва,4.0,27.0,55.71571,37.797539,branch
Банк ДОМ. РФ,банк,Банки; Обмен валюты; Ипотечные кредиты,"Семёновская набережная, 3/1 к6",1 этаж,105094.0,Басманный,Москва,Москва,4.6,142.0,55.780406,37.705533,branch
Вешняки,бизнес-центр,Бизнес-центры,"1-й Вешняковский проезд, 1 ст8",,109456.0,Рязанский,Москва,Москва,,,55.72632,37.784866,branch
ВТБ Банк,банк,Банки,"Первомайская улица, 69",3П помещение; 1 этаж,105043.0,Измайлово,Москва,Москва,5.0,2.0,55.793406,37.797478,branch
СберБанк,,Банки; Ипотечные кредиты; Обмен валюты; Операции на фондовом рынке; Регистрация и ликвидация предприятий; Электронные подписи,"Просторная улица, 8",1 этаж,107392.0,Преображенское,Москва,Москва,5.0,4.0,55.805157,37.717583,branch
Союз деловых людей,бизнес-центр,Бизнес-центры,"Щёлковское шоссе, 23а",,107241.0,Гольяново,Москва,Москва,4.5,2.0,55.808698,37.772014,branch
СберБанк,,Банки; Обмен валюты; Ипотечные кредиты; Электронные подписи; ПИФы; Инвестиционные драгоценные металлы; Операции на фондовом рынке; Регистрация и ликвидация предприятий,"Саянская улица, 18",1 этаж,111555.0,Ивановское,Москва,Москва,4.3,8.0,55.767098,37.834309,branch
Красносельский,деловой центр,Бизнес-центры,"Верхняя Красносельская улица, 11а ст1",,107140.0,Красносельский,Москва,Москва,5.0,4.0,55.784566,37.662159,branch
Совкомбанк,,Банки; Обмен валюты; Ипотечные кредиты; Операции на фондовом рынке,"Преображенская улица, 5/7",1 этаж,107076.0,Преображенское,Москва,Москва,4.8,28.0,55.796217,37.705181,branch
Совкомбанк,,Банки,"Рязанский проспект, 69",,109456.0,Рязанский,Москва,Москва,4.9,24.0,55.718572,37.787156,branch
Майский,офисный центр,Бизнес-центры,"Средняя Первомайская улица, 3",,105077.0,Измайлово,Москва,Москва,4.9,1.0,55.795781,37.803792,branch
ВТБ Банк,дополнительный офис Рязанский,Банки,"Рязанский проспект, 71 к1",,109456.0,Рязанский,Москва,Москва,3.9,20.0,55.718423,37.788074,branch
Юнистрим,система денежных переводов,Банки; Обмен валюты,"Зелёный проспект, 62а",2 этаж,111396.0,Новогиреево,Москва,Москва,2.4,6.0,55.750673,37.820851,branch
Россельхозбанк,,Банки; Обмен валюты; Ипотечные кредиты,"Лермонтовский проспект, 2 к1",,109145.0,Выхино-Жулебино,Москва,Москва,4.9,104.0,55.703655,37.846067,branch
СберБанк,,Банки; Обмен валюты; Ипотечные кредиты; ПИФы; Инвестиционные драгоценные металлы; Операции на фондовом рынке; Регистрация и ликвидация предприятий; Электронные подписи,"Пронская улица, 2",,109145.0,Выхино-Жулебино,Москва,Москва,5.0,4.0,55.703237,37.845795,branch
СберБанк,,Банки; Обмен валюты; Ипотечные кредиты; Операции на фондовом рынке; Регистрация и ликвидация предприятий; Электронные подписи,"Перовская улица, 8 к1",1 этаж,111524.0,Перово,Москва,Москва,4.9,18.0,55.747229,37.758581,branch
Россельхозбанк,,Банки; Обмен валюты; Ипотечные кредиты,"Большая Семёновская улица, 27 к2",1 этаж,107023.0,Соколиная Гора,Москва,Москва,4.9,94.0,55.782426,37.70832,branch
СберБанк,,Банки; Обмен валюты; Ипотечные кредиты; Операции на фондовом рынке; Регистрация и ликвидация предприятий; Электронные подписи,"Измайловский бульвар, 38",1 этаж,105077.0,Измайлово,Москва,Москва,4.4,15.0,55.796461,37.801954,branch
Банк ПСБ,,Банки; Обмен валюты,"Юбилейный проспект, 2 к1",2 этаж,143965.0,,Реутов,Московская область,3.4,5.0,55.746468,37.854352,branch
Совкомбанк,,Банки; Обмен валюты; Ипотечные кредиты,"Свободный проспект, 22",1 этаж,111396.0,Новогиреево,Москва,Москва,4.5,29.0,55.750331,37.815911,branch
Компас,бизнес-центр,Бизнес-центры,"улица Фридриха Энгельса, 75 ст3",,105082.0,Басманный,Москва,Москва,4.9,1.0,55.778545,37.69338,branch
ВТБ Банк,банк,Банки,"Ярославское шоссе, 54",1 этаж,129337.0,Ярославский,Москва,Москва,5.0,38.0,55.866046,37.705472,branch
СберБанк,,Банки; Обмен валюты; Ипотечные кредиты; Операции на фондовом рынке; Регистрация и ликвидация предприятий; Электронные подписи,"улица Кирова, 9",,143960.0,,Реутов,Московская область,3.0,11.0,55.757705,37.851369,branch
ВТБ Банк,банк,Банки,"Лермонтовский проспект, 10 к1",,109145.0,Выхино-Жулебино,Москва,Москва,2.7,18.0,55.700131,37.852714,branch
Почта Банк,,Банки,"Преображенская площадь, 8",1 этаж,107061.0,Преображенское,Москва,Москва,3.4,42.0,55.795098,37.712231,branch
Совкомбанк,,Банки,"9-я Парковая улица, 68 ст7",1 этаж,105215.0,Северное Измайлово,Москва,Москва,3.9,9.0,55.807791,37.799213,branch
Технострой Люкс,бизнес-центр,Бизнес-центры,"Перовская улица, 61/2 ст1",,111394.0,Новогиреево,Москва,Москва,5.0,1.0,55.745625,37.796456,branch
Букводом,культурно-образовательный центр,Коворкинг; Библиотеки; Лектории,"5-й Лучевой просек, 1",1 этаж,107014.0,Сокольники,Москва,Москва,4.2,17.0,55.797158,37.67583,branch
Агат,бизнес-центр,Бизнес-центры,"Большая Семёновская улица, 40 ст13",,107023.0,Соколиная Гора,Москва,Москва,4.0,40.0,55.780192,37.710728,branch
Меркурий,бизнес центр,Бизнес-центры,"1-я Рыбинская улица, 3 ст1",,107113.0,Сокольники,Москва,Москва,,,55.791008,37.654117,branch
Совкомбанк,,Банки; Обмен валюты,"Первомайская улица, 77",1 этаж,105077.0,Измайлово,Москва,Москва,4.6,70.0,55.793737,37.800651,branch
Газпромбанк,,Банки,"Рязанский проспект, 71 к1",,109456.0,Рязанский,Москва,Москва,2.0,15.0,55.718379,37.788351,branch
Совкомбанк,,Банки; Обмен валюты,"шоссе Энтузиастов, 13",,111024.0,Лефортово,Москва,Москва,4.7,61.0,55.751626,37.715283,branch
На Балакиревском,бизнес-центр,Бизнес-центры,"Балакиревский переулок, 19",,105082.0,Басманный,Москва,Москва,5.0,2.0,55.778857,37.688337,branch
ВТБ Банк,банк,Банки,"2-я Владимирская улица, 45",1 этаж,111397.0,Новогиреево,Москва,Москва,3.8,35.0,55.749856,37.785954,branch
СберБанк,,Банки; Ипотечные кредиты; Обмен валюты; Операции на фондовом рынке; Регистрация и ликвидация предприятий; Электронные подписи,"Открытое шоссе, 17 к13",1 этаж,107143.0,Метрогородок,Москва,Москва,2.9,8.0,55.822728,37.753843,branch
СберБанк,,Банки; Обмен валюты; Ипотечные кредиты; ПИФы; Инвестиционные драгоценные металлы; Операции на фондовом рынке; Регистрация и ликвидация предприятий; Электронные подписи,"Новокосинская улица, 36Б",,111672.0,Новокосино,Москва,Москва,3.9,7.0,55.742434,37.869464,branch
Аутсорсинг технолоджи групп,офис,Кадровые агентства; Складское хранение,"шоссе Энтузиастов, 34",3 этаж,105118.0,Перово,Москва,Москва,5.0,3.0,55.754166,37.734855,branch
Ренессанс Банк,дополнительный офис,Банки; Обмен валюты,"Зелёный проспект, 22",1 этаж,111397.0,Новогиреево,Москва,Москва,4.7,61.0,55.750164,37.78892,branch
Мир Привилегий,дополнительный офис №1,Банки; Обмен валюты,"Верхняя Красносельская улица, 11а ст1",1 этаж,107140.0,Красносельский,Москва,Москва,1.4,1.0,55.784145,37.661987,branch
Деловой центр на Суворовской,,Бизнес-центры,"Суворовская улица, 2а",,107023.0,Преображенское,Москва,Москва,,,55.788005,37.710413,branch
Совкомбанк,,Банки; Обмен валюты,"Большая Черкизовская улица, 5 к1",1 этаж,107061.0,Преображенское,Москва,Москва,4.6,91.0,55.797394,37.72038,branch
СберБанк,,Банки; Обмен валюты; Ипотечные кредиты; Операции на фондовом рынке; Регистрация и ликвидация предприятий; Электронные подписи,"Красноказарменная улица, 23",1 этаж,111024.0,Лефортово,Москва,Москва,4.6,7.0,55.753641,37.713518,branch
СберБанк,,Банки; Обмен валюты; Ипотечные кредиты; Инвестиционные драгоценные металлы; Операции на фондовом рынке; Регистрация и ликвидация предприятий; Электронные подписи,"Новокосинская улица, 23",1 этаж,111673.0,Новокосино,Москва,Москва,4.2,14.0,55.740846,37.860069,branch
СберБанк,,Банки; Обмен валюты; Ипотечные кредиты; Операции на фондовом рынке; Регистрация и ликвидация предприятий; Электронные подписи,"улица Бажова, 24 к2",1 этаж,129128.0,Ростокино,Москва,Москва,4.6,7.0,55.83642,37.665205,branch
ВТБ Банк,банк,Банки,"Салтыковская улица, 27",,111672.0,Новокосино,Москва,Москва,5.0,1.0,55.739066,37.872896,branch
Газпромбанк,,Банки,"Зелёный проспект, 54а",,111396.0,Новогиреево,Москва,Москва,1.4,4.0,55.752033,37.812766,branch
СберБанк,,Банки; Обмен валюты; Ипотечные кредиты; ПИФы; Инвестиционные драгоценные металлы; Операции на фондовом рынке; Регистрация и ликвидация предприятий; Электронные подписи,"Ярославское шоссе, 28",,129337.0,Ярославский,Москва,Москва,4.0,6.0,55.861077,37.694198,branch
Колибрис,бизнес-центр,Бизнес-центры,"улица Электрозаводская, 52",,107023.0,Преображенское,Москва,Москва,3.4,6.0,55.793088,37.708847,branch
Россельхозбанк,,Банки; Обмен валюты; Ипотечные кредиты,"Краснопрудная улица, 30/34 ст1",1 этаж,107140.0,Красносельский,Москва,Москва,4.7,96.0,55.780238,37.668397,branch
Косинская Мануфактура,бизнес-центр,Бизнес-центры,"Большая Косинская улица, 27 ст16",,111622.0,Косино-Ухтомский,Москва,Москва,3.2,2.0,55.717804,37.857702,branch
СберБанк,,Банки; Обмен валюты; Ипотечные кредиты; Операции на фондовом рынке; Регистрация и ликвидация предприятий; Электронные подписи,"улица Урицкого, 17",1 этаж,140007.0,,Люберцы,Московская область,1.8,6.0,55.701067,37.892562,branch
СберБанк,,Банки; Обмен валюты; Ипотечные кредиты; ПИФы; Инвестиционные драгоценные металлы; Операции на фондовом рынке; Регистрация и ликвидация предприятий; Электронные подписи,"Сиреневый бульвар, 53",1 этаж,105484.0,Северное Измайлово,Москва,Москва,3.3,10.0,55.803466,37.814489,branch
СберБанк,,Банки; Обмен валюты; Ипотечные кредиты; Операции на фондовом рынке; Регистрация и ликвидация предприятий; Инвестиционные драгоценные металлы; Электронные подписи,"Первомайская улица, 106а",1 этаж,105203.0,Восточное Измайлово,Москва,Москва,3.9,6.0,55.79334,37.813216,branch
СберБанк,,Банки; Обмен валюты; Ипотечные кредиты; ПИФы; Инвестиционные драгоценные металлы; Операции на фондовом рынке; Регистрация и ликвидация предприятий; Электронные подписи,"Бакунинская улица, 44-48 ст1",1 этаж,105082.0,Басманный,Москва,Москва,4.5,17.0,55.776519,37.687651,branch
Совкомбанк,,Банки,"Зелёный проспект, 19",1 этаж,111401.0,Перово,Москва,Москва,4.7,64.0,55.750781,37.78239,branch
ВТБ Банк,банк,Банки,"Щёлковское шоссе, 59а",,107241.0,Гольяново,Москва,Москва,,,55.810343,37.791769,branch
Графский,бизнес-центр,Бизнес-центры,"Графский переулок, 14 к1",,129626.0,Алексеевский,Москва,Москва,,,55.802743,37.641542,branch
Россельхозбанк,,Банки; Обмен валюты,"Авиамоторная улица, 10 к1",1 этаж,111024.0,Лефортово,Москва,Москва,4.8,83.0,55.754204,37.715592,branch
Вега,бизнес-центр,Бизнес-центры,"Вербная улица, 8а",,107143.0,Метрогородок,Москва,Москва,,,55.824566,37.78025,branch
Московский кредитный банк,,Банки; Ипотечные кредиты,"Зелёный проспект, 54а",,111396.0,Новогиреево,Москва,Москва,3.2,4.0,55.752006,37.812953,branch
Уралсиб,банк,Банки; Ипотечные кредиты; Лизинговые услуги,"Измайловский бульвар, 55",1 этаж,105264.0,Измайлово,Москва,Москва,2.5,13.0,55.797338,37.802795,branch
Бизнес-Недвижимость,Компания,Бизнес-центры; Аренда помещений,"Бабаевская улица, 4",,107014.0,Сокольники,Москва,Москва,,,55.790859,37.687921,branch
Kobzon City,бизнес-центр,Бизнес-центры,"Бауманская улица, 11 ст7",,105082.0,Басманный,Москва,Москва,5.0,16.0,55.777101,37.678202,branch
СберБанк,,Банки; Обмен валюты; Ипотечные кредиты; Операции на фондовом рынке; Регистрация и ликвидация предприятий; Электронные подписи,"Сиреневый бульвар, 29/45 к3",1 этаж,105425.0,Северное Измайлово,Москва,Москва,4.4,4.0,55.803224,37.798217,branch
Газпромбанк,,Банки,"Русаковская улица, 29",1 этаж,107113.0,Сокольники,Москва,Москва,2.4,24.0,55.787367,37.677801,branch
СберБанк,,Банки; Обмен валюты; Ипотечные кредиты; Операции на фондовом рынке; Регистрация и ликвидация предприятий; Электронные подписи,"проспект Будённого, 30/8",1 этаж,105118.0,Соколиная Гора,Москва,Москва,4.3,5.0,55.762522,37.734602,branch
СберБанк,,Банки; Обмен валюты; Ипотечные кредиты; Инвестиционные драгоценные металлы; Операции на фондовом рынке; Регистрация и ликвидация предприятий; Электронные подписи,"Вешняковская улица, 24Б",,111395.0,Вешняки,Москва,Москва,4.3,18.0,55.720608,37.817032,branch
СберБанк,,Банки; Обмен валюты; Ипотечные кредиты; Операции на фондовом рынке; Регистрация и ликвидация предприятий; Электронные подписи,"улица Госпитальный Вал, 18",1 этаж,111020.0,Лефортово,Москва,Москва,4.1,5.0,55.773291,37.710968,branch
Банк Русский Стандарт,,Банки; Обмен валюты,"Ткацкая улица, 38",1 этаж,105187.0,Соколиная Гора,Москва,Москва,3.5,16.0,55.78671,37.737734,branch
Агророс Банк,дополнительный офис Московский,Банки; Обмен валюты; Ипотечные кредиты,"Зелёный проспект, 20",1 этаж,111397.0,Новогиреево,Москва,Москва,4.3,43.0,55.749988,37.787205,branch
ВТБ Банк,банк,Банки,"проспект Мира, 76",1 этаж,129110.0,Мещанский,Москва,Москва,3.4,16.0,55.790754,37.635129,branch
Газпромбанк,,Банки; Ипотечные кредиты; Операции на фондовом рынке,"площадь Семёновская, 1а",1 этаж,107023.0,Соколиная Гора,Москва,Москва,2.9,17.0,55.78285,37.718137,branch
Бизнес-центр,,Бизнес-центры; Интересные здания,"площадь Журавлева, 10",цокольный этаж,107023.0,Соколиная Гора,Москва,Москва,1.7,1.0,55.783211,37.7044,branch
Совкомбанк,,Банки,"Щербаковская улица, 3",1 этаж,105318.0,Соколиная Гора,Москва,Москва,5.0,5.0,55.782659,37.723608,branch
СберБанк,,Банки; Обмен валюты; Ипотечные кредиты; Электронные подписи; Операции на фондовом рынке; Регистрация и ликвидация предприятий,"Хабаровская улица, 15",1 этаж,107065.0,Гольяново,Москва,Москва,3.8,2.0,55.822424,37.823746,branch
СберБанк,,Банки; Обмен валюты; Ипотечные кредиты; Операции на фондовом рынке; Регистрация и ликвидация предприятий; Электронные подписи,"Вешняковская улица, 12Б ст1",,111402.0,Вешняки,Москва,Москва,4.6,4.0,55.734892,37.825784,branch
Газпромбанк,,Банки,"Уральская улица, 4г",,107207.0,Гольяново,Москва,Москва,2.4,8.0,55.812095,37.799288,branch
Московский кредитный банк,,Банки; Обмен валюты; Ипотечные кредиты,"шоссе Энтузиастов, 20",,111024.0,Лефортово,Москва,Москва,3.8,8.0,55.750862,37.715055,branch
Яуза,офисный центр,Бизнес-центры,"Малахитовая улица, вл27 ст1",,129128.0,Ростокино,Москва,Москва,4.4,4.0,55.829743,37.670403,branch
Первый Инвестиционный Банк,,Банки; Обмен валюты,"Большая Семёновская улица, 20",1 этаж,107023.0,Соколиная Гора,Москва,Москва,2.9,5.0,55.781647,37.704793,branch
Фора-Банк,,Банки; Обмен валюты,"9-я Парковая улица, 39",1 этаж,105264.0,Измайлово,Москва,Москва,3.7,7.0,55.800504,37.798639,branch
Графитэл,индустриальный парк,Бизнес-центры; Торговые центры,"шоссе Энтузиастов, 31 ст38",,111123.0,Соколиная Гора,Москва,Москва,4.5,17.0,55.758901,37.752691,branch
Совкомбанк,дополнительный офис №42,Банки; Ипотечные кредиты; Обмен валюты,"Носовихинское шоссе, 11",1 этаж,143965.0,,Реутов,Московская область,4.7,29.0,55.74597,37.862383,branch
Экспобанк,,Банки; Обмен валюты; Инвестиционные драгоценные металлы,"Русаковская улица, 29",1 этаж,107113.0,Сокольники,Москва,Москва,,,55.787559,37.677712,branch
ВТБ Банк,банк,Банки,"Уральская улица, 1",1 этаж; отделение Почты России,107241.0,Гольяново,Москва,Москва,,,55.81151,37.798135,branch
ВТБ Банк,банк,Банки,"Рязанский проспект, 97",,109542.0,Выхино-Жулебино,Москва,Москва,,,55.714526,37.8089,branch
ВТБ Банк,банк,Банки,"Вешняковская улица, 20Б",1 этаж,111395.0,Вешняки,Москва,Москва,1.7,15.0,55.721202,37.823189,branch
ВТБ Банк,банк,Банки,"шоссе Энтузиастов, 31 ст39",1 этаж,111123.0,Соколиная Гора,Москва,Москва,4.3,13.0,55.758816,37.752257,branch
ВТБ Банк,банк,Банки,"Зелёный проспект, 21/36",,111401.0,Перово,Москва,Москва,2.0,2.0,55.750929,37.78319,branch
Стромынка,деловой центр,Бизнес-центры,"улица Стромынка, 4 к1",,107014.0,Сокольники,Москва,Москва,4.3,3.0,55.789892,37.687751,branch
Победа,офисный центр,Бизнес-центры,"улица Победы, 28",,143968.0,,Реутов,Московская область,,,55.768098,37.850769,branch
Внешфинбанк,обменный пункт,Банки; Обмен валюты,"Рязанский проспект, 77",цокольный этаж,109456.0,Рязанский,Москва,Москва,4.0,16.0,55.717199,37.795339,branch
Россельхозбанк,,Банки,"Носовихинское шоссе, 9",1 этаж,143965.0,,Реутов,Московская область,5.0,13.0,55.745467,37.860887,branch
СберБанк,,Банки; Обмен валюты; Ипотечные кредиты; Электронные подписи; Инвестиционные драгоценные металлы; Операции на фондовом рынке; Регистрация и ликвидация предприятий,"Верхняя Первомайская улица, 59 к2",1 этаж,105264.0,Измайлово,Москва,Москва,5.0,4.0,55.79956,37.804042,branch
Многофункциональный бизнес-центр,,Бизнес-центры,"улица Проходчиков, 16 ст1",,129347.0,Ярославский,Москва,Москва,,,55.876641,37.723533,branch
СберБанк,,Банки; Обмен валюты; Ипотечные кредиты; ПИФы; Инвестиционные драгоценные металлы; Операции на фондовом рынке; Регистрация и ликвидация предприятий; Электронные подписи,"Вешняковская улица, 18а",2 этаж,111538.0,Вешняки,Москва,Москва,,,55.72329,37.824907,branch
Arris,бизнес-центр,Бизнес-центры,"Колхозная улица, 8а",,140002.0,,Люберцы,Московская область,,,55.696532,37.862187,branch
СберБанк,,Банки; Обмен валюты; Ипотечные кредиты; ПИФы; Инвестиционные драгоценные металлы; Операции на фондовом рынке; Регистрация и ликвидация предприятий; Электронные подписи,"Алтайская улица, 4",1 этаж,107207.0,Гольяново,Москва,Москва,3.1,8.0,55.819733,37.802252,branch
Измайлово,бизнес-центр,Бизнес-центры,"3-я Парковая улица, 29а",,105037.0,Измайлово,Москва,Москва,,,55.794335,37.781645,branch
Гараж,техно-парк,Бизнес-центры,"Маломосковская улица, 22 ст4",1 этаж,129626.0,Алексеевский,Москва,Москва,,,55.811634,37.651407,branch
СберБанк,,Банки; Обмен валюты; Ипотечные кредиты; ПИФы; Инвестиционные драгоценные металлы; Операции на фондовом рынке; Электронные подписи; Регистрация и ликвидация предприятий,"Новокосинская улица, 11 к2",1 этаж,111673.0,Новокосино,Москва,Москва,3.0,3.0,55.734161,37.853095,branch
Вертикаль,бизнес-центр,Бизнес-центры,"улица Ленина, 19/10",,143964.0,,Реутов,Московская область,,,55.757713,37.856007,branch
ВТБ Банк,отделение по обслуживанию юридических лиц,Банки; Обмен валюты,"улица Академика Скрябина, 1/58",,109377.0,Выхино-Жулебино,Москва,Москва,4.2,5.0,55.714908,37.797294,branch
СберБанк,,Банки; Обмен валюты; Ипотечные кредиты; Операции на фондовом рынке; Регистрация и ликвидация предприятий; Электронные подписи,"Главная улица, 29",1 этаж,105173.0,Восточный,Москва,Москва,3.9,7.0,55.820188,37.871894,branch
Газпромбанк,,Банки,"Первомайская улица, 77",,105077.0,Измайлово,Москва,Москва,5.0,1.0,55.793707,37.800827,branch
ВТБ Банк,банк,Банки,"Щербаковская улица, 35",,105318.0,Соколиная Гора,Москва,Москва,,,55.782927,37.729438,branch
ВТБ Банк,банк,Банки,"Щёлковское шоссе, 10",1 этаж,105122.0,Северное Измайлово,Москва,Москва,,,55.804556,37.761822,branch
Локо-Банк,коммерческий банк,Банки; Обмен валюты,"Большая Семёновская улица, 28",1 этаж,107023.0,Соколиная Гора,Москва,Москва,4.9,65.0,55.78201,37.707174,branch
СберБанк,,Банки; Обмен валюты; Ипотечные кредиты; Электронные подписи; Операции на фондовом рынке; Регистрация и ликвидация предприятий,"улица Егора Абакумова, 10 к1",1 этаж,129347.0,Ярославский,Москва,Москва,3.9,5.0,55.879448,37.714846,branch
Танко-центр,бизнес-центр,Бизнес-центры,"улица Ибрагимова, 12",,105318.0,Соколиная Гора,Москва,Москва,,,55.783583,37.730877,branch
Юнистрим,система денежных переводов,Банки; Обмен валюты,"Измайловское шоссе, 69д",1 этаж,105187.0,Измайлово,Москва,Москва,3.2,2.0,55.788316,37.747889,branch
ВТБ Банк,банк,Банки,"Измайловская площадь, 11",,105037.0,Измайлово,Москва,Москва,1.0,1.0,55.794328,37.774892,branch
Трансстройбанк,акционерный коммерческий банк,Банки; Обмен валюты,"Защитников Москвы проспект, 13",,111677.0,Некрасовка,Москва,Москва,4.1,8.0,55.702888,37.92235,branch
Фора-Банк,,Банки; Обмен валюты,"Зелёный проспект, 81",-1 этаж,111558.0,Новогиреево,Москва,Москва,4.7,3.0,55.751666,37.820214,branch
Авангард,акционерный коммерческий банк,Банки; Обмен валюты,"Сиреневый бульвар, 31",-1 этаж,105215.0,Северное Измайлово,Москва,Москва,,,55.803971,37.801052,branch
F2,коворкинг-центр,Аренда помещений; Коворкинг,"Пресненская набережная, 12",36 этаж,123112.0,Пресненский,Москва,Москва,4.5,4.0,55.749515,37.537707,branch
Сим-сити,бизнес-центр,Аренда помещений; Бизнес-центры,"Золоторожский Вал улица, 11 ст9",,111033.0,Лефортово,Москва,Москва,,,55.754587,37.694905,branch
МК Кобальт,бизнес-центр,Аренда помещений; Бизнес-центры,"Рязанский проспект, 22 к2",,109428.0,Рязанский,Москва,Москва,,,55.721295,37.770911,branch
Инсайт,бизнес-центр,Бизнес-центры,"Большая Татарская улица, 9",,115184.0,Замоскворечье,Москва,Москва,5.0,3.0,55.741383,37.632842,branch
Японский дом,бизнес-центр,Бизнес-центры,"Саввинская набережная, 15",,119435.0,Хамовники,Москва,Москва,4.9,4.0,55.734917,37.566107,branch
Кунцево плаза,многофункциональный комплекс,Аренда помещений; Аренда спортивных площадок; Бизнес-центры; Торгово-развлекательные центры,"Ярцевская улица, 19",,121552.0,Кунцево,Москва,Москва,4.7,293.0,55.738991,37.410769,branch
Центр международной торговли,многопрофильный бизнес-комплекс,Аренда помещений; Бизнес-центры; Конференц-залы; Гостиницы; Интересные здания,"Краснопресненская набережная, 12",апарт-отель Международная,123610.0,Пресненский,Москва,Москва,4.8,165.0,55.755053,37.557191,branch
ВЭБ Центр,бизнес-центр,Аренда помещений; Бизнес-центры; Торговые центры,"Новинский бульвар, 31",,123242.0,Пресненский,Москва,Москва,4.8,31.0,55.757811,37.58264,branch
Башня на Набережной,многофункциональный комплекс,Аренда помещений; Бизнес-центры; Торговые центры,"Пресненская набережная, 10",,123112.0,Пресненский,Москва,Москва,4.7,90.0,55.746681,37.536831,branch
Парк победы,деловой центр,Аренда помещений; Бизнес-центры,"улица Василисы Кожиной, 1",,121096.0,Филёвский парк,Москва,Москва,4.7,26.0,55.73778,37.50604,branch
Верейская Плаза III,бизнес-центр,Аренда помещений; Бизнес-центры,"Верейская улица, 29 ст134",,121357.0,Можайский,Москва,Москва,4.6,41.0,55.709501,37.442331,branch
Парк победы,деловой центр,Аренда помещений; Бизнес-центры,"улица Василисы Кожиной, 1 к1",,121096.0,Филёвский парк,Москва,Москва,4.7,9.0,55.737991,37.506601,branch
Технопарк Орбита,бизнес-центр,Аренда помещений; Бизнес-центры,"улица Кулакова, 20 ст1а",,123592.0,Строгино,Москва,Москва,4.7,16.0,55.805437,37.392042,branch
Европа-Билдинг,бизнес-центр,Аренда помещений; Бизнес-центры,"Брянская улица, 5",,121059.0,Дорогомилово,Москва,Москва,4.5,4.0,55.744031,37.561661,branch
G-10,бизнес-центр,Аренда помещений; Бизнес-центры,"Киевское шоссе 21 километр, 3 ст1",,108820.0,Коммунарка,Москва,Москва,4.5,11.0,55.633601,37.453439,branch
Башня Федерация,многофункциональный комплекс,Бизнес-центры; Интересные здания,"Пресненская набережная, 12",,123112.0,Пресненский,Москва,Москва,4.8,566.0,55.7499,37.537718,branch
Бизнес-Недвижимость,Компания,Аренда помещений; Бизнес-центры,"Вернадского проспект, 21 к3",,119331.0,Ломоносовский,Москва,Москва,3.2,2.0,55.684436,37.522413,branch
Очаково,бизнес-центр,Аренда помещений; Бизнес-центры,"Большая Очаковская улица, 47а ст1",1 этаж,119361.0,Очаково-Матвеевское,Москва,Москва,3.5,15.0,55.673587,37.441372,branch
Квадрат,бизнес-центр,Аренда помещений; Бизнес-центры,"Верейская улица, 11",,121357.0,Можайский,Москва,Москва,4.4,3.0,55.710071,37.44784,branch
Румянцево,бизнес-парк,Аренда помещений; Бизнес-центры,"22 километр Киевское шоссе, 4 ст1 к Б",,108811.0,Солнцево,Москва,Москва,4.7,16.0,55.633929,37.442732,branch
Кутузовский 36,бизнес-парк,Аренда помещений; Бизнес-центры,"Кутузовский проспект, 36 ст17",1 этаж,121170.0,Дорогомилово,Москва,Москва,4.9,42.0,55.741274,37.524212,branch
Воробьёвский,бизнес-центр,Аренда помещений; Бизнес-центры,"Университетский проспект, 12",,119330.0,Раменки,Москва,Москва,5.0,1.0,55.715582,37.522754,branch
Новинский,бизнес-центр,Аренда помещений; Бизнес-центры; Интересные здания,"Новинский бульвар, 3 ст1",,121099.0,Арбат,Москва,Москва,4.9,4.0,55.751093,37.582526,branch
Smart-библиотека им. Анны Ахматовой,детское отделение,Библиотеки; Копировальные услуги; Студии звукозаписи; Коворкинг,"улица Крылатские Холмы, 34",1-2 этаж,121614.0,Крылатское,Москва,Москва,4.8,14.0,55.764942,37.41127,branch
Московский шелк,деловой квартал,Аренда помещений; Бизнес-центры; Интересные здания,"Большой Саввинский переулок, 12 ст4",,119435.0,Хамовники,Москва,Москва,,,55.733032,37.56454,branch
Дорохофф,бизнес-парк,Аренда помещений; Бизнес-центры,"Очаковское шоссе, 28",,119530.0,Очаково-Матвеевское,Москва,Москва,4.4,3.0,55.68582,37.44185,branch
Neva towers,,Бизнес-центры,"1-й Красногвардейский проезд, 22 ст1",26 этаж,123317.0,Пресненский,Москва,Москва,4.8,59.0,55.751097,37.53374,branch
Империя,деловой комплекс,Бизнес-центры,"Пресненская набережная, 6 ст2",,123112.0,Пресненский,Москва,Москва,4.8,158.0,55.748229,37.540184,branch
Машиноаппарат,,Аренда помещений; Бизнес-центры,"Большой Саввинский переулок, 9",,119435.0,Хамовники,Москва,Москва,,,55.735342,37.569326,branch
Смоленский пассаж,торгово-деловой комплекс,Бизнес-центры; Торговые центры,"Смоленская площадь, 3",,121099.0,Арбат,Москва,Москва,4.9,80.0,55.747743,37.581949,branch
Грандконсалт,бизнес-центр,Аренда помещений; Бизнес-центры,"Молдавская улица, 5",,121467.0,Кунцево,Москва,Москва,4.1,4.0,55.732242,37.435397,branch
Конвент-плюс,бизнес-центр,Бизнес-центры,"Багратионовский проезд, 7 к20в",,121087.0,Филёвский парк,Москва,Москва,4.8,21.0,55.743509,37.505475,branch
Город столиц,многофункциональный комплекс,Бизнес-центры; Торговые центры,"Пресненская набережная, 8 ст1",,123112.0,Пресненский,Москва,Москва,4.6,199.0,55.747545,37.539339,branch
Око,бизнес-центр,Бизнес-центры,"1-й Красногвардейский проезд, 21 ст1",,123112.0,Пресненский,Москва,Москва,4.8,85.0,55.75004,37.534448,branch
Бизнес-Недвижимость,Компания,Аренда помещений; Бизнес-центры,"Винницкая улица, 4",,119192.0,Раменки,Москва,Москва,,,55.700015,37.497507,branch
Бизнес-Недвижимость,Компания,Аренда помещений; Бизнес-центры,"Партизанская улица, 10",,121351.0,Кунцево,Москва,Москва,5.0,1.0,55.732286,37.412664,branch
R&D Ренова,научно-исследовательский центр,Аренда помещений; Бизнес-центры,"улица Сикорского, 11",,143026.0,Можайский,Москва,Москва,5.0,1.0,55.681535,37.332205,branch
IQ-квартал,многофункциональный комплекс,Бизнес-центры,"Пресненская набережная, 10 ст2",,123112.0,Пресненский,Москва,Москва,4.8,98.0,55.747519,37.534649,branch
Трехгорная мануфактура,бизнес-парк,Бизнес-центры; Аренда помещений,"Рочдельская улица, 15 ст1",4 этаж,123376.0,Пресненский,Москва,Москва,5.0,165.0,55.756889,37.566186,branch
ОТП Банк,офис,Банки; Обмен валюты,"Большая Дорогомиловская улица, 1",1 этаж,121059.0,Дорогомилово,Москва,Москва,4.2,36.0,55.745799,37.561918,branch
Фили град,бизнес-центр,Бизнес-центры,"Береговой проезд, 5а к1",5 офис; 21 этаж,121087.0,Филёвский парк,Москва,Москва,4.7,22.0,55.754995,37.509158,branch
Рубин,деловой центр,Бизнес-центры,"Багратионовский проезд, 7",1 этаж,121087.0,Филёвский парк,Москва,Москва,4.6,25.0,55.741994,37.501003,branch
Бизнес-Недвижимость,Компания,Аренда помещений; Бизнес-центры,"Можайское шоссе, 38 к1",,121354.0,Можайский,Москва,Москва,3.9,1.0,55.718825,37.413929,branch
Меркурий Сити,многофункциональный комплекс,Бизнес-центры,"1-й Красногвардейский проезд, 15",,123112.0,Пресненский,Москва,Москва,4.9,72.0,55.750813,37.539312,branch
Раменки,бизнес-центр,Аренда помещений; Бизнес-центры,"улица Раменки, 17 к1",,119607.0,Раменки,Москва,Москва,5.0,2.0,55.692188,37.493893,branch
Смоленский пассаж 2,торгово-развлекательный центр,Бизнес-центры; Торгово-развлекательные центры,"Смоленская площадь, 5",,121099.0,Арбат,Москва,Москва,4.8,51.0,55.748369,37.581088,branch
Эйлер,многофункциональный центр,Аренда помещений; Бизнес-центры; Торговые центры,"Заречная улица, вл6/1",,121087.0,Филёвский парк,Москва,Москва,4.9,59.0,55.755784,37.51286,branch
Лето,торгово-офисный центр,Бизнес-центры; Торговые центры,"Вернадского проспект, 29",,119331.0,Ломоносовский,Москва,Москва,4.4,27.0,55.681443,37.515996,branch
ВТБ,многофункциональный комплекс,Бизнес-центры,"Пресненская набережная, 10 ст1",,123112.0,Пресненский,Москва,Москва,4.7,25.0,55.748694,37.534713,branch
Рублевский,бизнес-центр,Аренда помещений; Бизнес-центры,"Рублёвское шоссе, 48/1",1 этаж,121609.0,Крылатское,Москва,Москва,,,55.7538,37.405742,branch
Северная башня,бизнес-центр,Бизнес-центры; Конференц-залы,"Тестовская улица, 10",,123112.0,Пресненский,Москва,Москва,4.6,33.0,55.751364,37.532652,branch
Гранд Сетунь Плаза,бизнес-центр,Бизнес-центры,"улица Горбунова, 2 ст3",,121596.0,Можайский,Москва,Москва,4.3,32.0,55.726315,37.399375,branch
Крылатские холмы,бизнес-парк,Бизнес-центры,"Крылатская улица, 17 к1",,121614.0,Крылатское,Москва,Москва,5.0,5.0,55.770578,37.424085,branch
Орбита-2,многофункциональный комплекс,Бизнес-центры,"улица Кулакова, 20 к1",,123592.0,Строгино,Москва,Москва,4.7,16.0,55.803544,37.390546,branch
Орбион,торгово-офисный центр,Бизнес-центры; Торговые центры,"Западная улица, 181",,143026.0,,,Московская область,4.7,53.0,55.69978,37.344274,branch
Rublevo Business Park,бизнес-центр,Аренда помещений; Бизнес-центры,,,121500.0,,,Московская область,5.0,1.0,55.800785,37.381631,branch
Город Столиц,офисный коворкинг,Коворкинг,"Пресненская набережная, 8 ст1",,123112.0,Пресненский,Москва,Москва,,,55.746786,37.539546,branch
Барклай плаза,бизнес-центр,Бизнес-центры,"Барклая улица, 6 ст5",,121087.0,Филёвский парк,Москва,Москва,4.8,37.0,55.739257,37.508336,branch
Sok,коворкинг-центр,Коворкинг,"Пресненская набережная, 12",3 этаж,123112.0,Пресненский,Москва,Москва,2.1,7.0,55.749572,37.538063,branch
Поклонка,бизнес-центр,Бизнес-центры,"Поклонная улица, 3",,121170.0,Дорогомилово,Москва,Москва,4.7,21.0,55.736301,37.534039,branch
Вернадский,бизнес-центр,Бизнес-центры,"Вернадского проспект, 39",,119415.0,Проспект Вернадского,Москва,Москва,4.4,29.0,55.675924,37.506553,branch
Башня 2000,офисный комплекс,Бизнес-центры,"набережная Тараса Шевченко, 23а",,121151.0,Пресненский,Москва,Москва,4.9,52.0,55.746272,37.54615,branch
Кубик,бизнес-центр,Бизнес-центры,"бульвар Строителей, 4 к1",,143401.0,,Красногорск,Московская область,4.9,10.0,55.81456,37.386126,branch
ОКО II,бизнес-центр,Бизнес-центры,"1-й Красногвардейский проезд, 19",1 этаж,123112.0,Пресненский,Москва,Москва,4.9,41.0,55.750499,37.536558,branch
Офлайн,коворкинг,Аренда помещений; Коворкинг; Копировальные услуги; Лектории; Конференц-залы,"улица Липовой Рощи, 2 к3",1 этаж,143082.0,,Красногорск,Московская область,5.0,4.0,55.798177,37.376082,branch
Озёрная,бизнес-центр,Аренда помещений; Бизнес-центры,"Озёрная улица, 42",,119361.0,Очаково-Матвеевское,Москва,Москва,,,55.670744,37.445423,branch
Worknation,,Коворкинг,"Пресненская набережная, 12",37 этаж; Башня Восток,123112.0,Пресненский,Москва,Москва,5.0,13.0,55.749515,37.537707,branch
Backstage,,Коворкинг,"Пресненская набережная, 12",4210 офис; 42 этаж,123112.0,Пресненский,Москва,Москва,5.0,10.0,55.749515,37.537707,branch
Легион 3,бизнес-центр,Бизнес-центры,"Киевская улица, 7 к2",,121059.0,Дорогомилово,Москва,Москва,4.4,17.0,55.742196,37.559052,branch
Victory park plaza,бизнес-центр,Бизнес-центры,"МЖД Киевское 5-й километр, 1 ст1-2",1 этаж,119285.0,Раменки,Москва,Москва,3.7,18.0,55.724153,37.504683,branch
Кабинеты Рихтера,компания по аренде кабинетов,Аренда помещений; Коворкинг,"2-й Смоленский переулок, 1/4",2 этаж,121099.0,Арбат,Москва,Москва,3.8,5.0,55.747124,37.58166,branch
Club 500,,Бизнес-центры; Бизнес-тренинги; Личностные тренинги; Управленческий консалтинг; Коворкинг,"Рочдельская улица, 15 ст11-11а",202 офис; 2 этаж,123376.0,Пресненский,Москва,Москва,5.0,14.0,55.755285,37.564127,branch
Arkenston,многофункциональный комплекс,Аренда помещений; Девелопмент,"улица Усачёва, 62",вход со двора; парадный вход,119048.0,Хамовники,Москва,Москва,,,55.725226,37.561947,branch
Atlantic office,бизнес-центр,Бизнес-центры,"Можайский Вал улица, 8д",,121151.0,Дорогомилово,Москва,Москва,4.7,9.0,55.743748,37.555189,branch
Skolkovo park,деловой квартал,Бизнес-центры,"Сколковское шоссе, 43",,143085.0,Можайский,Москва,Москва,5.0,3.0,55.699265,37.400044,branch
Kutuzoff tower,бизнес-центр,Бизнес-центры,"улица Ивана Франко, 8",1 этаж,121108.0,Фили-Давыдково,Москва,Москва,4.4,18.0,55.727915,37.449556,branch
Арбат,бизнес-центр,Бизнес-центры,"Карманицкий переулок, 9",1 этаж,119002.0,Арбат,Москва,Москва,4.9,21.0,55.748314,37.583544,branch
Премьер Плаза,бизнес-центр,Бизнес-центры,"переулок Капранова, 3 ст4",,123242.0,Пресненский,Москва,Москва,4.6,16.0,55.758077,37.573212,branch
Озон Банк,,Банки,"Пресненская набережная, 10",4.12 офис; 4 этаж,123112.0,Пресненский,Москва,Москва,4.4,715.0,55.746906,37.536865,branch
West park,бизнес-центр,Бизнес-центры,"Очаковское шоссе, 34",,119530.0,Очаково-Матвеевское,Москва,Москва,3.8,21.0,55.68681,37.440521,branch
На Бережковской,бизнес-центр,Бизнес-центры,"Бережковская набережная, 38 ст1",,121059.0,Дорогомилово,Москва,Москва,5.0,5.0,55.732144,37.545684,branch
Легион 3,бизнес-центр,Бизнес-центры,"Киевская улица, 7 к1",,121059.0,Дорогомилово,Москва,Москва,4.6,16.0,55.74223,37.560008,branch
Ceo rooms,центр коворкинга,Коворкинг; Конференц-залы,"Пресненская набережная, 6 ст2",8 этаж,123112.0,Пресненский,Москва,Москва,5.0,2.0,55.748048,37.540747,branch
Западные ворота,бизнес-парк,Бизнес-центры,"Беловежская улица, 4",,121353.0,Можайский,Москва,Москва,4.6,8.0,55.71252,37.38908,branch
Алгоритм,бизнес-центр,Бизнес-центры,"улица Академика Пилюгина, 22",1 этаж,117393.0,Ломоносовский,Москва,Москва,4.8,9.0,55.669706,37.532032,branch
Orbital,бизнес-центр,Бизнес-центры,"3-я Магистральная улица, 10а",,123007.0,Хорошёвский,Москва,Москва,4.4,1.0,55.76293,37.523276,branch
Park Place Moscow,многофункциональный комплекс,Бизнес-центры; Интересные здания,"Ленинский проспект, 113/1",,117198.0,Обручевский,Москва,Москва,4.9,9.0,55.655976,37.498588,branch
Барклай парк,бизнес-центр,Бизнес-центры,"Барклая улица, 6 ст3",,121087.0,Филёвский парк,Москва,Москва,4.9,27.0,55.739559,37.507351,branch
Верейская плаза II,бизнес-центр,Бизнес-центры,"Верейская улица, 17",,121357.0,Можайский,Москва,Москва,4.9,57.0,55.710719,37.443728,branch
Амальтея,бизнес-центр,Бизнес-центры,"Большой бульвар, 40",,121205.0,Можайский,Москва,Москва,4.4,37.0,55.695696,37.347129,branch
Верейская Плаза III,бизнес-центр,Бизнес-центры; Аренда помещений,"Верейская улица, 29 ст33",,121357.0,Можайский,Москва,Москва,4.9,6.0,55.709671,37.440331,branch
Новая Пресня,многофункциональный комплекс,Бизнес-центры,"Причальный проезд, 8 к1",,123290.0,Хорошёво-Мнёвники,Москва,Москва,4.4,3.0,55.760534,37.518748,branch
Park Tower,бизнес-центр,Бизнес-центры,"Краснопресненская набережная, 14 ст1",,123100.0,Пресненский,Москва,Москва,5.0,22.0,55.752518,37.548084,branch
Evolution Tower,многофункциональный комплекс,Бизнес-центры,"Пресненская набережная, 4 ст2",,123112.0,Пресненский,Москва,Москва,4.9,81.0,55.748039,37.542462,branch
FORUM,многофункциональный комплекс,Бизнес-центры; Торговые центры,"Вернадского проспект, 37 к2",,119415.0,Проспект Вернадского,Москва,Москва,4.4,2.0,55.677328,37.509622,branch
Deworkacy,коворкинг-центр,Коворкинг; Конференц-залы,"Большой Саввинский переулок, 8 ст1",1 этаж,119435.0,Хамовники,Москва,Москва,5.0,1.0,55.734394,37.566818,branch
СберБанк,,Банки; Ипотечные кредиты; Электронные подписи; Регистрация и ликвидация предприятий; Операции на фондовом рынке,"Пресненская набережная, 2",1 этаж,123112.0,Пресненский,Москва,Москва,3.3,50.0,55.747949,37.537211,branch
Саввинский,бизнес-центр,Бизнес-центры,"Большой Саввинский переулок, 11",,119435.0,Хамовники,Москва,Москва,4.3,8.0,55.734188,37.567813,branch
West plaza,офисный центр,Бизнес-центры,"Рябиновая улица, 26",,121471.0,Очаково-Матвеевское,Москва,Москва,4.1,11.0,55.695047,37.422828,branch
Атмосфера,коворкинг-центр,Аренда помещений; Коворкинг; Конференц-залы,"Ленинский проспект, 109",6 этаж,119421.0,Обручевский,Москва,Москва,4.8,6.0,55.663704,37.511624,branch
HEADWAY,бутиковый коворкинг-центр,Коворкинг,"Пресненская набережная, 12",35 этаж,123112.0,Пресненский,Москва,Москва,5.0,6.0,55.7499,37.537718,branch
Ленинский 119а,бизнес-центр,Бизнес-центры,"Ленинский проспект, 119а",,119571.0,Обручевский,Москва,Москва,4.8,5.0,55.649858,37.489189,branch
СберБанк,,Банки; Обмен валюты; Ипотечные кредиты; Электронные подписи; ПИФы; Инвестиционные драгоценные металлы; Операции на фондовом рынке; Регистрация и ликвидация предприятий,"Брянская улица, 8",1 этаж,121059.0,Дорогомилово,Москва,Москва,3.9,41.0,55.744527,37.561352,branch
Зенит плаза,бизнес-центр,Бизнес-центры,"улица Маршала Прошлякова, 30",,123458.0,Строгино,Москва,Москва,3.9,22.0,55.790135,37.38035,branch
iCity,строящийся бизнес-центр,Бизнес-центры,"улица Ермакова Роща, 1 ст1",,123290.0,Пресненский,Москва,Москва,4.9,125.0,55.755279,37.529276,branch
Верейская Плаза IV,бизнес-центр,Бизнес-центры,"Верейская улица, 29 ст34",,121357.0,Можайский,Москва,Москва,4.6,13.0,55.709824,37.438549,branch
Камкомбанк,,Банки; Ипотечные кредиты; Обмен валюты,"Вернадского проспект, 33",,119331.0,Ломоносовский,Москва,Москва,4.8,303.0,55.680364,37.513804,branch
Матрешка,многофункциональный конференц-зал,Бизнес-центры; Конференц-залы; Организация бизнес-мероприятий; Организация выставок; Интересные здания,"улица Блеза Паскаля, 2",1 этаж,143026.0,Можайский,Москва,Москва,5.0,9.0,55.696842,37.360647,branch
Мичуринский 31,бизнес-центр,Бизнес-центры,"Мичуринский проспект, 31 к7",3 этаж,119607.0,Раменки,Москва,Москва,5.0,1.0,55.694894,37.499699,branch
Россельхозбанк,,Банки; Обмен валюты; Ипотечные кредиты,"1-й Красногвардейский проезд, 7 ст1",,123100.0,Пресненский,Москва,Москва,4.8,202.0,55.752985,37.544622,branch
ProWork,коворкинг-центр,Коворкинг,"Верейская улица, 29 ст134",4 этаж,121357.0,Можайский,Москва,Москва,5.0,2.0,55.709855,37.441161,branch
Россельхозбанк,дополнительный офис,Банки; Обмен валюты,"Пресненская набережная, 10 ст2",1 этаж,123112.0,Пресненский,Москва,Москва,4.6,24.0,55.748051,37.535446,branch
Цифра банк,,Банки; Обмен валюты; Операции на фондовом рынке,"Пресненская набережная, 2",1 этаж,123112.0,Пресненский,Москва,Москва,4.3,57.0,55.748229,37.537279,branch
MegaHackspace,,Коворкинг,"Большой бульвар, 42 ст1",-1 этаж,121205.0,Можайский,Москва,Москва,,,55.694114,37.347331,branch
Office 24/7,коворкинг-центр,Аренда помещений; Конференц-залы; Коворкинг,"Пресненская набережная, 12",16 офис; 28 этаж; Башня Восток,123112.0,Пресненский,Москва,Москва,2.4,11.0,55.749515,37.537707,branch
Профико,бизнес-центр,Бизнес-центры,"Рублёвское шоссе, 28",,121609.0,Крылатское,Москва,Москва,4.0,4.0,55.747862,37.425801,branch
Якорь,бизнес-центр,Бизнес-центры,"Причальный проезд, 2",,123290.0,Хорошёво-Мнёвники,Москва,Москва,4.5,5.0,55.761008,37.519461,branch
Рапира,бизнес-центр,Бизнес-центры,"Дорогобужская улица, 14",,121354.0,Можайский,Москва,Москва,4.8,3.0,55.713267,37.417758,branch
#Businessclub,коворкинг-центр,Аренда помещений; Коворкинг,"1-й Красногвардейский проезд, 19",9 этаж,123112.0,Пресненский,Москва,Москва,4.7,24.0,55.750122,37.536971,branch
Эдельвейс,бизнес-центр,Бизнес-центры,"Давыдковская улица, 3 ст2",,121352.0,Фили-Давыдково,Москва,Москва,5.0,1.0,55.72655,37.48039,branch
Workki,коворкинг-центр,Аренда помещений; Коворкинг; Конференц-залы,"Пресненская набережная, 12",18 этаж,123112.0,Пресненский,Москва,Москва,4.4,32.0,55.749515,37.537707,branch
Стратос,бизнес-центр,Бизнес-центры,"улица Николы Теслы, 1 ст1",,121205.0,Можайский,Москва,Москва,5.0,3.0,55.694142,37.345234,branch
Бородинская панорама,бизнес-центр,Бизнес-центры,"1-я Бородинская улица, 2а",,121059.0,Дорогомилово,Москва,Москва,5.0,6.0,55.747954,37.57062,branch
Sreda,коворкинг-центр,Коворкинг,"Пресненская набережная, 12",19 этаж,123112.0,Пресненский,Москва,Москва,4.2,10.0,55.749515,37.537707,branch
Чемпион-парк,бизнес-центр,Бизнес-центры,"Мичуринский проспект, Олимпийская деревня проспект, 1 к4",,119602.0,Тропарёво-Никулино,Москва,Москва,4.9,8.0,55.679645,37.468798,branch
Покрышкина 7,бизнес-центр,Бизнес-центры,"улица Покрышкина, 7",,119602.0,Тропарёво-Никулино,Москва,Москва,,,55.663634,37.469303,branch
Атмосфера,коворкинг-центр,Коворкинг; Конференц-залы,"Аминьевское шоссе, 6",4 этаж,119530.0,Очаково-Матвеевское,Москва,Москва,,,55.707209,37.457074,branch
Альфа-банк,,Банки,"Кутузовский проспект, 30/32",1 этаж,121165.0,Дорогомилово,Москва,Москва,4.7,161.0,55.741546,37.537659,branch
Рулекс,бизнес-коворкинг,Коворкинг; Бухгалтерские услуги,"2-й Смоленский переулок, 1/4",,121099.0,Арбат,Москва,Москва,,,55.746766,37.582046,branch
Банк жилищного финансирования,,Банки; Ипотечные кредиты,"Брянская улица, 5",1 этаж,121059.0,Дорогомилово,Москва,Москва,4.8,104.0,55.744205,37.561726,branch
Бизнес-центр,,Аренда помещений; Бизнес-центры,"Неманский проезд, 4 к2",,123181.0,Строгино,Москва,Москва,,,55.81391,37.392438,branch
Sunrise,центр аренды кабинета,Коворкинг,"Тарутинская улица, 1",1 этаж; вход со двора,121108.0,Фили-Давыдково,Москва,Москва,3.6,2.0,55.732062,37.470925,branch
Капитал,бизнес-центр,Бизнес-центры,"Краснопресненская набережная, 8",,123100.0,Пресненский,Москва,Москва,4.7,10.0,55.754928,37.566714,branch
Коворкинг-переговорная,,Коворкинг,"улица Кулакова, 20 ст1а",,123592.0,Строгино,Москва,Москва,,,55.805492,37.392039,branch
Regus,офисный центр,Коворкинг; Конференц-залы,"Вернадского проспект, 6",6 этаж,119313.0,Раменки,Москва,Москва,1.0,3.0,55.692387,37.529017,branch
Атмосфера,коворкинг-центр,Конференц-залы; Коворкинг,"Аминьевское шоссе, 6",3 этаж,119530.0,Очаково-Матвеевское,Москва,Москва,1.4,1.0,55.707216,37.457069,branch
Крылатский,бизнес-центр,Бизнес-центры,"Осенняя улица, 11",,121609.0,Крылатское,Москва,Москва,5.0,1.0,55.762253,37.404225,branch
Луч,бизнес-центр,Бизнес-центры,"Большая Пироговская улица, 27 ст1",,119435.0,Хамовники,Москва,Москва,4.3,10.0,55.730193,37.567793,branch
Альфа-банк,,Банки,"Вернадского проспект, 119",1 этаж,119571.0,Тропарёво-Никулино,Москва,Москва,4.7,93.0,55.657532,37.481698,branch
Madex,торгово-выставочный комплекс,Бизнес-центры; ТЦ товаров для интерьера и ремонта,"Рябиновая улица, 41 к1 ст6",618 кабинет; 6 этаж,121471.0,Очаково-Матвеевское,Москва,Москва,4.7,7.0,55.701676,37.422123,branch
Камкомбанк,,Банки; Обмен валюты,"Пресненская набережная, 10 ст2",цокольный этаж,123112.0,Пресненский,Москва,Москва,4.9,104.0,55.747888,37.534943,branch
Новатор,деловой центр,Бизнес-центры,"бульвар Строителей, 7",,143401.0,,Красногорск,Московская область,4.4,10.0,55.816347,37.383404,branch
Альфа-банк,,Банки,"Ярцевская улица, 27 к1",1 этаж,121552.0,Кунцево,Москва,Москва,4.8,120.0,55.741901,37.417176,branch
СберБанк,,Банки; Обмен валюты; Ипотечные кредиты; Операции на фондовом рынке; Регистрация и ликвидация предприятий; Электронные подписи,"Барклая улица, 16 к1",1 этаж,121309.0,Филёвский парк,Москва,Москва,3.9,7.0,55.745977,37.496452,branch
Неверовского 9,бизнес-центр,Бизнес-центры,"Неверовского улица, 9",,121293.0,Дорогомилово,Москва,Москва,4.9,1.0,55.738045,37.510355,branch
СберБанк,,Банки; Обмен валюты; Ипотечные кредиты; Инвестиционные драгоценные металлы; Операции на фондовом рынке; Регистрация и ликвидация предприятий; Электронные подписи,"Осенний бульвар, 12",2 этаж,121614.0,Крылатское,Москва,Москва,4.1,12.0,55.75937,37.408854,branch
Квартал Менделеева,офисный центр,Бизнес-центры,"улица Нобеля, 5",,143026.0,Можайский,Москва,Москва,4.7,3.0,55.684374,37.341325,branch
Сильвер хауз,бизнес-центр,Бизнес-центры; Аренда помещений,"Вернадского проспект, 8а",1 этаж,119313.0,Раменки,Москва,Москва,4.0,4.0,55.689821,37.527153,branch
На Карамышевской,бизнес-центр,Бизнес-центры,"Карамышевская набережная, 44",,123423.0,Хорошёво-Мнёвники,Москва,Москва,4.6,4.0,55.770938,37.465833,branch
На Рябиновой,бизнес-центр,Бизнес-центры,"Рябиновая улица, 14",,121471.0,Можайский,Москва,Москва,5.0,4.0,55.71355,37.421821,branch
Боровский,бизнес-центр,Бизнес-центры,"МКАД 47 километр, ст21",,119618.0,Солнцево,Москва,Москва,4.5,5.0,55.657935,37.431208,branch
Газпромбанк,,Банки,"Вернадского проспект, 37 к2",1 этаж,119415.0,Проспект Вернадского,Москва,Москва,2.6,75.0,55.67754,37.509278,branch
Малая Пироговская 18,бизнес-центр,Бизнес-центры,"Малая Пироговская улица, 18",,119435.0,Хамовники,Москва,Москва,4.2,7.0,55.727925,37.565902,branch
Allpartners,компания,Аренда помещений; Коворкинг; Конференц-залы,"Пресненская набережная, 12",40 этаж,123112.0,Пресненский,Москва,Москва,,,55.749515,37.537707,branch
Цифра банк,,Банки; Обмен валюты,"1-й Красногвардейский проезд, 15",1 этаж,123112.0,Пресненский,Москва,Москва,4.8,55.0,55.750296,37.539405,branch
Альфа-банк,,Банки; Регистрация и ликвидация предприятий,"Пресненская набережная, 2",2 этаж,123112.0,Пресненский,Москва,Москва,3.5,12.0,55.748228,37.538837,branch
ВТБ Банк,банк,Банки,"улица Богданова, 19",1 этаж,119620.0,Солнцево,Москва,Москва,4.0,17.0,55.652658,37.393537,branch
Сфера,бизнес-центр,Бизнес-центры; Аренда помещений,"Солнцевский проспект, 13",,119620.0,Солнцево,Москва,Москва,5.0,1.0,55.649038,37.406141,branch
Альфа-банк,,Банки,"Мичуринский проспект, 7",1 этаж,119192.0,Раменки,Москва,Москва,4.7,94.0,55.702793,37.50949,branch
Совкомбанк,,Банки; Обмен валюты,"Вернадского проспект, 105",1 этаж,119526.0,Тропарёво-Никулино,Москва,Москва,4.6,75.0,55.662798,37.485454,branch
СберБанк,,Банки; Обмен валюты; Ипотечные кредиты; Инвестиционные драгоценные металлы; Операции на фондовом рынке; Регистрация и ликвидация предприятий; Электронные подписи,"Ярцевская улица, 25а",202 павильон; 2 этаж,121552.0,Кунцево,Москва,Москва,4.2,16.0,55.741081,37.41575,branch
Альфа-банк,,Банки,"Ленинский проспект, 99",1 этаж,119421.0,Обручевский,Москва,Москва,4.6,24.0,55.668808,37.518256,branch
СберБанк,,Банки; Обмен валюты; Ипотечные кредиты; ПИФы; Инвестиционные драгоценные металлы; Операции на фондовом рынке; Регистрация и ликвидация предприятий; Электронные подписи,"Ленинский проспект, 99",1 этаж,119421.0,Обручевский,Москва,Москва,4.1,11.0,55.668784,37.518454,branch
СберБанк,,Банки; Обмен валюты; Ипотечные кредиты; Операции на фондовом рынке; Регистрация и ликвидация предприятий; Инвестиционные драгоценные металлы; Электронные подписи,"Вернадского проспект, 41 ст3",1 этаж,119415.0,Проспект Вернадского,Москва,Москва,4.6,11.0,55.67448,37.504967,branch
Choupette,офис,Бизнес-центры,"Барклая улица, 6 ст5",617/2 офис; 6 этаж,121087.0,Филёвский парк,Москва,Москва,4.2,5.0,55.738815,37.507942,branch
Преображенский пассаж,бизнес-центр,Аренда помещений; Бизнес-центры,"проспект Маршала Жукова, 51",1-3 этаж,123154.0,Хорошёво-Мнёвники,Москва,Москва,,,55.776656,37.46224,branch
Московский офисный центр,управляющая компания,Аренда помещений; Конференц-залы; Коворкинг,"Пресненская набережная, 12",82 офис; 45 этаж; Башня Восток,123112.0,Пресненский,Москва,Москва,5.0,80.0,55.749515,37.537707,branch
Коворкинг-центр для некоммерческих организаций и молодежи,,Коворкинг,"Рублёвское шоссе, 81 к1",,121467.0,Кунцево,Москва,Москва,4.1,1.0,55.738505,37.431042,branch
Orbita46,коворкинг-центр,Коворкинг,"Пресненская набережная, 12",46 этаж,123112.0,Пресненский,Москва,Москва,,,55.749515,37.537707,branch
Бизнес-Недвижимость,Компания,Аренда помещений; Конференц-залы; Коворкинг,"Багратионовский проезд, 18",2 этаж,121087.0,Филёвский парк,Москва,Москва,4.1,1.0,55.743543,37.500763,branch
Meeting point,коворкинг,Бизнес-центры; Коворкинг,"Большой Саввинский переулок, 12 ст5",1 этаж,119435.0,Хамовники,Москва,Москва,,,55.732647,37.563825,branch
Проминэкспо,центр аренды и управления недвижимостью,Аренда помещений; Бизнес-центры,"улица Коцюбинского, 4",283 офис; 2 этаж,121351.0,Кунцево,Москва,Москва,,,55.728559,37.431165,branch
F2,коворкинг-центр,Коворкинг; Конференц-залы,"Береговой проезд, 5а к1","13, 14 этаж",121087.0,Филёвский парк,Москва,Москва,5.0,12.0,55.754936,37.508936,branch
Allpartners,компания,Аренда помещений; Коворкинг; Конференц-залы,"Пресненская набережная, 12",51 этаж,123112.0,Пресненский,Москва,Москва,,,55.749515,37.537707,branch
Promindustry ag,инвестиционно-строительная компания,Аренда помещений; Застройщики; Строительство административных зданий; Инвестиционные компании,"улица Покрышкина, 8 к3",1 этаж,119602.0,Тропарёво-Никулино,Москва,Москва,,,55.665482,37.472345,branch
Коворкинг-центр,,Коворкинг,"Большой бульвар, 42 ст1",,121205.0,Можайский,Москва,Москва,,,55.694114,37.347331,branch
ВТБ Банк,банк,Банки,"Барклая улица, 7 к1",1 этаж,121096.0,Филёвский парк,Москва,Москва,4.7,75.0,55.74075,37.501091,branch
СберБанк,,Банки; Обмен валюты; Ипотечные кредиты; ПИФы; Инвестиционные драгоценные металлы; Операции на фондовом рынке; Регистрация и ликвидация предприятий; Электронные подписи,"Вернадского проспект, 86Б",1 этаж,119571.0,Тропарёво-Никулино,Москва,Москва,3.3,23.0,55.661896,37.481394,branch
РочДелЦентр,бизнес-центр,Бизнес-центры,"Рочдельская улица, 20",,123376.0,Пресненский,Москва,Москва,,,55.757272,37.566019,branch
СберБанк,,Банки; Обмен валюты; Ипотечные кредиты; Электронные подписи; ПИФы; Инвестиционные драгоценные металлы; Операции на фондовом рынке; Регистрация и ликвидация предприятий,"улица Федосьино, 4 к1",1-3 этаж,119634.0,Ново-Переделкино,Москва,Москва,4.5,15.0,55.635242,37.3429,branch
СберБанк,,Банки; Обмен валюты; Ипотечные кредиты; Электронные подписи; ПИФы; Инвестиционные драгоценные металлы; Операции на фондовом рынке; Регистрация и ликвидация предприятий,"Никулинская улица, 25",1 этаж,119602.0,Тропарёво-Никулино,Москва,Москва,4.3,9.0,55.669583,37.453368,branch
Коворкинг для экспертов,,Психолог; Коворкинг; Конференц-залы,"улица Самуила Маршака, 21",6 помещение; 1 этаж,108849.0,Внуково,Москва,Москва,4.0,3.0,55.634726,37.321333,branch
Камкомбанк,,Банки; Обмен валюты; Ипотечные кредиты,"Ярцевская улица, 14",1 этаж,121351.0,Кунцево,Москва,Москва,4.9,186.0,55.737875,37.412352,branch
ВТБ Банк,банк,Банки,"Вернадского проспект, 105 к3",1 этаж,119526.0,Тропарёво-Никулино,Москва,Москва,2.8,30.0,55.663597,37.484578,branch
Удальцова плаза,бизнес-центр,Бизнес-центры,"улица Удальцова, 1а",,119415.0,Проспект Вернадского,Москва,Москва,4.9,2.0,55.671092,37.518796,branch
Банк ДОМ. РФ,банк,Банки; Обмен валюты; Ипотечные кредиты,"Вернадского проспект, 41",1 этаж,119415.0,Проспект Вернадского,Москва,Москва,3.3,62.0,55.674404,37.502929,branch
Совкомбанк,,Банки; Ипотечные кредиты,"Краснопресненская набережная, 14 ст1",1 этаж,123100.0,Пресненский,Москва,Москва,4.7,83.0,55.752576,37.548254,branch
Гольф Клуб,бизнес-центр,Бизнес-центры,"Островная улица, 2",,121552.0,Крылатское,Москва,Москва,,,55.760474,37.457729,branch
Upside Kuntsevo,бизнес-центр,Бизнес-центры,"Рублёвское шоссе, 21",,121351.0,Кунцево,Москва,Москва,5.0,48.0,55.729808,37.44241,branch
Россельхозбанк,,Банки; Обмен валюты; Ипотечные кредиты,"Ломоносовский проспект, 25 к1",1 этаж,119311.0,Раменки,Москва,Москва,4.8,128.0,55.694464,37.532777,branch
Банк Новиком,,Банки; Обмен валюты,"улица Усачёва, 24",1 этаж,119048.0,Хамовники,Москва,Москва,4.4,12.0,55.727628,37.568863,branch
Альфа-банк,,Банки,"улица Корнея Чуковского, 2",1 этаж,108849.0,Внуково,Москва,Москва,4.7,95.0,55.634417,37.334595,branch
Альфа-банк,,Банки,"Смоленская-Сенная площадь, 27 ст1",,119121.0,Хамовники,Москва,Москва,4.8,115.0,55.744744,37.582878,branch
Moscow towers,многофункциональный комплекс,Бизнес-центры,"Пресненская набережная, 2а",,123112.0,Пресненский,Москва,Москва,4.9,47.0,55.750871,37.540239,branch
Бастион,бизнес-центр,Бизнес-центры,"Барклая улица, 6 ст25",,121087.0,Филёвский парк,Москва,Москва,4.7,2.0,55.741324,37.509126,branch
Банк Казани,коммерческий банк экономического развития,Банки; Обмен валюты,"Мичуринский проспект, 34",,119192.0,Раменки,Москва,Москва,4.8,4.0,55.698408,37.498579,branch
СберБанк,,Банки; Ипотечные кредиты; Регистрация и ликвидация предприятий; Операции на фондовом рынке; Электронные подписи,"МКАД 47 километр, ст20",,119618.0,Солнцево,Москва,Москва,3.2,4.0,55.659299,37.430592,branch
СберБанк,,Банки; Обмен валюты; Ипотечные кредиты; Инвестиционные драгоценные металлы; Регистрация и ликвидация предприятий; Операции на фондовом рынке; Электронные подписи,"Озёрная улица, 10",1 этаж,119361.0,Очаково-Матвеевское,Москва,Москва,3.6,6.0,55.681349,37.458838,branch
ВТБ Банк,банк,Банки,"Анны Ахматовой улица, 11 к3",,108849.0,Внуково,Москва,Москва,4.8,5.0,55.633631,37.330704,branch
Молодежный,бизнес-центр,Бизнес-центры,"Оршанская улица, 5",,121552.0,Кунцево,Москва,Москва,3.3,3.0,55.740584,37.408364,branch
Савинская 11,бизнес-центр,Бизнес-центры,"Саввинская набережная, 11",,119435.0,Хамовники,Москва,Москва,,,55.73661,37.568824,branch
Райффайзенбанк,банк,Банки; Обмен валюты,"Ленинский проспект, 148",2 этаж,119571.0,Тропарёво-Никулино,Москва,Москва,3.5,3.0,55.655631,37.494079,branch
СберБанк,,Банки; Обмен валюты; Ипотечные кредиты; Инвестиционные драгоценные металлы; Операции на фондовом рынке; Регистрация и ликвидация предприятий; Электронные подписи,"Солнцевский проспект, 2",1 этаж,119620.0,Солнцево,Москва,Москва,4.5,15.0,55.652694,37.396756,branch
Совкомбанк,,Банки,"Боровское шоссе, 30а",1 этаж,119634.0,Ново-Переделкино,Москва,Москва,4.8,17.0,55.640365,37.355309,branch
Совкомбанк,,Банки; Обмен валюты,"Ярцевская улица, 27 к1",,121552.0,Кунцево,Москва,Москва,4.7,85.0,55.741773,37.4163,branch
Эктос,бизнес-центр,Бизнес-центры,"Вернадского проспект, 37 к1",,119415.0,Проспект Вернадского,Москва,Москва,5.0,3.0,55.678698,37.512003,branch
ВТБ Банк,банк,Банки,"площадь Победы, 1 к Б",1 этаж,121293.0,Дорогомилово,Москва,Москва,3.6,48.0,55.735757,37.519927,branch
Камкомбанк,,Банки; Ипотечные кредиты; Обмен валюты,"площадь Победы, 2 к1",1 этаж,121293.0,Дорогомилово,Москва,Москва,4.9,197.0,55.737694,37.521453,branch
ББР Банк,,Банки; Обмен валюты,"1-й Николощеповский переулок, 6 ст1",1 этаж,121099.0,Арбат,Москва,Москва,4.9,124.0,55.748825,37.581286,branch
ВТБ Банк,офис,Банки,"Пресненская набережная, 10 ст1","7, 23 этаж",123112.0,Пресненский,Москва,Москва,3.7,4.0,55.748795,37.535709,branch
Альфа-банк,,Банки; Обмен валюты,"Ломоносовский проспект, 25 к1",1 этаж,119311.0,Раменки,Москва,Москва,4.9,115.0,55.694115,37.533383,branch
ВТБ Банк,банк,Банки; Ипотечные кредиты; Операции на фондовом рынке,"Киевская улица, 2",1 этаж,121059.0,Дорогомилово,Москва,Москва,4.6,54.0,55.743264,37.563098,branch
СберБанк,,Банки; Обмен валюты; Ипотечные кредиты; Регистрация и ликвидация предприятий; Операции на фондовом рынке; Электронные подписи,"Ленинский проспект, 75/9",1 этаж,119261.0,Гагаринский,Москва,Москва,2.9,6.0,55.687034,37.545024,branch
Рэдиссон-Славянская,деловой центр,Бизнес-центры,"площадь Евразии, 2",,121059.0,Дорогомилово,Москва,Москва,4.6,8.0,55.741939,37.56689,branch
Верейская плаза I,бизнес-центр,Бизнес-центры,"Верейская улица, 29 ст154",,121357.0,Можайский,Москва,Москва,5.0,3.0,55.710118,37.442577,branch
Гостиница Можайская,офисный центр,Бизнес-центры,"Можайское шоссе, 165 ст1",1-10 этаж,121596.0,,,Московская область,3.8,2.0,55.712325,37.382696,branch
ВТБ Банк,банк,Банки,"Мичуринский проспект, 7",1 этаж,119192.0,Раменки,Москва,Москва,4.6,64.0,55.702983,37.509831,branch
Райффайзенбанк,банк,Банки; Обмен валюты,"Мичуринский проспект, 7",1 этаж,119192.0,Раменки,Москва,Москва,4.0,11.0,55.702613,37.509165,branch
Россельхозбанк,,Банки; Обмен валюты; Ипотечные кредиты,"Мичуринский проспект, 34",1 этаж,119192.0,Раменки,Москва,Москва,4.8,102.0,55.698565,37.498861,branch
Crosswall,бизнес-центр,Бизнес-центры,"Неверовского улица, 10 ст3а",,121293.0,Дорогомилово,Москва,Москва,4.9,8.0,55.739126,37.510605,branch
ВТБ Банк,банк,Банки,"Ярцевская улица, 24 к2",1 этаж,121552.0,Кунцево,Москва,Москва,4.4,27.0,55.739476,37.414823,branch
ВТБ Банк,банк,Банки,"Вернадского проспект, 29",1 этаж,119331.0,Ломоносовский,Москва,Москва,3.9,49.0,55.681637,37.516004,branch
СберБанк,,Банки; Обмен валюты; Ипотечные кредиты; Электронные подписи; Инвестиционные драгоценные металлы; Операции на фондовом рынке; Регистрация и ликвидация предприятий,"Заводская улица, 31",1 этаж,143405.0,,Красногорск,Московская область,5.0,4.0,55.808242,37.325775,branch
МТС-банк,,Банки; Ипотечные кредиты; Обмен валюты; Электронные подписи,"Новинский бульвар, 1/2",1 этаж,121099.0,Арбат,Москва,Москва,3.8,19.0,55.750495,37.582549,branch
Россельхозбанк,,Банки; Обмен валюты,"Ярцевская улица, 22 ст1",1 этаж,121351.0,Кунцево,Москва,Москва,4.9,129.0,55.738709,37.413597,branch
Камкомбанк,,Банки; Ипотечные кредиты; Обмен валюты,"Ленинский проспект, 87",,119313.0,Ломоносовский,Москва,Москва,5.0,41.0,55.679637,37.534098,branch
Мострансагентства,деловой центр,Бизнес-центры,"улица Мнёвники, 3 к1",,123308.0,Хорошёво-Мнёвники,Москва,Москва,5.0,1.0,55.773359,37.498465,branch
Банк ПСБ,,Банки; Обмен валюты,"Вернадского проспект, 37 к1Б",1 этаж,119415.0,Проспект Вернадского,Москва,Москва,2.4,27.0,55.678057,37.510454,branch
Банк ДОМ. РФ,дополнительный офис Кутузовский,Банки; Обмен валюты; Ипотечные кредиты,"Кутузовский проспект, 2/1 к1а",1 этаж,121248.0,Дорогомилово,Москва,Москва,4.8,126.0,55.750735,37.564138,branch
СберПервый,отдел по работе с ВИП-клиентами,Банки; Ипотечные кредиты; ПИФы; Обмен валюты; Инвестиционные драгоценные металлы; Операции на фондовом рынке,"Пресненская набережная, 12",1 этаж,123112.0,Пресненский,Москва,Москва,3.0,16.0,55.750095,37.537654,branch
СберБанк,,Банки; Обмен валюты; Ипотечные кредиты; Инвестиционные драгоценные металлы; Регистрация и ликвидация предприятий; Операции на фондовом рынке; Электронные подписи,"Матвеевская улица, 2",1 этаж,119501.0,Очаково-Матвеевское,Москва,Москва,4.7,3.0,55.705493,37.47924,branch
СберБанк,,Банки; Обмен валюты; Ипотечные кредиты; ПИФы; Инвестиционные драгоценные металлы; Операции на фондовом рынке; Регистрация и ликвидация предприятий; Электронные подписи,"Кутузовский проспект, 36а",1 этаж,121170.0,Дорогомилово,Москва,Москва,4.3,11.0,55.738517,37.525634,branch
СберБанк,,Банки; Обмен валюты; Ипотечные кредиты; ПИФы; Инвестиционные драгоценные металлы; Операции на фондовом рынке; Регистрация и ликвидация предприятий; Электронные подписи,"Мичуринский проспект, 26",1 этаж,119192.0,Раменки,Москва,Москва,4.2,7.0,55.700247,37.502153,branch
СиПиТраст,Офисный центр,Бизнес-центры,"Воробьёвское шоссе, 6",,119285.0,Раменки,Москва,Москва,4.4,4.0,55.72711,37.535043,branch
СберБанк,,Банки; Обмен валюты; Ипотечные кредиты; ПИФы; Инвестиционные драгоценные металлы; Операции на фондовом рынке; Регистрация и ликвидация предприятий; Электронные подписи,"улица 50 лет Октября, 11",1 этаж,119618.0,Солнцево,Москва,Москва,4.8,3.0,55.651395,37.412888,branch
Панорама-Центр,деловой комплекс,Бизнес-центры,"Лужнецкая набережная, 6 ст1",,119270.0,Хамовники,Москва,Москва,5.0,1.0,55.713335,37.568814,branch
Кутузовъ-холл,,Бизнес-центры,"Минская улица, 2г к1",вход с левого торца здания,119285.0,Раменки,Москва,Москва,3.9,1.0,55.71784,37.502972,branch
ВТБ Банк,банк,Банки,"Ярцевская улица, 27 к1",,121552.0,Кунцево,Москва,Москва,3.7,60.0,55.74182,37.416203,branch
СберБанк,,Банки; Обмен валюты; Ипотечные кредиты; Инвестиционные драгоценные металлы; Регистрация и ликвидация предприятий; Операции на фондовом рынке; Электронные подписи,"Мичуринский проспект, 3",1 этаж,119192.0,Раменки,Москва,Москва,3.1,13.0,55.704575,37.512756,branch
Газпромбанк,,Банки,"Мичуринский проспект, 7",1 этаж,119192.0,Раменки,Москва,Москва,1.8,43.0,55.702613,37.509165,branch
Норт атлантик сервисис,бизнес-центр,Бизнес-центры,"Миклухо-Маклая улица, вл8 ст3",,117198.0,Обручевский,Москва,Москва,4.9,1.0,55.648535,37.501901,branch
СберБанк,,Банки; Обмен валюты; Ипотечные кредиты; Регистрация и ликвидация предприятий; Операции на фондовом рынке; Электронные подписи,"Ленинский проспект, 89/2",1 этаж,119313.0,Ломоносовский,Москва,Москва,4.1,5.0,55.678035,37.531732,branch
СберПервый,отдел по работе с ВИП-клиентами,Банки; Ипотечные кредиты; Обмен валюты; ПИФы; Инвестиционные драгоценные металлы; Операции на фондовом рынке,"Рочдельская улица, 12 ст1",1 этаж,123376.0,Пресненский,Москва,Москва,5.0,2.0,55.756953,37.570163,branch
Колизей,офисный центр,Бизнес-центры,"МКАД 60 километр, 4а",1-2 этаж,121500.0,Кунцево,Москва,Москва,,,55.766658,37.372252,branch
Квартал Менделеева,офисный центр,Бизнес-центры,"улица Нобеля, 1",,143026.0,Можайский,Москва,Москва,,,55.684854,37.339131,branch
СберБанк,,Банки; Обмен валюты; Ипотечные кредиты; Электронные подписи; Инвестиционные драгоценные металлы; Операции на фондовом рынке; Регистрация и ликвидация предприятий,"Мичуринский проспект, 31 к4",1 этаж,119607.0,Раменки,Москва,Москва,3.4,18.0,55.694324,37.496767,branch
Юнистрим,система денежных переводов,Банки; Обмен валюты,"площадь Киевского вокзала, 2",1 этаж; справа при входе в метро,121059.0,Дорогомилово,Москва,Москва,3.9,4.0,55.744463,37.56735,branch
Альфа-банк,,Банки,"Осенний бульвар, 7 к1",1 этаж,121609.0,Крылатское,Москва,Москва,4.7,56.0,55.757767,37.407265,branch
СберБанк,,Банки; Обмен валюты; Ипотечные кредиты; Инвестиционные драгоценные металлы; Операции на фондовом рынке; Регистрация и ликвидация предприятий; Электронные подписи,"Ленинский проспект, 148",1 этаж,119571.0,Тропарёво-Никулино,Москва,Москва,3.3,9.0,55.654901,37.49248,branch
Плющиха`55,клубный деловой центр,Аренда помещений; Бизнес-центры,"улица Плющиха, 55 ст2",,119121.0,Хамовники,Москва,Москва,5.0,2.0,55.738085,37.576265,branch
Совкомбанк,,Банки; Обмен валюты,"Кутузовский проспект, 30",1 этаж,121165.0,Дорогомилово,Москва,Москва,4.5,59.0,55.741213,37.536717,branch
Qoob,строящийся бизнес-центр,Бизнес-центры,"улица Алексея Свиридова, вл17",,121374.0,Фили-Давыдково,Москва,Москва,5.0,57.0,55.726464,37.451435,branch
ВТБ Банк,дополнительный офис Ломоносовский,Банки,"Ленинский проспект, 69",1 этаж,119296.0,Гагаринский,Москва,Москва,4.5,19.0,55.690245,37.550291,branch
Держава,акционерный коммерческий банк,Банки,"Большой Саввинский переулок, 2 ст9",,119435.0,Хамовники,Москва,Москва,4.1,3.0,55.735953,37.569822,branch
СберБанк,,Банки; Ипотечные кредиты; Обмен валюты; Операции на фондовом рынке; Регистрация и ликвидация предприятий; Электронные подписи,"Миклухо-Маклая улица, 17",1 этаж,117198.0,Обручевский,Москва,Москва,3.5,2.0,55.652159,37.505884,branch
СберБанк,,Банки; Обмен валюты; Ипотечные кредиты; ПИФы; Инвестиционные драгоценные металлы; Операции на фондовом рынке; Регистрация и ликвидация предприятий; Электронные подписи,"Шмитовский проезд, 16 ст1",1 этаж,123100.0,Пресненский,Москва,Москва,2.9,16.0,55.758099,37.548936,branch
Россельхозбанк,,Банки; Обмен валюты,"Большая Дорогомиловская улица, 10",1 этаж,121059.0,Дорогомилово,Москва,Москва,4.8,86.0,55.746281,37.562803,branch
Pallau rb,деловой центр,Бизнес-центры,"километр Рублёво-Успенское шоссе 1, 1 к А",,143082.0,,,Московская область,4.3,3.0,55.765933,37.365609,branch
ВТБ Привилегия,банк,Банки,"Мичуринский проспект, Олимпийская деревня проспект, 1 к4",1 этаж,119602.0,Тропарёво-Никулино,Москва,Москва,4.8,27.0,55.679439,37.468398,branch
Riverside Station,бизнес-центр,Бизнес-центры,"Бережковская набережная, 16а",,121059.0,Дорогомилово,Москва,Москва,4.6,44.0,55.737888,37.562632,branch
СберБанк,,Банки; Обмен валюты; Ипотечные кредиты; ПИФы; Инвестиционные драгоценные металлы; Операции на фондовом рынке; Регистрация и ликвидация предприятий; Электронные подписи,"Рублёвское шоссе, 42",1 этаж,121609.0,Крылатское,Москва,Москва,4.5,8.0,55.751078,37.41225,branch
Капитолий,бизнес-центр,Бизнес-центры,"Вернадского проспект, 6",,119313.0,Раменки,Москва,Москва,4.1,5.0,55.692392,37.528856,branch
СберБанк,,Банки; Обмен валюты; Ипотечные кредиты; Электронные подписи; ПИФы; Инвестиционные драгоценные металлы; Операции на фондовом рынке; Регистрация и ликвидация предприятий,"улица Академика Бакулева, 2",1 этаж,117513.0,Тёплый Стан,Москва,Москва,3.5,7.0,55.643437,37.489503,branch
СберБанк,,Банки; Обмен валюты; Ипотечные кредиты; ПИФы; Инвестиционные драгоценные металлы; Операции на фондовом рынке; Регистрация и ликвидация предприятий; Электронные подписи,"проспект Маршала Жукова, 44",1 этаж,123154.0,Хорошёво-Мнёвники,Москва,Москва,3.8,10.0,55.777293,37.467017,branch
СберБанк,,Банки; Обмен валюты; Ипотечные кредиты; Операции на фондовом рынке; Регистрация и ликвидация предприятий; Электронные подписи,"Вернадского проспект, 97 к1",,119526.0,Тропарёво-Никулино,Москва,Москва,5.0,2.0,55.66751,37.490987,branch
СберБанк,,Банки; Обмен валюты; Ипотечные кредиты; ПИФы; Инвестиционные драгоценные металлы; Операции на фондовом рынке; Регистрация и ликвидация предприятий; Электронные подписи,"Кутузовский проспект, 30",1 этаж,121165.0,Дорогомилово,Москва,Москва,4.2,12.0,55.741311,37.536997,branch
ВТБ Привилегия,банк,Банки,"Ленинский проспект, 111 к1",1 этаж,119421.0,Обручевский,Москва,Москва,4.3,12.0,55.661336,37.510591,branch
Алмазэргиэнбанк,представительство,Банки,"Пресненская набережная, 8 ст1",2 этаж,123112.0,Пресненский,Москва,Москва,2.6,6.0,55.746786,37.539546,branch
СберБанк,,Банки; Обмен валюты; Ипотечные кредиты; Инвестиционные драгоценные металлы; Операции на фондовом рынке; Регистрация и ликвидация предприятий; Электронные подписи,"Можайское шоссе, 4 к1",1 этаж,121374.0,Можайский,Москва,Москва,,,55.723451,37.445245,branch
Фора-Банк,,Банки; Обмен валюты,"Пресненская набережная, 2",2 этаж,123112.0,Пресненский,Москва,Москва,2.9,9.0,55.748457,37.537177,branch
СберБанк,,Банки; Обмен валюты; Ипотечные кредиты; ПИФы; Инвестиционные драгоценные металлы; Операции на фондовом рынке; Регистрация и ликвидация предприятий; Электронные подписи,"Кастанаевская улица, 24",3 этаж,121096.0,Филёвский парк,Москва,Москва,4.0,7.0,55.73863,37.49071,branch
ВТБ Банк,банк,Банки,"Кутузовский проспект, 30",,121165.0,Дорогомилово,Москва,Москва,4.5,18.0,55.741675,37.538024,branch
Porta,строящийся бизнес-центр,Бизнес-центры,"Заречная улица, вл2/1",,121087.0,Филёвский парк,Москва,Москва,5.0,58.0,55.747106,37.518783,branch
Ренессанс Банк,,Банки; Обмен валюты,"Вернадского проспект, 33",,119331.0,Ломоносовский,Москва,Москва,4.8,43.0,55.680484,37.51402,branch
ВТБ Банк,банк,Банки,"Можайское шоссе, 45Б",1 этаж,121353.0,Можайский,Москва,Москва,4.5,16.0,55.716378,37.40719,branch
Premium West,бизнес-центр,Бизнес-центры; Аренда помещений,"Можайское шоссе, вл165",,121596.0,,,Московская область,4.3,3.0,55.709778,37.382301,branch
Ноосфера,дополнительный офис,Банки,"площадь Победы, 2 к2",1 этаж,121293.0,Дорогомилово,Москва,Москва,,,55.737276,37.516898,branch
Газпромбанк,офис обслуживания юридических лиц,Банки,"площадь Киевского вокзала, 2",0-А28 павильон; 0 этаж,121059.0,Дорогомилово,Москва,Москва,2.2,14.0,55.744559,37.567268,branch
Профис недвижимость,офис,Агентства недвижимости,"Кутузовский проспект, 36 ст17",102 офис; 1 этаж,121170.0,Дорогомилово,Москва,Москва,5.0,4.0,55.741501,37.523959,branch
Инстрой-интеграция,офис,Проектирование инженерных систем; Архитектурное проектирование; Кадастровые работы,"Большая Филёвская улица, 25 ст1","605, 605/1 офис; 6 этаж",121309.0,Филёвский парк,Москва,Москва,,,55.745214,37.488801,branch
СберБанк,,Банки; Обмен валюты; Ипотечные кредиты; Операции на фондовом рынке; Регистрация и ликвидация предприятий; Электронные подписи,"Славянский бульвар, 3",1 этаж,121352.0,Фили-Давыдково,Москва,Москва,4.4,10.0,55.727211,37.473649,branch
ВТБ Банк,банк,Банки,"Вернадского проспект, 41",,119415.0,Проспект Вернадского,Москва,Москва,5.0,8.0,55.67459,37.503262,branch
СберБанк,,Банки; Обмен валюты; Ипотечные кредиты; ПИФы; Инвестиционные драгоценные металлы; Операции на фондовом рынке; Регистрация и ликвидация предприятий; Электронные подписи,"Вяземская улица, 4",1 этаж,121353.0,Можайский,Москва,Москва,4.2,11.0,55.714404,37.40288,branch
МТС-банк,,Банки,"Осенний бульвар, 9",,121609.0,Крылатское,Москва,Москва,1.5,10.0,55.758212,37.407043,branch
Совкомбанк,,Банки,"Мичуринский проспект, 38",,119192.0,Раменки,Москва,Москва,4.8,22.0,55.697302,37.496546,branch
ВТБ Банк,банк,Банки; Ипотечные кредиты; Операции на фондовом рынке,"Озёрная улица, 33",1 этаж,119361.0,Очаково-Матвеевское,Москва,Москва,2.3,3.0,55.671223,37.449703,branch
Газпромбанк,,Банки,"Ярцевская улица, 32",1 этаж,121552.0,Кунцево,Москва,Москва,2.5,12.0,55.741187,37.417606,branch
Ури банк,,Банки,"Новинский бульвар, 8",8 этаж,121099.0,Арбат,Москва,Москва,4.1,3.0,55.751387,37.58375,branch
Банк Зенит,дополнительный офис №5,Банки; Обмен валюты; Ипотечные кредиты,"площадь Киевского вокзала, 2",1 этаж,121059.0,Дорогомилово,Москва,Москва,3.2,19.0,55.744475,37.565022,branch
Совкомбанк,,Банки,"Ленинский проспект, 99",1 этаж,119421.0,Обручевский,Москва,Москва,5.0,3.0,55.668643,37.518013,branch
Банк ДОМ. РФ,банк,Банки,"Ярцевская улица, 22",1 этаж,121351.0,Кунцево,Москва,Москва,5.0,14.0,55.738616,37.413459,branch
ВТБ Банк,банк,Банки,"Ленинский проспект, 93",,119313.0,Ломоносовский,Москва,Москва,,,55.675966,37.528773,branch
Европейский,дополнительный офис,Банки; Обмен валюты; Инвестиционные драгоценные металлы,"площадь Киевского вокзала, 2",1 этаж,121059.0,Дорогомилово,Москва,Москва,3.4,5.0,55.743612,37.564459,branch
СберБанк,,Банки; Ипотечные кредиты; Обмен валюты; Операции на фондовом рынке; Регистрация и ликвидация предприятий; Электронные подписи,"Молодогвардейская улица, 25 к1",1 этаж; отделение СберБанка,121351.0,Кунцево,Москва,Москва,4.0,12.0,55.733557,37.419197,branch
Райффайзенбанк,банк,Банки; Обмен валюты; Ипотечные кредиты,"Тестовская улица, 10",1 этаж; 2 подъезд,123112.0,Пресненский,Москва,Москва,2.8,4.0,55.751341,37.53299,branch
Neopolis,бизнес-центр,Бизнес-центры,"32-й квартал, вл16 ст2",,119297.0,Солнцево,Москва,Москва,,,55.628477,37.413189,branch
СберБанк,,Банки; Обмен валюты; Ипотечные кредиты; Операции на фондовом рынке; Регистрация и ликвидация предприятий; Электронные подписи,"Трёхгорная улица, 4",1 этаж,143001.0,,,Московская область,2.4,10.0,55.695695,37.335417,branch
Банк ДОМ. РФ,банк,Банки; Обмен валюты; Ипотечные кредиты,"Пресненская набережная, 10 ст2",1 этаж,123112.0,Пресненский,Москва,Москва,4.3,16.0,55.74757,37.535427,branch
ВТБ Привилегия,банк,Банки,"улица Красная Пресня, 11",,123242.0,Пресненский,Москва,Москва,4.6,30.0,55.761238,37.572655,branch
ВТБ Банк,банк,Банки; Обмен валюты,"Пресненская набережная, 10 ст1",1 этаж,123112.0,Пресненский,Москва,Москва,2.4,38.0,55.748544,37.534902,branch
Инго Банк,,Банки; Обмен валюты; Ипотечные кредиты,"Рочдельская улица, 30",1 этаж; правое крыло,123022.0,Пресненский,Москва,Москва,4.2,17.0,55.757149,37.562873,branch
